{
  "area_name": "Anjanapura 4th Block",
  "osm_id": 13245148763,
  "osm_type": "node",
  "place_type": "neighbourhood",
  "amenity_count": 15,
  "amenities": [
    {
      "type": "node",
      "id": 6276405887,
      "lat": 12.8620102,
      "lon": 77.5641166,
      "tags": {
        "addr:place": "Anjanapura",
        "amenity": "school",
        "isced:level": "2",
        "name": "GHPS Anjanapura",
        "name:kn": "ಸರ್ಕಾರಿ ಹಿರಿಯ ಪ್ರಾಥಮಿಕ ಶಾಲೆ ಆಂಜನಪುರ",
        "operator": "Department of Education",
        "school": "primary"
      }
    },
    {
      "type": "node",
      "id": 6400386412,
      "lat": 12.8586411,
      "lon": 77.5626375,
      "tags": {
        "addr:place": "Anjanapura",
        "amenity": "school",
        "isced:level": "3",
        "name": "Florence Public School 4th Blk, Anjanapura",
        "name:kn": "ಫ್ಲಾರೆನ್ಸ್ ಪಬ್ಲಿಕ್ ಶಾಲೆ ೪ನೇ ಬ್ಲಾಕ್, ಆಂಜನಾಪುರ",
        "operator": "Private Un-Aided",
        "school": "Higher Secondary"
      }
    },
    {
      "type": "node",
      "id": 6400392576,
      "lat": 12.8598087,
      "lon": 77.5677765,
      "tags": {
        "addr:place": "Anjanapura",
        "amenity": "school",
        "isced:level": "3",
        "name": "Mvs HPS, Anjanapura",
        "name:kn": "ಎಂ.ವಿ.ಎಸ್ ಹಿರಿಯ ಪ್ರಾಥಮಿಕ ಶಾಲೆ ,ಆಂಜನಾಪುರ",
        "operator": "Private Un-Aided",
        "school": "Higher secondary"
      }
    },
    {
      "type": "node",
      "id": 12208562949,
      "lat": 12.864281,
      "lon": 77.5632472,
      "tags": {
        "amenity": "restaurant",
        "contact:instagram": "sas.ive",
        "name": "Sasive",
        "website": "https://sasive.in/"
      }
    },
    {
      "type": "node",
      "id": 12778644461,
      "lat": 12.8559909,
      "lon": 77.5550903,
      "tags": {
        "addr:city": "Anjanapura",
        "addr:district": "Bengaluru",
        "addr:postcode": "560062",
        "addr:street": "80 Feet Road",
        "amenity": "events_venue",
        "name": "KBL Saarang",
        "website": "https://kblsaarang.com"
      }
    },
    {
      "type": "way",
      "id": 362883587,
      "center": {
        "lat": 12.8663897,
        "lon": 77.5621456
      },
      "tags": {
        "leisure": "park"
      }
    },
    {
      "type": "way",
      "id": 362883647,
      "center": {
        "lat": 12.8656444,
        "lon": 77.5646091
      },
      "tags": {
        "leisure": "park"
      }
    },
    {
      "type": "way",
      "id": 1134831507,
      "center": {
        "lat": 12.8588406,
        "lon": 77.5634538
      },
      "tags": {
        "amenity": "fire_station",
        "name": "Anjanapura Fire Station",
        "name:kn": "ಅಂಜನಾಪುರ ಅಗ್ನಿಶಾಮಕ ಠಾಣೆ"
      }
    },
    {
      "type": "way",
      "id": 1328835818,
      "center": {
        "lat": 12.8604359,
        "lon": 77.5683769
      },
      "tags": {
        "amenity": "school"
      }
    },
    {
      "type": "way",
      "id": 1337361059,
      "center": {
        "lat": 12.8608957,
        "lon": 77.559172
      },
      "tags": {
        "amenity": "fuel"
      }
    },
    {
      "type": "way",
      "id": 1337361061,
      "center": {
        "lat": 12.8568135,
        "lon": 77.5572025
      },
      "tags": {
        "access": "private",
        "leisure": "swimming_pool"
      }
    },
    {
      "type": "way",
      "id": 1345407066,
      "center": {
        "lat": 12.8562512,
        "lon": 77.5561694
      },
      "tags": {
        "addr:city": "Anjanapura",
        "addr:district": "Bengaluru",
        "addr:housenumber": "5/9",
        "addr:postcode": "560062",
        "addr:street": "80 feet road, near Vajaragiri Estate",
        "building": "sports_hall",
        "charge": "225 INR",
        "fee": "yes",
        "leisure": "sports_centre",
        "name": "Arise Badminton Academy",
        "opening_hours": "Mo-Su 05:00-22:00",
        "rental": "shoes;racket;",
        "sport": "badminton",
        "website": "https://siliconcitysportsacademy.com/arise-badminton/"
      }
    },
    {
      "type": "way",
      "id": 1345637499,
      "center": {
        "lat": 12.8653922,
        "lon": 77.5581326
      },
      "tags": {
        "access": "private",
        "leisure": "swimming_pool"
      }
    },
    {
      "type": "way",
      "id": 1346117110,
      "center": {
        "lat": 12.863635,
        "lon": 77.5620694
      },
      "tags": {
        "access": "private",
        "leisure": "swimming_pool"
      }
    },
    {
      "type": "way",
      "id": 1380289025,
      "center": {
        "lat": 12.8564627,
        "lon": 77.5569237
      },
      "tags": {
        "access": "customers",
        "amenity": "parking",
        "fee": "no",
        "parking": "surface",
        "surface": "ground"
      }
    }
  ]
}