{
  "area_name": "Arab Lines",
  "osm_id": 8989627050,
  "osm_type": "node",
  "place_type": "neighbourhood",
  "amenity_count": 843,
  "amenities": [
    {
      "type": "node",
      "id": 312545031,
      "lat": 12.9703806,
      "lon": 77.6094191,
      "tags": {
        "access": "customers",
        "amenity": "parking",
        "fee": "yes",
        "name": "Garuda Mall Parking",
        "parking": "underground"
      }
    },
    {
      "type": "node",
      "id": 423747691,
      "lat": 12.9688102,
      "lon": 77.6021434,
      "tags": {
        "addr:city": "Beṅgaḷūru",
        "addr:neighborhood": "Śivājinagara",
        "air_conditioning": "yes",
        "amenity": "restaurant",
        "cuisine": "indian;chinese;regional",
        "diet:vegetarian": "yes",
        "name": "Konārk",
        "name:kn": "ಕೊನಾರ್ಕ್",
        "phone": "+918041248812"
      }
    },
    {
      "type": "node",
      "id": 428457212,
      "lat": 12.9697383,
      "lon": 77.6003775,
      "tags": {
        "addr:city": "Bangalore",
        "addr:country": "IN",
        "addr:hamlet": "Shanthala Nagar",
        "addr:housename": "Sophia's Choice",
        "addr:postcode": "560001",
        "addr:street": "Saint Mark's Road",
        "amenity": "cafe",
        "delivery": "yes",
        "name": "Old Madras Baking Company",
        "opening_hours": "08:00-23:00",
        "operator": "Old Madras Baking Company",
        "shop": "bakery",
        "takeaway": "yes"
      }
    },
    {
      "type": "node",
      "id": 429876582,
      "lat": 12.9665538,
      "lon": 77.6141032,
      "tags": {
        "addr:housename": "#8",
        "addr:street": "Victoria Road",
        "amenity": "restaurant",
        "level": "0,1",
        "name": "Hyderbad Biryani House",
        "name:kn": "ಹೈದರಾಬಾದ್ ಬಿರಿಯಾನಿ ಹೌಸ್"
      }
    },
    {
      "type": "node",
      "id": 459811954,
      "lat": 12.9694218,
      "lon": 77.6033897,
      "tags": {
        "amenity": "school",
        "isced:level": "2",
        "name": "Sacred Hearts Girls School",
        "name:kn": "ಸೇಕ್ರಡ್ ಹಾರ್ಟ್ಸ್ ಬಾಲಕಿಯರ ಶಾಲೆ",
        "operator": "Department of Education",
        "school": "primary"
      }
    },
    {
      "type": "node",
      "id": 459815970,
      "lat": 12.9692233,
      "lon": 77.5984978,
      "tags": {
        "air_conditioning": "yes",
        "amenity": "theatre",
        "name": "Bishop George Edward Lynch Cotton Auditorium",
        "source": "local knowledge;survey",
        "website": "https://bishopcottonboysschool.edu.in/infrastructure",
        "wikimedia_commons": "File:Cottons_Auditorium.jpg"
      }
    },
    {
      "type": "node",
      "id": 595411386,
      "lat": 12.9732444,
      "lon": 77.6033899,
      "tags": {
        "addr:housenumber": "13",
        "addr:street": "Museum Road",
        "amenity": "restaurant",
        "cuisine": "american;burger",
        "name": "The Only Place",
        "name:kn": "ದಿ ಒನ್ಲಿ ಪ್ಲೇಸ್",
        "note": "Previously located where Mota Arcade is currently, on Brigade Road, until the early 2000s",
        "phone": "+91-80-32718989",
        "start_date": "1965",
        "toilets": "yes",
        "wheelchair": "yes"
      }
    },
    {
      "type": "node",
      "id": 644420166,
      "lat": 12.9600242,
      "lon": 77.6015444,
      "tags": {
        "amenity": "restaurant",
        "name": "Sandhya Sagar",
        "name:kn": "ಸಂಧ್ಯಾ ಸಾಗರ್"
      }
    },
    {
      "type": "node",
      "id": 661983020,
      "lat": 12.9720317,
      "lon": 77.6009309,
      "tags": {
        "addr:street": "Saint Mark's Road",
        "amenity": "cafe",
        "name": "Juice Junction",
        "shop": "beverages"
      }
    },
    {
      "type": "node",
      "id": 677286838,
      "lat": 12.9708747,
      "lon": 77.5990041,
      "tags": {
        "addr:street": "Lavelle Road",
        "name": "Espirit",
        "shop": "clothes"
      }
    },
    {
      "type": "node",
      "id": 677286839,
      "lat": 12.9706824,
      "lon": 77.599609,
      "tags": {
        "addr:city": "Bangalore",
        "addr:street": "Lavelle Road",
        "amenity": "bank",
        "atm": "yes",
        "brand": "ICICI Bank",
        "brand:wikidata": "Q1653258",
        "name": "ICICI Bank",
        "name:en": "ICICI Bank",
        "name:kn": "ಐಸಿಐಸಿಐ ಬ್ಯಾಂಕು",
        "short_name": "ICICI",
        "website": "https://www.icicibank.com"
      }
    },
    {
      "type": "node",
      "id": 677286840,
      "lat": 12.9707183,
      "lon": 77.6005293,
      "tags": {
        "addr:street": "Saint Mark's Road",
        "name": "Giovani",
        "shop": "clothes"
      }
    },
    {
      "type": "node",
      "id": 677286841,
      "lat": 12.9708631,
      "lon": 77.6010396,
      "tags": {
        "amenity": "bank",
        "atm": "yes",
        "branch": "Cantonment",
        "brand": "Bank of India",
        "brand:wikidata": "Q2004439",
        "brand:wikipedia": "en:Bank of India",
        "name": "Bank of India",
        "name:en": "Bank of India",
        "operator": "Bank of India",
        "short_name": "BoI",
        "website": "http://www.bankofindia.co.in"
      }
    },
    {
      "type": "node",
      "id": 677286843,
      "lat": 12.9711937,
      "lon": 77.6007788,
      "tags": {
        "addr:city": "Bangalore",
        "addr:street": "Saint Mark's Road",
        "amenity": "restaurant",
        "cuisine": "indian",
        "diet:vegetarian": "only",
        "name": "Amruth Vegetarian Restaurant",
        "name:kn": "ಅಮೃತ್ ವೆಜಿಟೇರಿಯನ್ ರೆಸ್ಟೋರೆಂಟ್"
      }
    },
    {
      "type": "node",
      "id": 1061343614,
      "lat": 12.9657768,
      "lon": 77.6054478,
      "tags": {
        "addr:street": "Richmond Road",
        "amenity": "place_of_worship",
        "name": "Richmond Town Mosque",
        "religion": "muslim",
        "wheelchair": "no"
      }
    },
    {
      "type": "node",
      "id": 1065137172,
      "lat": 12.9698334,
      "lon": 77.6098091,
      "tags": {
        "addr:housename": "Garuda Mall",
        "addr:street": "Commissariat Road",
        "amenity": "cinema",
        "brand": "INOX Leisure",
        "brand:wikidata": "Q5972349",
        "drive_in": "no",
        "name": "INOX Garuda Mall",
        "screen": "5",
        "short_name": "INOX"
      }
    },
    {
      "type": "node",
      "id": 1065137173,
      "lat": 12.9684968,
      "lon": 77.6063205,
      "tags": {
        "name": "Alcohol Shop",
        "shop": "alcohol"
      }
    },
    {
      "type": "node",
      "id": 1067841657,
      "lat": 12.9729051,
      "lon": 77.6074026,
      "tags": {
        "addr:street": "Brigade Road",
        "amenity": "fast_food",
        "brand": "Subway",
        "brand:pa": "ਸਬਵੇਅ",
        "brand:ur": "سب وے",
        "brand:wikidata": "Q244457",
        "brand:wikipedia": "en:Subway (restaurant)",
        "cuisine": "sandwich",
        "name": "Subway",
        "name:kn": "ಸಬ್‌ವೇ",
        "name:pa": "ਸਬਵੇਅ",
        "name:ur": "سب وے",
        "takeaway": "yes"
      }
    },
    {
      "type": "node",
      "id": 1129098580,
      "lat": 12.966942,
      "lon": 77.60796,
      "tags": {
        "amenity": "restaurant",
        "cuisine": "french",
        "name": "Olive Beach",
        "name:kn": "ಆಲೀವ್ ಬೀಚ್"
      }
    },
    {
      "type": "node",
      "id": 1383996009,
      "lat": 12.9699185,
      "lon": 77.6029655,
      "tags": {
        "amenity": "shelter",
        "bench": "yes",
        "covered": "yes",
        "shelter": "yes",
        "shelter_type": "public_transport"
      }
    },
    {
      "type": "node",
      "id": 1446122916,
      "lat": 12.9683152,
      "lon": 77.6004368,
      "tags": {
        "addr:city": "Bangalore",
        "addr:full": "St. Marks Road, Opp Bishop Cotton Boys School, Srinivas Nagar, Shanthala Nagar, Ashok Nagar, Bengaluru",
        "addr:housenumber": "74/5",
        "addr:postcode": "560001",
        "addr:street": "Saint Mark's Road",
        "amenity": "pharmacy",
        "dispensing": "yes",
        "name": "The Cash Pharmacy",
        "phone": "080 3361 8456"
      }
    },
    {
      "type": "node",
      "id": 1448814112,
      "lat": 12.9645047,
      "lon": 77.6065319,
      "tags": {
        "amenity": "fast_food",
        "cuisine": "kebab",
        "name": "Hotel Fanoos"
      }
    },
    {
      "type": "node",
      "id": 1449018888,
      "lat": 12.9668907,
      "lon": 77.5986274,
      "tags": {
        "amenity": "pharmacy",
        "name": "Residency Pharmacy"
      }
    },
    {
      "type": "node",
      "id": 1454651986,
      "lat": 12.9671401,
      "lon": 77.6094485,
      "tags": {
        "addr:district": "Bengaluru Urban",
        "addr:full": "#37, Castle Street, Opp Sacred Heart Church, Ashok Nagar, B.E",
        "addr:housenumber": "37",
        "addr:postcode": "560025",
        "addr:state": "Karnataka",
        "addr:street": "Castle Street",
        "amenity": "hospital",
        "name": "Narayana Netralaya",
        "name:kn": "ನಾರಾಯಣ ನೇತ್ರಾಲಯ",
        "source": "OpenGovernmentData"
      }
    },
    {
      "type": "node",
      "id": 1473999150,
      "lat": 12.973736,
      "lon": 77.6072937,
      "tags": {
        "amenity": "pub",
        "name": "Pecos",
        "start_date": "1989"
      }
    },
    {
      "type": "node",
      "id": 1473999153,
      "lat": 12.9733561,
      "lon": 77.6074951,
      "tags": {
        "amenity": "fast_food",
        "brand": "McDonald's",
        "brand:pa": "ਮੈਕਡੋਨਲਡ’ਜ਼",
        "brand:ur": "مکڈونلڈز",
        "brand:wikidata": "Q38076",
        "brand:wikipedia": "en:McDonald's",
        "brand:wikipedia:pa": "ਮੈਕਡੋਨਲਡ’ਜ਼",
        "brand:wikipedia:ur": "مکڈونلڈز",
        "cuisine": "burger",
        "name": "McDonald's",
        "name:kn": "ಮ್ಯಾಕ್‌ಡೊನಾಲ್ಡ್ಸ್",
        "name:pa": "ਮੈਕਡੋਨਲਡ’ਜ਼",
        "name:ur": "مکڈونلڈز",
        "takeaway": "yes",
        "wheelchair": "no"
      }
    },
    {
      "type": "node",
      "id": 1474001856,
      "lat": 12.9729633,
      "lon": 77.6086054,
      "tags": {
        "amenity": "restaurant",
        "name": "Purple Haze",
        "name:kn": "ಪರ್ಪಲ್ ಹೆಜ್"
      }
    },
    {
      "type": "node",
      "id": 1492519131,
      "lat": 12.9719394,
      "lon": 77.6004411,
      "tags": {
        "amenity": "community_centre",
        "name": "Ashirwad"
      }
    },
    {
      "type": "node",
      "id": 1492519137,
      "lat": 12.9730431,
      "lon": 77.6034656,
      "tags": {
        "amenity": "post_office",
        "name": "India Post Museum Road",
        "operator": "India Post",
        "operator:wikidata": "Q3519720"
      }
    },
    {
      "type": "node",
      "id": 1492519140,
      "lat": 12.971167,
      "lon": 77.605779,
      "tags": {
        "amenity": "restaurant",
        "name": "Paramount Restaurant",
        "name:kn": "ಪ್ಯರಮೌಂಟ್ ರೆಸ್ಟೊರೆಂಟ್"
      }
    },
    {
      "type": "node",
      "id": 1492519145,
      "lat": 12.9679651,
      "lon": 77.6064949,
      "tags": {
        "name": "ShowOff",
        "shop": "clothes"
      }
    },
    {
      "type": "node",
      "id": 1666861677,
      "lat": 12.9668886,
      "lon": 77.5993311,
      "tags": {
        "amenity": "bank",
        "brand": "Bank of Baroda",
        "brand:wikidata": "Q2003797",
        "level": "1",
        "name": "Bank of Baroda"
      }
    },
    {
      "type": "node",
      "id": 1675540997,
      "lat": 12.9721761,
      "lon": 77.6009542,
      "tags": {
        "air_conditioning": "yes",
        "amenity": "restaurant",
        "cuisine": "indian;south_indian",
        "image:menu": "70c55938-e8b8-4402-a92a-1cde6835dbc5",
        "image:menu:0": "f51179b5-d1f6-4d4a-b540-0194e846ffe7",
        "level": "0",
        "name": "Mavalli Tiffin Rooms",
        "name:kn": "ಮಾವಳ್ಳಿ ಟಿಫಿನ್ ರೂಮ್ಸ್",
        "short_name": "MTR",
        "toilets:access": "permissive",
        "toilets:wheelchair": "no",
        "wheelchair": "limited",
        "wikimedia_commons": "Category:Mavalli_Tiffin_Room,_Saint_Mark's_Road,_Bangalore"
      }
    },
    {
      "type": "node",
      "id": 1770390302,
      "lat": 12.9715903,
      "lon": 77.6084985,
      "tags": {
        "amenity": "restaurant",
        "diet:vegetarian": "only",
        "name": "Palm Grove",
        "name:kn": "ಪಾಮ್ ಗ್ರೊವ್"
      }
    },
    {
      "type": "node",
      "id": 1770459093,
      "lat": 12.9718928,
      "lon": 77.6065672,
      "tags": {
        "amenity": "restaurant",
        "diet:vegetarian": "only",
        "name": "Sangam",
        "name:kn": "ಸಂಗಮ್"
      }
    },
    {
      "type": "node",
      "id": 1809842716,
      "lat": 12.9713119,
      "lon": 77.5997267,
      "tags": {
        "amenity": "restaurant",
        "name": "F & B",
        "name:kn": "ಎಫ್ & ಬಿ"
      }
    },
    {
      "type": "node",
      "id": 1851613680,
      "lat": 12.971465,
      "lon": 77.6008347,
      "tags": {
        "amenity": "ice_cream",
        "brand": "Naturals",
        "brand:wikidata": "Q24439154",
        "cuisine": "ice_cream",
        "name": "Naturals"
      }
    },
    {
      "type": "node",
      "id": 1851614806,
      "lat": 12.960466,
      "lon": 77.6017789,
      "tags": {
        "name": "Reliance Smartpoint",
        "shop": "supermarket"
      }
    },
    {
      "type": "node",
      "id": 1851614956,
      "lat": 12.9596191,
      "lon": 77.6026157,
      "tags": {
        "name": "Namdharis",
        "shop": "supermarket"
      }
    },
    {
      "type": "node",
      "id": 1851615411,
      "lat": 12.9622638,
      "lon": 77.6040957,
      "tags": {
        "name": "Richmond Supermarket",
        "shop": "supermarket"
      }
    },
    {
      "type": "node",
      "id": 1851615731,
      "lat": 12.958286,
      "lon": 77.605196,
      "tags": {
        "amenity": "restaurant",
        "cuisine": "international",
        "name": "Y! Cafe"
      }
    },
    {
      "type": "node",
      "id": 1851618527,
      "lat": 12.9616161,
      "lon": 77.5986353,
      "tags": {
        "amenity": "bank",
        "atm": "yes",
        "brand": "IDFC First Bank",
        "brand:wikidata": "Q22031467",
        "brand:wikipedia": "en:IDFC First Bank",
        "drive_through": "no",
        "name": "IDFC First Bank",
        "not:brand:wikidata": "Q1653258",
        "operator": "IDFC First Bank"
      }
    },
    {
      "type": "node",
      "id": 1851675230,
      "lat": 12.9656404,
      "lon": 77.6017608,
      "tags": {
        "name": "Print Express",
        "shop": "copyshop",
        "wheelchair": "no"
      }
    },
    {
      "type": "node",
      "id": 1851682041,
      "lat": 12.9624402,
      "lon": 77.5990359,
      "tags": {
        "amenity": "restaurant",
        "brand": "Pizza Hut",
        "brand:wikidata": "Q191615",
        "check_date": "2024-12-29",
        "cuisine": "pizza",
        "name": "Pizza Hut",
        "name:kn": "ಪಿಟ್ಸ ಹಟ್"
      }
    },
    {
      "type": "node",
      "id": 1851685727,
      "lat": 12.9676211,
      "lon": 77.6001785,
      "tags": {
        "amenity": "restaurant",
        "cuisine": "japanese",
        "delivery": "yes",
        "level": "4",
        "name": "Harima",
        "reservation": "recommended",
        "takeaway": "yes"
      }
    },
    {
      "type": "node",
      "id": 1851688340,
      "lat": 12.9602214,
      "lon": 77.6017286,
      "tags": {
        "shop": "alcohol"
      }
    },
    {
      "type": "node",
      "id": 1851689644,
      "lat": 12.9733898,
      "lon": 77.6072915,
      "tags": {
        "addr:city": "Bengaluru",
        "addr:street": "Brigade Road",
        "addr:suburb": "Ashok Nagar",
        "amenity": "cafe",
        "check_date": "2025-03-09",
        "cuisine": "coffee_shop",
        "name": "Coffee All Day"
      }
    },
    {
      "type": "node",
      "id": 1851691005,
      "lat": 12.9736858,
      "lon": 77.6068869,
      "tags": {
        "addr:postcode": "560001",
        "addr:street": "Rest House Road",
        "amenity": "pub",
        "name": "Guzzlers Inn"
      }
    },
    {
      "type": "node",
      "id": 1851701176,
      "lat": 12.9597386,
      "lon": 77.6018505,
      "tags": {
        "shop": "laundry"
      }
    },
    {
      "type": "node",
      "id": 1851701311,
      "lat": 12.9596942,
      "lon": 77.6018371,
      "tags": {
        "shop": "greengrocer"
      }
    },
    {
      "type": "node",
      "id": 1851701331,
      "lat": 12.9583088,
      "lon": 77.6022126,
      "tags": {
        "name": "Neelam Stores",
        "shop": "convenience"
      }
    },
    {
      "type": "node",
      "id": 1851707242,
      "lat": 12.9655446,
      "lon": 77.601164,
      "tags": {
        "addr:city": "Bengaluru",
        "addr:district": "Bengaluru Urban",
        "addr:housenumber": "8/24",
        "addr:postcode": "560025",
        "addr:street": "Richmond Road",
        "amenity": "bank",
        "atm": "yes",
        "brand": "HDFC Bank",
        "brand:wikidata": "Q631047",
        "brand:wikipedia": "en:HDFC Bank",
        "name": "HDFC Bank",
        "name:kn": "ಎಚ್ ಡಿ ಎಫ್ ಸಿ",
        "short_name": "HDFC",
        "website": "https://www.hdfcbank.com"
      }
    },
    {
      "type": "node",
      "id": 1851709530,
      "lat": 12.9638299,
      "lon": 77.6009468,
      "tags": {
        "amenity": "place_of_worship",
        "religion": "hindu"
      }
    },
    {
      "type": "node",
      "id": 1966567863,
      "lat": 12.9737798,
      "lon": 77.6028823,
      "tags": {
        "addr:housename": "HM Eleganza",
        "addr:postcode": "560001",
        "addr:street": "Museum Road",
        "amenity": "restaurant",
        "cuisine": "indian",
        "name": "Chutney Chang",
        "name:kn": "ಚಟ್ನಿ ಚಂಗ್",
        "phone": "080 4000 1234"
      }
    },
    {
      "type": "node",
      "id": 2188840978,
      "lat": 12.9679393,
      "lon": 77.6074294,
      "tags": {
        "addr:housenumber": "20",
        "addr:street": "Castle Street",
        "amenity": "restaurant",
        "cuisine": "korean",
        "name": "Hae Kum Gang"
      }
    },
    {
      "type": "node",
      "id": 2285461734,
      "lat": 12.9685553,
      "lon": 77.6058259,
      "tags": {
        "amenity": "toilets"
      }
    },
    {
      "type": "node",
      "id": 2322736999,
      "lat": 12.9684869,
      "lon": 77.6008019,
      "tags": {
        "amenity": "cafe",
        "brand": "Sweet Chariot",
        "delivery": "yes",
        "level": "0",
        "name": "Sweet Chariot",
        "shop": "pastry",
        "takeaway": "yes"
      }
    },
    {
      "type": "node",
      "id": 2629857311,
      "lat": 12.9676509,
      "lon": 77.606558,
      "tags": {
        "addr:city": "Bangalore",
        "addr:housename": "Civil Station",
        "addr:housenumber": "12",
        "addr:postcode": "560051",
        "addr:street": "Wood Street",
        "air_conditioning": "yes",
        "amenity": "ice_cream",
        "contact:instagram": "ibaco_icecreams",
        "cuisine": "ice_cream",
        "indoor_seating": "yes",
        "name": "Ibaco",
        "name:kn": "ಐಬಾಕೊ",
        "opening_hours": "Mo-Su 11:00-23:00"
      }
    },
    {
      "type": "node",
      "id": 2641818345,
      "lat": 12.9703092,
      "lon": 77.6109836,
      "tags": {
        "addr:city": "Bangalore",
        "addr:housenumber": "8",
        "addr:postcode": "560025",
        "addr:street": "Magrath Road",
        "amenity": "pub",
        "level": "4",
        "microbrewery": "yes",
        "name": "Arbor Brewing Company",
        "opening_hours": "12:00-23:30",
        "phone": "+91 80501 44477",
        "smoking": "outside",
        "website": "https://www.arborbrewing.in/"
      }
    },
    {
      "type": "node",
      "id": 2659801075,
      "lat": 12.970738,
      "lon": 77.6105649,
      "tags": {
        "name": "Abaran Jewelers",
        "shop": "jewelry"
      }
    },
    {
      "type": "node",
      "id": 2774680147,
      "lat": 12.9652714,
      "lon": 77.5985205,
      "tags": {
        "addr:housename": "Ittiam",
        "addr:street": "Richmond Road",
        "amenity": "bank",
        "atm": "yes",
        "brand": "HDFC Bank",
        "brand:wikidata": "Q631047",
        "brand:wikipedia": "en:HDFC Bank",
        "name": "HDFC Bank",
        "name:kn": "ಎಚ್ ಡಿ ಎಫ್ ಸಿ",
        "short_name": "HDFC",
        "source": "www.hdfcbank.com",
        "website": "https://www.hdfcbank.com"
      }
    },
    {
      "type": "node",
      "id": 2774686318,
      "lat": 12.965985,
      "lon": 77.6036918,
      "tags": {
        "amenity": "atm",
        "operator": "Citi Bank India",
        "source": "www.citibank.co.in"
      }
    },
    {
      "type": "node",
      "id": 2875597594,
      "lat": 12.9644187,
      "lon": 77.6062299,
      "tags": {
        "name": "Karnataka Supermarket",
        "shop": "supermarket"
      }
    },
    {
      "type": "node",
      "id": 3170060228,
      "lat": 12.9742729,
      "lon": 77.607273,
      "tags": {
        "addr:city": "Bangalore",
        "addr:street": "Church Street",
        "amenity": "restaurant",
        "brand": "Nando's",
        "cuisine": "indian;persian",
        "diet:halal": "yes",
        "name": "Ayda",
        "not:brand:wikidata": "Q3472954"
      }
    },
    {
      "type": "node",
      "id": 3170064830,
      "lat": 12.9736536,
      "lon": 77.6068998,
      "tags": {
        "check_date": "2025-03-09",
        "name": "Dubai Plaza",
        "shop": "gift"
      }
    },
    {
      "type": "node",
      "id": 3170066310,
      "lat": 12.9731071,
      "lon": 77.6082808,
      "tags": {
        "level": "0,1,2",
        "name": "Sapna Book House",
        "shop": "books"
      }
    },
    {
      "type": "node",
      "id": 3323896908,
      "lat": 12.9728628,
      "lon": 77.6074393,
      "tags": {
        "brand": "Nilgiri's",
        "brand:wikidata": "Q17079567",
        "name": "Nilgiri's",
        "name:kn": "ನೀಲ್ಗಿರೀಸ್",
        "shop": "supermarket"
      }
    },
    {
      "type": "node",
      "id": 3323896956,
      "lat": 12.9729398,
      "lon": 77.6085437,
      "tags": {
        "addr:city": "Bangalore",
        "addr:street": "Residency Road",
        "level": "0",
        "name": "Planet Fashion",
        "shop": "clothes"
      }
    },
    {
      "type": "node",
      "id": 3384450215,
      "lat": 12.9728223,
      "lon": 77.6091815,
      "tags": {
        "addr:city": "Bengaluru",
        "addr:housenumber": "454",
        "addr:postcode": "560025",
        "addr:state": "KA",
        "addr:street": "Field Marshal Cariappa Road",
        "air_conditioning": "yes",
        "amenity": "restaurant",
        "baby_feeding": "no",
        "changing_table": "no",
        "check_date": "2024-06-05",
        "cuisine": "indian",
        "diet:vegetarian": "yes",
        "level": "1",
        "name": "Meghana Foods",
        "outdoor_seating": "no",
        "payment:cash": "yes",
        "payment:credit_cards": "yes",
        "payment:debit_cards": "yes",
        "toilets": "yes",
        "toilets:access": "customers",
        "toilets:wheelchair": "no",
        "wheelchair": "no"
      }
    },
    {
      "type": "node",
      "id": 3458335906,
      "lat": 12.9680185,
      "lon": 77.6019458,
      "tags": {
        "addr:city": "Bengaluru",
        "addr:street": "FM Cariappa Road (Residency Road)",
        "amenity": "pub",
        "contact:facebook": "bangalorebrewworks",
        "contact:instagram": "bangalorebrewworks",
        "microbrewery": "yes",
        "name": "Bangalore Brew Works",
        "phone": "+91 97422 11446"
      }
    },
    {
      "type": "node",
      "id": 3701774141,
      "lat": 12.9735251,
      "lon": 77.6081233,
      "tags": {
        "check_date": "2024-09-06",
        "contact:facebook": "https://www.facebook.com/selectbookshop/",
        "name": "Select Bookshop",
        "opening_hours": "Mo-Sa 11:30-19:00; Su 11:30-18:30",
        "operator": "KSS Murthy",
        "phone": "+91 78298 03202",
        "shop": "books",
        "start_date": "1945"
      }
    },
    {
      "type": "node",
      "id": 3760131454,
      "lat": 12.9687118,
      "lon": 77.6139361,
      "tags": {
        "amenity": "clinic",
        "name": "Oasis Artificial Kidney Care (P) Ltd",
        "phone": "8971151515, 9886756813"
      }
    },
    {
      "type": "node",
      "id": 3761073062,
      "lat": 12.9720694,
      "lon": 77.6089097,
      "tags": {
        "addr:city": "Bengaluru",
        "addr:district": "Bangalore Urban",
        "addr:housenumber": "66",
        "addr:postcode": "560025",
        "addr:street": "Residency Road",
        "air_conditioning": "yes",
        "amenity": "restaurant",
        "check_date": "2024-06-06",
        "cuisine": "regional;south_western_coastal",
        "diet:vegetarian": "yes",
        "name": "Karavalli",
        "name:kn": "ಕರಾವಳಿ",
        "opening_hours": "Mo-Su 12:30-15:00,19:00-23:30",
        "outdoor_seating": "yes",
        "payment:cash": "yes",
        "payment:credit_cards": "yes",
        "payment:debit_cards": "yes",
        "phone": "+91- 9620162387",
        "reservation": "yes",
        "wheelchair": "limited"
      }
    },
    {
      "type": "node",
      "id": 3761073063,
      "lat": 12.9728503,
      "lon": 77.6091975,
      "tags": {
        "amenity": "restaurant",
        "check_date": "2024-06-04",
        "level": "0",
        "name": "Udupi Park"
      }
    },
    {
      "type": "node",
      "id": 3761074061,
      "lat": 12.9730522,
      "lon": 77.6085652,
      "tags": {
        "amenity": "bank",
        "brand": "State Bank of India",
        "brand:wikidata": "Q1340361",
        "brand:wikipedia": "en:State Bank of India",
        "level": "1",
        "name": "State Bank of India",
        "name:kn": "ಭಾರತೀಯ ಸ್ಟೇಟ್ ಬ್ಯಾಂಕ್",
        "short_name": "SBI"
      }
    },
    {
      "type": "node",
      "id": 3761074634,
      "lat": 12.97323,
      "lon": 77.609195,
      "tags": {
        "addr:housenumber": "44/1",
        "addr:street": "Residency Road",
        "air_conditioning": "yes",
        "amenity": "restaurant",
        "branch": "Residency",
        "brand": "Nagarjuna",
        "check_date": "2024-12-14",
        "cuisine": "andhra",
        "diet:vegetarian": "yes",
        "internet_access": "no",
        "level": "1",
        "name": "Nagarjuna",
        "name:kn": "ನಾಗಾರ್ಜುನ",
        "payment:cash": "yes",
        "payment:credit_cards": "yes",
        "payment:debit_cards": "yes",
        "phone": "25592233"
      }
    },
    {
      "type": "node",
      "id": 3761085750,
      "lat": 12.9729508,
      "lon": 77.6085761,
      "tags": {
        "amenity": "pub",
        "level": "-1",
        "name": "Down Town Pub",
        "name:kn": "ಡೌನ್ ಟೌನ್ ಪಬ್"
      }
    },
    {
      "type": "node",
      "id": 3808169526,
      "lat": 12.9736712,
      "lon": 77.6093156,
      "tags": {
        "amenity": "ice_cream",
        "brand": "Corner House",
        "delivery": "yes",
        "level": "0",
        "name": "Corner House",
        "operator": "Corner House",
        "takeaway": "yes"
      }
    },
    {
      "type": "node",
      "id": 3808171448,
      "lat": 12.9733555,
      "lon": 77.6093639,
      "tags": {
        "amenity": "pub",
        "level": "0",
        "name": "Narthaki"
      }
    },
    {
      "type": "node",
      "id": 3808171450,
      "lat": 12.9732979,
      "lon": 77.6093585,
      "tags": {
        "amenity": "restaurant",
        "level": "0",
        "name": "Donne Biryani House"
      }
    },
    {
      "type": "node",
      "id": 3808172768,
      "lat": 12.9735202,
      "lon": 77.609472,
      "tags": {
        "access": "yes",
        "amenity": "toilets",
        "fee": "yes",
        "level": "0",
        "operator": "BBMP"
      }
    },
    {
      "type": "node",
      "id": 3808180480,
      "lat": 12.97357,
      "lon": 77.6097223,
      "tags": {
        "amenity": "parking",
        "fee": "yes",
        "level": "-1",
        "name": "Pay and Park",
        "operator": "BBMP",
        "parking": "underground",
        "supervised": "yes"
      }
    },
    {
      "type": "node",
      "id": 3808203218,
      "lat": 12.9733146,
      "lon": 77.6092125,
      "tags": {
        "amenity": "ice_cream",
        "check_date": "2024-06-06",
        "level": "1",
        "name": "Art of Delight"
      }
    },
    {
      "type": "node",
      "id": 3808206692,
      "lat": 12.9731313,
      "lon": 77.6080088,
      "tags": {
        "amenity": "bank",
        "brand": "State Bank of India",
        "brand:wikidata": "Q1340361",
        "brand:wikipedia": "en:State Bank of India",
        "level": "3",
        "name": "State Bank of India",
        "name:kn": "ಭಾರತೀಯ ಸ್ಟೇಟ್ ಬ್ಯಾಂಕ್",
        "short_name": "SBI"
      }
    },
    {
      "type": "node",
      "id": 3815215349,
      "lat": 12.9721211,
      "lon": 77.6078577,
      "tags": {
        "brand": "Samsonite",
        "brand:wikidata": "Q1203426",
        "level": "0",
        "name": "Samsonite",
        "shop": "bag"
      }
    },
    {
      "type": "node",
      "id": 3815215350,
      "lat": 12.972091,
      "lon": 77.6077959,
      "tags": {
        "level": "0",
        "name": "Colorplus",
        "shop": "clothes"
      }
    },
    {
      "type": "node",
      "id": 3815215351,
      "lat": 12.9721037,
      "lon": 77.6078626,
      "tags": {
        "amenity": "pub",
        "level": "1",
        "name": "Baywatch",
        "name:kn": "ಬೇ ವಾಚ್"
      }
    },
    {
      "type": "node",
      "id": 3815215352,
      "lat": 12.9720624,
      "lon": 77.6078121,
      "tags": {
        "level": "-1",
        "name": "Check In",
        "shop": "clothes"
      }
    },
    {
      "type": "node",
      "id": 3819250513,
      "lat": 12.9672647,
      "lon": 77.6090629,
      "tags": {
        "amenity": "restaurant",
        "level": "0",
        "name": "Empire",
        "name:kn": "ಎಂಪೈರ್"
      }
    },
    {
      "type": "node",
      "id": 3819252973,
      "lat": 12.9668201,
      "lon": 77.6091407,
      "tags": {
        "leisure": "fitness_centre",
        "level": "1",
        "name": "Chisel"
      }
    },
    {
      "type": "node",
      "id": 3862107357,
      "lat": 12.9677866,
      "lon": 77.6002508,
      "tags": {
        "amenity": "bank",
        "atm": "yes",
        "brand": "ICICI Bank",
        "brand:wikidata": "Q1653258",
        "name": "ICICI Bank",
        "short_name": "ICICI"
      }
    },
    {
      "type": "node",
      "id": 3862107358,
      "lat": 12.9677649,
      "lon": 77.6002064,
      "tags": {
        "check_date": "2023-06-11",
        "level": "0",
        "name": "Arya Bhangy Hand Carved Doors",
        "phone": "+91 80 2227 3362",
        "shop": "furniture",
        "source": "survey",
        "wheelchair": "no"
      }
    },
    {
      "type": "node",
      "id": 3862107363,
      "lat": 12.9676928,
      "lon": 77.6001299,
      "tags": {
        "level": "1",
        "name": "Riya Holidays",
        "shop": "travel_agency"
      }
    },
    {
      "type": "node",
      "id": 3862107364,
      "lat": 12.9676687,
      "lon": 77.6001003,
      "tags": {
        "level": "0",
        "name": "Rugs and Riches",
        "shop": "carpet"
      }
    },
    {
      "type": "node",
      "id": 3862116511,
      "lat": 12.9676326,
      "lon": 77.6000558,
      "tags": {
        "level": "0",
        "name": "SR Gopal Rao",
        "shop": "optician"
      }
    },
    {
      "type": "node",
      "id": 3862118052,
      "lat": 12.9675244,
      "lon": 77.5998954,
      "tags": {
        "ele": "0",
        "name": "Vijaya Diamonds & Jewels",
        "shop": "jewelry"
      }
    },
    {
      "type": "node",
      "id": 3862118053,
      "lat": 12.9675076,
      "lon": 77.5998707,
      "tags": {
        "level": "1",
        "name": "Riya",
        "shop": "travel_agency"
      }
    },
    {
      "type": "node",
      "id": 3862121003,
      "lat": 12.9675773,
      "lon": 77.5999645,
      "tags": {
        "brand": "5àsec",
        "brand:wikidata": "Q2817899",
        "level": "0",
        "name": "5àsec",
        "shop": "dry_cleaning"
      }
    },
    {
      "type": "node",
      "id": 3862121004,
      "lat": 12.9675509,
      "lon": 77.59993,
      "tags": {
        "level": "0",
        "name": "Rajatha Jewellers",
        "shop": "jewelry"
      }
    },
    {
      "type": "node",
      "id": 3862132130,
      "lat": 12.9674835,
      "lon": 77.5998288,
      "tags": {
        "level": "0",
        "name": "Rajarathnam's Jewels",
        "shop": "jewelry"
      }
    },
    {
      "type": "node",
      "id": 3862132131,
      "lat": 12.9674571,
      "lon": 77.5997967,
      "tags": {
        "amenity": "fast_food",
        "cuisine": "rolls",
        "name": "Faasos's"
      }
    },
    {
      "type": "node",
      "id": 3862137594,
      "lat": 12.9674907,
      "lon": 77.5998658,
      "tags": {
        "amenity": "clinic",
        "level": "1",
        "name": "National Medical Center"
      }
    },
    {
      "type": "node",
      "id": 3862569635,
      "lat": 12.9668801,
      "lon": 77.599278,
      "tags": {
        "amenity": "bank",
        "atm": "yes",
        "brand": "Indian Overseas Bank",
        "brand:wikidata": "Q2003611",
        "brand:wikipedia": "en:Indian Overseas Bank",
        "level": "0",
        "name": "Indian Overseas Bank",
        "name:en": "Indian Overseas Bank",
        "name:kn": "ಐ ಓ ಬಿ",
        "short_name": "IOB",
        "website": "https://www.iob.in"
      }
    },
    {
      "type": "node",
      "id": 3862572029,
      "lat": 12.9674186,
      "lon": 77.5997528,
      "tags": {
        "amenity": "pharmacy",
        "healthcare": "pharmacy",
        "level": "0",
        "name": "Balaji Pharma"
      }
    },
    {
      "type": "node",
      "id": 3862572030,
      "lat": 12.9674081,
      "lon": 77.5997206,
      "tags": {
        "level": "0",
        "name": "Acme Fitness",
        "shop": "sports"
      }
    },
    {
      "type": "node",
      "id": 3862572657,
      "lat": 12.9678054,
      "lon": 77.6002865,
      "tags": {
        "amenity": "pharmacy",
        "level": "-1",
        "name": "Chetak Pharmacy"
      }
    },
    {
      "type": "node",
      "id": 3862573257,
      "lat": 12.9681818,
      "lon": 77.6010952,
      "tags": {
        "brand": "Herman Miller",
        "brand:wikidata": "Q489469",
        "level": "0-2",
        "name": "Herman Miller",
        "shop": "furniture"
      }
    },
    {
      "type": "node",
      "id": 4017403931,
      "lat": 12.973036,
      "lon": 77.6012701,
      "tags": {
        "amenity": "fountain"
      }
    },
    {
      "type": "node",
      "id": 4080860480,
      "lat": 12.9631001,
      "lon": 77.6057848,
      "tags": {
        "amenity": "fast_food",
        "name": "Siddiqu Kabab Center"
      }
    },
    {
      "type": "node",
      "id": 4236318489,
      "lat": 12.967557,
      "lon": 77.6061228,
      "tags": {
        "amenity": "restaurant",
        "name": "Nanak"
      }
    },
    {
      "type": "node",
      "id": 4294252468,
      "lat": 12.9676134,
      "lon": 77.6061839,
      "tags": {
        "amenity": "pharmacy",
        "name": "Sundeep Medical Shop",
        "name:hi": "सनदिप मेदिकल शप"
      }
    },
    {
      "type": "node",
      "id": 4294253286,
      "lat": 12.9675377,
      "lon": 77.6062098,
      "tags": {
        "brand": "Reebok",
        "brand:wikidata": "Q466183",
        "name": "Reebok",
        "name:kn": "ರೀಬಾಕ್",
        "operator": "Sunrise Enterprises",
        "shop": "clothes"
      }
    },
    {
      "type": "node",
      "id": 4294255677,
      "lat": 12.9685412,
      "lon": 77.606131,
      "tags": {
        "amenity": "restaurant",
        "amenity_1": "bar",
        "name": "Brigade Dreams"
      }
    },
    {
      "type": "node",
      "id": 4294257524,
      "lat": 12.9687933,
      "lon": 77.6063684,
      "tags": {
        "amenity": "pharmacy",
        "check_date": "2024-01-02",
        "level": "0",
        "name": "Model Medical Stores"
      }
    },
    {
      "type": "node",
      "id": 4294260125,
      "lat": 12.9718911,
      "lon": 77.6066836,
      "tags": {
        "amenity": "restaurant",
        "diet:vegetarian": "only",
        "name": "Chariot"
      }
    },
    {
      "type": "node",
      "id": 4294260126,
      "lat": 12.9720568,
      "lon": 77.6067921,
      "tags": {
        "alt_name": "Dunkin' Donuts",
        "amenity": "fast_food",
        "brand": "Dunkin'",
        "brand:wikidata": "Q847743",
        "cuisine": "donut;coffee_shop",
        "level": "0",
        "name": "Dunkin'",
        "shop": "bakery",
        "takeaway": "yes"
      }
    },
    {
      "type": "node",
      "id": 4294261081,
      "lat": 12.9722398,
      "lon": 77.6068828,
      "tags": {
        "check_date": "2023-12-30",
        "level": "0",
        "name": "Tibet Bazaar",
        "shop": "clothes"
      }
    },
    {
      "type": "node",
      "id": 4307589728,
      "lat": 12.9652475,
      "lon": 77.6099699,
      "tags": {
        "amenity": "post_office",
        "brand": "Desk to Desk Courier & Cargo",
        "brand:short": "DTDC",
        "brand:wikidata": "Q55608802",
        "name": "DTDC",
        "operator": "Desk to Desk Courier & Cargo",
        "operator:short": "DTDC",
        "operator:wikidata": "Q55608802"
      }
    },
    {
      "type": "node",
      "id": 4307596342,
      "lat": 12.9672279,
      "lon": 77.6066828,
      "tags": {
        "level": "0",
        "name": "Jagadish Tours",
        "shop": "travel_agency"
      }
    },
    {
      "type": "node",
      "id": 4307597444,
      "lat": 12.9678797,
      "lon": 77.6066222,
      "tags": {
        "amenity": "restaurant",
        "name": "Twist of Tadka"
      }
    },
    {
      "type": "node",
      "id": 4307608188,
      "lat": 12.9728321,
      "lon": 77.6111241,
      "tags": {
        "amenity": "bank",
        "atm": "yes",
        "brand": "ICICI Bank",
        "brand:wikidata": "Q1653258",
        "name": "ICICI Bank",
        "name:en": "ICICI Bank",
        "name:kn": "ಐಸಿಐಸಿಐ ಬ್ಯಾಂಕು",
        "short_name": "ICICI",
        "website": "https://www.icicibank.com"
      }
    },
    {
      "type": "node",
      "id": 4307611570,
      "lat": 12.965537,
      "lon": 77.6027487,
      "tags": {
        "branch": "Beauty Zone",
        "brand": "Avon",
        "brand:wikidata": "Q791285",
        "name": "Avon",
        "shop": "cosmetics"
      }
    },
    {
      "type": "node",
      "id": 4307625972,
      "lat": 12.9655392,
      "lon": 77.6028344,
      "tags": {
        "amenity": "bank",
        "brand": "State Bank of India",
        "brand:wikidata": "Q1340361",
        "brand:wikipedia": "en:State Bank of India",
        "name": "State Bank of India",
        "name:kn": "ಭಾರತೀಯ ಸ್ಟೇಟ್ ಬ್ಯಾಂಕ್",
        "short_name": "SBI",
        "website": "https://www.sbi.co.in"
      }
    },
    {
      "type": "node",
      "id": 4307626008,
      "lat": 12.9655401,
      "lon": 77.6028098,
      "tags": {
        "name": "Lakme Salon",
        "shop": "beauty"
      }
    },
    {
      "type": "node",
      "id": 4307640439,
      "lat": 12.9655881,
      "lon": 77.6036377,
      "tags": {
        "amenity": "college",
        "name": "Presidency University",
        "office": "educational_institution"
      }
    },
    {
      "type": "node",
      "id": 4307663670,
      "lat": 12.965985,
      "lon": 77.6043811,
      "tags": {
        "amenity": "bank",
        "brand": "State Bank of India",
        "brand:wikidata": "Q1340361",
        "brand:wikipedia": "en:State Bank of India",
        "name": "State Bank of India",
        "name:kn": "ಭಾರತೀಯ ಸ್ಟೇಟ್ ಬ್ಯಾಂಕ್",
        "short_name": "SBI"
      }
    },
    {
      "type": "node",
      "id": 4310173692,
      "lat": 12.9664529,
      "lon": 77.6093326,
      "tags": {
        "name": "Sacred Heart Church Religious Stall",
        "shop": "books"
      }
    },
    {
      "type": "node",
      "id": 4314330392,
      "lat": 12.966707,
      "lon": 77.6118198,
      "tags": {
        "name": "Homecentre",
        "shop": "department_store"
      }
    },
    {
      "type": "node",
      "id": 4314392990,
      "lat": 12.9665522,
      "lon": 77.6127824,
      "tags": {
        "addr:city": "Bengaluru",
        "addr:country": "IN",
        "addr:housenumber": "33/12",
        "addr:postcode": "560047",
        "addr:street": "Victoria Road",
        "name": "Artefacts",
        "shop": "gift"
      }
    },
    {
      "type": "node",
      "id": 4314392991,
      "lat": 12.9663431,
      "lon": 77.6065158,
      "tags": {
        "name": "Akbar Travels",
        "shop": "travel_agency"
      }
    },
    {
      "type": "node",
      "id": 4368861593,
      "lat": 12.9669797,
      "lon": 77.6063872,
      "tags": {
        "amenity": "post_office",
        "name": "SME Express Courier",
        "name:en": "SME Express Courier"
      }
    },
    {
      "type": "node",
      "id": 4368864093,
      "lat": 12.9665145,
      "lon": 77.6065215,
      "tags": {
        "amenity": "cafe",
        "name": "Fruit xtracts"
      }
    },
    {
      "type": "node",
      "id": 4368871489,
      "lat": 12.9670534,
      "lon": 77.6068017,
      "tags": {
        "name": "Sangeetha",
        "name:en": "Sangeetha",
        "name:kn": "ಸಂಗೀತ",
        "shop": "electronics"
      }
    },
    {
      "type": "node",
      "id": 4368871490,
      "lat": 12.9664099,
      "lon": 77.6069001,
      "tags": {
        "name": "Vellara Junction",
        "name:en": "Vellara Junction",
        "name:kn": "ವೆಲ್ಲಾರ ಜಂಕ್ಷನ್",
        "shop": "gift"
      }
    },
    {
      "type": "node",
      "id": 4381065701,
      "lat": 12.9669581,
      "lon": 77.5975092,
      "tags": {
        "amenity": "fountain"
      }
    },
    {
      "type": "node",
      "id": 4395689916,
      "lat": 12.9650035,
      "lon": 77.6001039,
      "tags": {
        "amenity": "theatre",
        "name": "Montgomery Hall",
        "name:en": "Montgomery Hall"
      }
    },
    {
      "type": "node",
      "id": 4443302069,
      "lat": 12.9703171,
      "lon": 77.6096478,
      "tags": {
        "addr:city": "Bangalore",
        "addr:housenumber": "15, Magrath Rd, Ashok Nagar, Bengaluru,",
        "addr:postcode": "560025",
        "addr:street": "Magrath Road",
        "brand": "Westside",
        "name": "Westside",
        "opening_hours": "10:00-22:00",
        "phone": "8066641230",
        "shop": "clothes",
        "website": "https://www.mywestside.com"
      }
    },
    {
      "type": "node",
      "id": 4443310734,
      "lat": 12.9702937,
      "lon": 77.6097845,
      "tags": {
        "addr:city": "Bangalore",
        "addr:housenumber": "Ashok Nagar",
        "addr:postcode": "560025",
        "addr:street": "15 Magrath Road",
        "name": "Wiliam Penn",
        "opening_hours": "10:00-22:00",
        "phone": "08041127993",
        "shop": "stationery",
        "website": "https://www.williampenn.net/"
      }
    },
    {
      "type": "node",
      "id": 4443313643,
      "lat": 12.970278,
      "lon": 77.6098784,
      "tags": {
        "addr:city": "Bangalore",
        "addr:housenumber": "Magrath Rd, Ashok Nagar, Bengaluru,",
        "addr:postcode": "560025",
        "addr:street": "Magrath Road",
        "name": "CIS",
        "opening_hours": "10:00-21:00",
        "shop": "shoes"
      }
    },
    {
      "type": "node",
      "id": 4443381445,
      "lat": 12.9700844,
      "lon": 77.6095781,
      "tags": {
        "addr:city": "Bangalore",
        "addr:housenumber": "Ashok Naga",
        "addr:postcode": "560025",
        "addr:street": "Magrath Road",
        "name": "Sunglass Hot",
        "opening_hours": "10:00-22:00",
        "phone": "8040698857",
        "shop": "optician",
        "website": "https://garudamall.in/"
      }
    },
    {
      "type": "node",
      "id": 4443385011,
      "lat": 12.9701797,
      "lon": 77.6095278,
      "tags": {
        "addr:city": "Bangalore",
        "addr:housenumber": "15  Ashok Nagar",
        "addr:postcode": "560025",
        "addr:street": "Magrath Road",
        "name": "Sands",
        "opening_hours": "10:00-21:00",
        "phone": "8040954128",
        "shop": "cosmetics",
        "website": "https://sandsoapaholics.com/"
      }
    },
    {
      "type": "node",
      "id": 4443389075,
      "lat": 12.9702333,
      "lon": 77.6098322,
      "tags": {
        "addr:city": "Bangalore",
        "addr:housenumber": "Ashok Nagar,",
        "addr:postcode": "560025",
        "addr:street": "Magrath Road",
        "amenity": "atm",
        "brand": "Citibank",
        "brand:wikidata": "Q857063",
        "currency:INR": "yes",
        "level": "0",
        "name": "Citibank",
        "name:kn": "ಸಿಟಿಬ್ಯಾಂಕ್",
        "operator": "Citibank",
        "operator:wikidata": "Q857063",
        "short_name": "Citi"
      }
    },
    {
      "type": "node",
      "id": 4443392689,
      "lat": 12.9703117,
      "lon": 77.6094111,
      "tags": {
        "addr:city": "Bangalore",
        "addr:housenumber": "Ashoknagar",
        "addr:postcode": "560025",
        "addr:street": "Magrath Road",
        "name": "Cookie Man",
        "opening_hours": "10:00-23:00",
        "shop": "bakery"
      }
    },
    {
      "type": "node",
      "id": 4443393191,
      "lat": 12.9702202,
      "lon": 77.6097061,
      "tags": {
        "addr:city": "Bangalore",
        "addr:housenumber": "14 Ashoknagar",
        "addr:postcode": "560025",
        "addr:street": "Magrath Road",
        "brand": "Inglot",
        "brand:wikidata": "Q5420712",
        "level": "0",
        "name": "Inglot",
        "opening_hours": "10:00-21:00",
        "phone": "8040698857",
        "shop": "cosmetics",
        "website": "https://inglotcosmetics.com/"
      }
    },
    {
      "type": "node",
      "id": 4443393194,
      "lat": 12.9701575,
      "lon": 77.6097866,
      "tags": {
        "addr:city": "Bangalore",
        "addr:housenumber": "Ashoknagar",
        "addr:postcode": "560025",
        "addr:street": "Magrath Road",
        "name": "Colourbar U.S.A",
        "opening_hours": "10:00-21:00",
        "phone": "8041132837",
        "shop": "cosmetics",
        "website": "https://www.colorbarcosmetics.com/"
      }
    },
    {
      "type": "node",
      "id": 4443807475,
      "lat": 12.9703327,
      "lon": 77.6095057,
      "tags": {
        "addr:city": "Bangalore",
        "addr:housenumber": "Ashoknagar",
        "addr:postcode": "560025",
        "addr:street": "Magrath Road",
        "name": "Clarie's",
        "opening_hours": "10:00-21:00",
        "phone": "8040698857",
        "shop": "clothes",
        "website": "https://garudamall.in/"
      }
    },
    {
      "type": "node",
      "id": 4443813176,
      "lat": 12.970236,
      "lon": 77.609898,
      "tags": {
        "addr:city": "Bangalore",
        "addr:housenumber": "Ashoknagar",
        "addr:postcode": "560025",
        "addr:street": "Magrath Road",
        "brand": "Levi's",
        "brand:wikidata": "Q127962",
        "clothes": "denim;men;women",
        "name": "Levi's",
        "opening_hours": "10:00-22:00",
        "phone": "099085 86325",
        "shop": "clothes",
        "website": "https://www.levi.in/"
      }
    },
    {
      "type": "node",
      "id": 4443817651,
      "lat": 12.9701263,
      "lon": 77.6094581,
      "tags": {
        "addr:city": "Bangalore",
        "addr:housenumber": "Ashoknagar",
        "addr:postcode": "560025",
        "addr:street": "Magrath Road",
        "branch": "Junior",
        "brand": "Tommy Hilfiger",
        "brand:wikidata": "Q634881",
        "name": "Tommy Hilfiger",
        "opening_hours": "10:00-22:00",
        "phone": "8041573443",
        "shop": "clothes",
        "website": "https://global.tommy.com/"
      }
    },
    {
      "type": "node",
      "id": 4443848741,
      "lat": 12.9700765,
      "lon": 77.6100428,
      "tags": {
        "addr:city": "Bangalore",
        "addr:housenumber": "15",
        "addr:postcode": "560025",
        "addr:street": "Magrath Road",
        "name": "Accessorize",
        "phone": "8041511639",
        "shop": "fashion",
        "website": "https://bangalore.mallsmarket.com/malls/garuda-mall-magrath-road-ashok-nagar/stores/accessorize"
      }
    },
    {
      "type": "node",
      "id": 4443875708,
      "lat": 12.9703373,
      "lon": 77.6095755,
      "tags": {
        "addr:city": "Bangalore",
        "addr:housenumber": "Ashoknagar",
        "addr:postcode": "560025",
        "addr:street": "Magrath Road",
        "name": "Arrow",
        "opening_hours": "10:00-22:00",
        "phone": "8041658804",
        "shop": "clothes",
        "website": "http://www.arrowlife.com"
      }
    },
    {
      "type": "node",
      "id": 4443882400,
      "lat": 12.9702752,
      "lon": 77.6096767,
      "tags": {
        "addr:city": "Bangalore",
        "addr:housenumber": "Ashoknagar",
        "addr:postcode": "560025",
        "addr:street": "Magrath Road",
        "brand": "Hidesign",
        "brand:wikidata": "Q5752690",
        "name": "Hidesign",
        "opening_hours": "10:00-22:00",
        "phone": "089511 52479",
        "shop": "leather",
        "website": "https://hidesign.com/store"
      }
    },
    {
      "type": "node",
      "id": 4443884115,
      "lat": 12.9702596,
      "lon": 77.6096405,
      "tags": {
        "addr:city": "Bangalore",
        "addr:housenumber": "Ashoknagar",
        "addr:postcode": "560025",
        "addr:street": "Magrath Road",
        "brand": "Nike",
        "brand:wikidata": "Q483915",
        "name": "Nike",
        "name:kn": "ನೈಕ್",
        "opening_hours": "10:00-22:00",
        "phone": "080 4175 1839",
        "shop": "clothes",
        "website": "https://www.nike.com/in/"
      }
    },
    {
      "type": "node",
      "id": 4443896277,
      "lat": 12.9703347,
      "lon": 77.6093582,
      "tags": {
        "addr:city": "Bangalore",
        "addr:housenumber": "Ashoknagar",
        "addr:postcode": "560025",
        "addr:street": "Magrath Road",
        "amenity": "atm",
        "brand": "HSBC",
        "brand:wikidata": "Q190464",
        "currency:INR": "yes",
        "drive_through": "no",
        "name": "HSBC",
        "name:kn": "ಎಚ್ ಎಸ್ ಬೀ ಸೀ",
        "operator": "HSBC",
        "operator:wikidata": "Q190464"
      }
    },
    {
      "type": "node",
      "id": 4443900658,
      "lat": 12.9703105,
      "lon": 77.6093743,
      "tags": {
        "addr:city": "Bangalore",
        "addr:housenumber": "Ashoknagar",
        "addr:postcode": "560025",
        "addr:street": "Magrath Road",
        "name": "Estee Lauder",
        "opening_hours": "10:00-22:00",
        "phone": "8040698857",
        "shop": "clothes",
        "website": "https://garudamall.in/"
      }
    },
    {
      "type": "node",
      "id": 4443909531,
      "lat": 12.9702183,
      "lon": 77.6099621,
      "tags": {
        "addr:city": "Bangalore",
        "addr:housenumber": "Ashoknagar",
        "addr:postcode": "560025",
        "addr:street": "Magrath Road",
        "name": "ShopperStop",
        "opening_hours": "10:00-22:00",
        "phone": "08043401317",
        "shop": "clothes",
        "website": "https://www.shoppersstop.com"
      }
    },
    {
      "type": "node",
      "id": 4443910583,
      "lat": 12.9701765,
      "lon": 77.6097046,
      "tags": {
        "addr:city": "Bangalore",
        "addr:housenumber": "Ashoknagar",
        "addr:postcode": "560025",
        "addr:street": "Magrath Road",
        "brand": "Mothercare",
        "brand:wikidata": "Q136738",
        "name": "Mothercare",
        "opening_hours": "10:00-22:00",
        "phone": "8040698857",
        "shop": "baby_goods",
        "website": "https://garudamall.in/"
      }
    },
    {
      "type": "node",
      "id": 4443914479,
      "lat": 12.9701425,
      "lon": 77.6099031,
      "tags": {
        "addr:city": "Bangalore",
        "addr:housenumber": "Ashoknagar",
        "addr:postcode": "560025",
        "addr:street": "Magrath Road",
        "name": "Mustard",
        "opening_hours": "10:00-22:00",
        "phone": "080 4111 3391",
        "shop": "clothes",
        "website": "https://www.mustardfashion.com/"
      }
    },
    {
      "type": "node",
      "id": 4443915322,
      "lat": 12.9701608,
      "lon": 77.6098414,
      "tags": {
        "addr:city": "Bangalore",
        "addr:housenumber": "Ashoknagar",
        "addr:postcode": "560025",
        "addr:street": "Magrath Road",
        "name": "SteveMaden",
        "opening_hours": "10:00-22:00",
        "phone": "8040698857",
        "shop": "clothes",
        "website": "https://www.stevemadden.in/"
      }
    },
    {
      "type": "node",
      "id": 4443917144,
      "lat": 12.9701216,
      "lon": 77.6095142,
      "tags": {
        "addr:city": "Bangalore",
        "addr:housenumber": "Ashoknagar",
        "addr:postcode": "560025",
        "addr:street": "Magrath Road",
        "name": "Forever",
        "opening_hours": "10:00-22:00",
        "phone": "080 4110 4473",
        "shop": "clothes",
        "website": "https://bangalore.mallsmarket.com/malls/garuda-mall-magrath-road-ashok-nagar/stores/forever-21"
      }
    },
    {
      "type": "node",
      "id": 4443921704,
      "lat": 12.9702627,
      "lon": 77.6093988,
      "tags": {
        "addr:city": "Bangalore",
        "addr:housenumber": "Ashoknagar",
        "addr:postcode": "560025",
        "addr:street": "Magrath Road",
        "name": "Swarovski",
        "opening_hours": "10:00-22:00",
        "phone": "080666 41088",
        "shop": "clothes",
        "website": "https://garudamall.in/"
      }
    },
    {
      "type": "node",
      "id": 4443925167,
      "lat": 12.9701373,
      "lon": 77.6096402,
      "tags": {
        "addr:city": "Bangalore",
        "addr:housenumber": "Ashoknagar",
        "addr:postcode": "560025",
        "addr:street": "Magrath Road",
        "brand": "U.S. Polo Assn.",
        "brand:wikidata": "Q7863282",
        "name": "U.S. Polo Assn.",
        "opening_hours": "10:00-22:00",
        "phone": "8040698857",
        "shop": "clothes",
        "website": "https://garudamall.in/"
      }
    },
    {
      "type": "node",
      "id": 4443926029,
      "lat": 12.9700719,
      "lon": 77.6095008,
      "tags": {
        "addr:city": "Bangalore",
        "addr:housenumber": "Ashoknagar",
        "addr:postcode": "560025",
        "addr:street": "Magrath Road",
        "brand": "Adidas",
        "brand:wikidata": "Q3895",
        "name": "Adidas",
        "name:kn": "ಅಡಿಡಾಸ್",
        "opening_hours": "10:00-22:00",
        "phone": "080 4171 2312",
        "shop": "sports",
        "website": "https://www.adidas.co.in/"
      }
    },
    {
      "type": "node",
      "id": 4443928886,
      "lat": 12.9701111,
      "lon": 77.609651,
      "tags": {
        "addr:city": "Bangalore",
        "addr:housenumber": "Ashoknagar",
        "addr:postcode": "560025",
        "addr:street": "Magrath Road",
        "brand": "Allen Solly",
        "brand:wikidata": "Q110036995",
        "name": "Allen Solly",
        "name:kn": "ಅಲೆನ್ ಸೊಲಿ",
        "opening_hours": "10:00-22:00",
        "phone": "080 4107 6734",
        "shop": "clothes",
        "website": "https://www.allensolly.com"
      }
    },
    {
      "type": "node",
      "id": 4443933016,
      "lat": 12.9702366,
      "lon": 77.6094525,
      "tags": {
        "addr:city": "Bangalore",
        "addr:housenumber": "Ashoknagar",
        "addr:postcode": "560025",
        "addr:street": "Magrath Road",
        "name": "Women(POI)",
        "opening_hours": "10:00-22:00",
        "phone": "8040698857",
        "shop": "clothes"
      }
    },
    {
      "type": "node",
      "id": 4443943352,
      "lat": 12.9702157,
      "lon": 77.609592,
      "tags": {
        "addr:city": "Bangalore",
        "addr:housenumber": "Ashoknagar",
        "addr:postcode": "560025",
        "addr:street": "Magrath Road",
        "name": "Chemistry",
        "opening_hours": "10:00-22:00",
        "phone": "8040698857",
        "shop": "clothes",
        "website": "https://chemistryindia.com/"
      }
    },
    {
      "type": "node",
      "id": 4443944541,
      "lat": 12.970268,
      "lon": 77.6095115,
      "tags": {
        "addr:city": "Bangalore",
        "addr:housenumber": "Ashoknagar",
        "addr:postcode": "560025",
        "addr:street": "Magrath Road",
        "name": "Dev's Jewellery",
        "opening_hours": "10:00-21:00",
        "phone": "080 4095 2940",
        "shop": "jewelry",
        "website": "http://www.devsjewellery.com"
      }
    },
    {
      "type": "node",
      "id": 4443946458,
      "lat": 12.9703059,
      "lon": 77.6097499,
      "tags": {
        "addr:city": "Bangalore",
        "addr:housenumber": "Garuda Mall",
        "addr:postcode": "560025",
        "addr:street": "Magrath Road",
        "brand": "Fabindia",
        "brand:wikidata": "Q5427779",
        "name": "Fabindia",
        "opening_hours": "10:00-22:00",
        "organic": "yes",
        "payment:cash": "yes",
        "payment:debit_cards": "yes",
        "phone": "080 3221 6151",
        "shop": "clothes",
        "website": "https://www.fabindia.com/"
      }
    },
    {
      "type": "node",
      "id": 4443947196,
      "lat": 12.9703295,
      "lon": 77.6094669,
      "tags": {
        "addr:city": "Bangalore",
        "addr:housenumber": "Ashoknagar",
        "addr:postcode": "560025",
        "addr:street": "Magrath Road",
        "name": "Enamor",
        "opening_hours": "10:00-22:00",
        "phone": "080 4112 6141",
        "shop": "clothes",
        "website": "https://enamor.co.in/"
      }
    },
    {
      "type": "node",
      "id": 4443949637,
      "lat": 12.9702746,
      "lon": 77.6097391,
      "tags": {
        "shop": "clothes"
      }
    },
    {
      "type": "node",
      "id": 4443949638,
      "lat": 12.9702471,
      "lon": 77.6097673,
      "tags": {
        "addr:city": "Bangalore",
        "addr:housenumber": "Ashoknagar",
        "addr:postcode": "560025",
        "addr:street": "Magrath Road",
        "brand": "Forever New",
        "brand:wikidata": "Q119221929",
        "clothes": "women",
        "name": "Forever New",
        "opening_hours": "10:00-22:00",
        "phone": "080 4112 6994",
        "shop": "clothes",
        "website": "https://www.forevernew.co.in/"
      }
    },
    {
      "type": "node",
      "id": 4443951104,
      "lat": 12.9702537,
      "lon": 77.6094977,
      "tags": {
        "addr:city": "Bangalore",
        "addr:housenumber": "Ashoknagar",
        "addr:postcode": "560025",
        "addr:street": "Magrath Road",
        "name": "Health & Glow",
        "opening_hours": "10:00-22:00",
        "phone": "1800 3000 8866",
        "shop": "beauty",
        "website": "https://garudamall.in/"
      }
    },
    {
      "type": "node",
      "id": 4443955551,
      "lat": 12.9702811,
      "lon": 77.6097137,
      "tags": {
        "addr:city": "Bangalore",
        "addr:housenumber": "Ashoknagar",
        "addr:postcode": "560025",
        "addr:street": "Magrath Road",
        "name": "Mint(POI)",
        "opening_hours": "10:00-22:00",
        "phone": "080 4123 9142",
        "shop": "clothes",
        "website": "https://garudamall.in/"
      }
    },
    {
      "type": "node",
      "id": 4443958328,
      "lat": 12.9702288,
      "lon": 77.6097566,
      "tags": {
        "addr:city": "Bangalore",
        "addr:housenumber": "Ashoknagar",
        "addr:postcode": "560025",
        "addr:street": "Magrath Road",
        "brand": "Samsonite",
        "brand:wikidata": "Q1203426",
        "name": "Samsonite",
        "opening_hours": "10:00-22:00",
        "phone": "080661 41006",
        "shop": "bag",
        "website": "https://garudamall.in/"
      }
    },
    {
      "type": "node",
      "id": 4446433567,
      "lat": 12.9674206,
      "lon": 77.6058454,
      "tags": {
        "addr:city": "Bangalore",
        "addr:housenumber": "137",
        "addr:postcode": "560025",
        "addr:street": "Brigade Road, Richmond Town, Shanthala Nagar, Ashok Nagar, Shanthala Nagar, Ashok Nagar",
        "amenity": "pharmacy",
        "name": "Sundeep Medicals",
        "phone": "080 2221 2968"
      }
    },
    {
      "type": "node",
      "id": 4446439863,
      "lat": 12.9713618,
      "lon": 77.6062443,
      "tags": {
        "addr:city": "Bangalore",
        "addr:floor": "G",
        "addr:hamlet": "Shanthala Nagar",
        "addr:housenumber": "C007",
        "addr:postcode": "560025",
        "addr:state": "KA",
        "addr:suburb": "Ashok Nagar",
        "amenity": "pharmacy",
        "building:material": "plastic",
        "name": "Hitesh Medicals & General Stor",
        "phone": "+91 80 2558 4302"
      }
    },
    {
      "type": "node",
      "id": 4446442047,
      "lat": 12.9658632,
      "lon": 77.5998808,
      "tags": {
        "addr:city": "Bengaluru",
        "addr:housenumber": "5/1",
        "addr:postcode": "560025",
        "addr:street": "2nd Floor, Rich Homes, Richmond Road, Shanthala Nagar, Ashok Nagar, Shanthala Nagar, Ashok Nagar",
        "amenity": "pharmacy",
        "name": "Bangalore Fetal Medicine Centre",
        "phone": "080 2221 0540",
        "website": "bangalorefetalmedicine.com"
      }
    },
    {
      "type": "node",
      "id": 4455965987,
      "lat": 12.9710593,
      "lon": 77.6038069,
      "tags": {
        "addr:city": "Bangalore",
        "addr:postcode": "560025",
        "addr:street": "Museum Road",
        "leisure": "sports_centre",
        "name": "St Joseph Sports & Gym Centre",
        "survey:date": "2023-09-14"
      }
    },
    {
      "type": "node",
      "id": 4455967178,
      "lat": 12.9712159,
      "lon": 77.6038085,
      "tags": {
        "addr:city": "Bangalore",
        "addr:postcode": "560025",
        "addr:street": "Museum Road",
        "amenity": "restaurant",
        "name": "Canteen",
        "survey:date": "2023-09-14"
      }
    },
    {
      "type": "node",
      "id": 4455967989,
      "lat": 12.9719179,
      "lon": 77.6036221,
      "tags": {
        "amenity": "library",
        "name:kn": "ಗ್ರಂಥಾಲಯ",
        "survey:date": "2023-09-14"
      }
    },
    {
      "type": "node",
      "id": 4488505774,
      "lat": 12.9712402,
      "lon": 77.600457,
      "tags": {
        "addr:city": "Bangalore",
        "addr:housenumber": "no:8",
        "addr:postcode": "560001",
        "addr:street": "Pappana Street",
        "name": "Meraki Spa And Boutique",
        "opening_hours": "11:30-20:30",
        "phone": "+919611733222",
        "shop": "beauty",
        "website": "https://www.merakispa.in/"
      }
    },
    {
      "type": "node",
      "id": 4488529806,
      "lat": 12.9739265,
      "lon": 77.6068604,
      "tags": {
        "addr:city": "Bangalore",
        "addr:housenumber": "NO.30",
        "addr:postcode": "560001",
        "addr:street": "Rest House Road",
        "name": "Swan And Beyonce Unisex Salon",
        "opening_hours": "10:00-21:00",
        "phone": "+91-80-33642234",
        "shop": "beauty"
      }
    },
    {
      "type": "node",
      "id": 4489199240,
      "lat": 12.9691024,
      "lon": 77.5997819,
      "tags": {
        "addr:city": "Bangalore",
        "addr:postcode": "560025",
        "addr:street": "Shop No. 17 & 18, Devatha Plaza, Residency Road, Opp. Bishop Cotton Boys School, Ashok Nagar",
        "name": "Acme Fitness",
        "opening_hours": "10:00-21:30",
        "phone": "080 4112 5656",
        "shop": "sports",
        "website": "https://acmefitness.com/"
      }
    },
    {
      "type": "node",
      "id": 4489717014,
      "lat": 12.9665378,
      "lon": 77.6037676,
      "tags": {
        "addr:city": "Bangalore",
        "addr:housenumber": "No 2",
        "addr:postcode": "560025",
        "addr:street": "Mirza House, Convent Road, Richmond Town, Bhadrappa Layout, Shanthala Nagar, Ashok Nagar, Bengaluru, Karnataka",
        "brand": "Gold's Gym",
        "brand:wikidata": "Q1536234",
        "leisure": "fitness_centre",
        "name": "Gold's Gym",
        "name:kn": "ಗೊಲ್ಡ್ಸ್ ಜಿಮ್",
        "opening_hours": "06:00 -22:00",
        "phone": "8041477626",
        "sport": "gymnasium"
      }
    },
    {
      "type": "node",
      "id": 4489763600,
      "lat": 12.9669341,
      "lon": 77.5994254,
      "tags": {
        "addr:housenumber": "Ground Floor",
        "addr:street": "The Residency , 133/1, Residency Road, Opposite Bipshop Cotton High School, Bhadrappa Layout, Shanthala Nagar, Ashok Nagar, Bengaluru,",
        "leisure": "sports_centre",
        "name": "Zela Luxury Health Club",
        "opening_hours": "06:00-22:00",
        "phone": "8043347000",
        "sport": "gymnasium",
        "website": "zelalife.com"
      }
    },
    {
      "type": "node",
      "id": 4489812790,
      "lat": 12.9706238,
      "lon": 77.5990824,
      "tags": {
        "addr:city": "Bangalore",
        "addr:housenumber": "No.5",
        "addr:postcode": "560001",
        "addr:street": "Vittal Mallya Road",
        "name": "O2 Spa",
        "opening_hours": "10:00-20:00",
        "phone": "099023 31966",
        "shop": "beauty",
        "website": "https://www.o2spa.org/"
      }
    },
    {
      "type": "node",
      "id": 4489814075,
      "lat": 12.9618472,
      "lon": 77.6126582,
      "tags": {
        "addr:city": "Bangalore",
        "addr:postcode": "560047",
        "addr:street": "Mother Teresa Road",
        "name": "Aina Lounge",
        "opening_hours": "10:00-20:30",
        "phone": "096320 37895",
        "shop": "beauty"
      }
    },
    {
      "type": "node",
      "id": 4489841678,
      "lat": 12.9692465,
      "lon": 77.6101289,
      "tags": {
        "addr:city": "Bangalore",
        "addr:housenumber": "Garuda Mall",
        "addr:postcode": "560025",
        "addr:street": "Ashok Nagar",
        "name": "Flicks Salon And Spa",
        "opening_hours": "11:00-21:00",
        "phone": "080 4127 2304",
        "shop": "beauty",
        "website": "www.flicksspa.com"
      }
    },
    {
      "type": "node",
      "id": 4489891089,
      "lat": 12.9677311,
      "lon": 77.60164,
      "tags": {
        "addr:city": "Bangalore",
        "addr:housenumber": "99",
        "addr:postcode": "560025",
        "addr:street": "Residency Rd, Bhadrappa Layout, Srinivas Nagar, Shanthala Nagar, Ashok Nagar,",
        "leisure": "sports_centre",
        "name": "The Ritz-Carlton",
        "opening_hours": "06:00-22:00",
        "phone": "8049148000",
        "sport": "gymnastics",
        "website": "https://www.ritzcarlton.com/"
      }
    },
    {
      "type": "node",
      "id": 4527833925,
      "lat": 12.9660378,
      "lon": 77.6023232,
      "tags": {
        "amenity": "cafe"
      }
    },
    {
      "type": "node",
      "id": 4527833926,
      "lat": 12.9572546,
      "lon": 77.6074721,
      "tags": {
        "amenity": "cafe"
      }
    },
    {
      "type": "node",
      "id": 4542473044,
      "lat": 12.9656927,
      "lon": 77.6001774,
      "tags": {
        "addr:city": "Bengaluru",
        "addr:country": "IN",
        "addr:housenumber": "PH1, 6th Floor, Rich Homes, 5/1",
        "addr:postcode": "560025",
        "addr:street": "Richmond Road",
        "amenity": "coworking_space",
        "email": "hello@jaaga.in",
        "name": "Jaaga Startup, Study and Labs",
        "office": "coworking",
        "opening_hours": "9:00-18:30",
        "operator": "Jaaga",
        "website": "https://www.jaaga.in/"
      }
    },
    {
      "type": "node",
      "id": 4556945690,
      "lat": 12.9731181,
      "lon": 77.6033382,
      "tags": {
        "amenity": "fast_food",
        "name": "Kopas Shack",
        "name:en": "Kopas Shack"
      }
    },
    {
      "type": "node",
      "id": 4556964189,
      "lat": 12.9732118,
      "lon": 77.6033549,
      "tags": {
        "name": "Gustovita Gelateria",
        "name:en": "Gustovita Gelateria",
        "shop": "beverages"
      }
    },
    {
      "type": "node",
      "id": 4718241233,
      "lat": 12.9668014,
      "lon": 77.6114459,
      "tags": {
        "addr:city": "bangalore",
        "addr:postcode": "560047",
        "amenity": "fast_food",
        "brand": "Krispy Kreme",
        "brand:wikidata": "Q1192805",
        "cuisine": "donut",
        "indoor_seating": "yes",
        "internet_access": "no",
        "name": "Krispy Kreme",
        "outdoor_seating": "no",
        "phone": "08041254402",
        "takeaway": "yes",
        "website": "https://krispykremeindia.in/"
      }
    },
    {
      "type": "node",
      "id": 4843099629,
      "lat": 12.9709347,
      "lon": 77.6051427,
      "tags": {
        "name": "Sam's Wine Centre",
        "shop": "alcohol"
      }
    },
    {
      "type": "node",
      "id": 4843099630,
      "lat": 12.9690232,
      "lon": 77.6064416,
      "tags": {
        "name": "Shri Venkateshwara Motor Works",
        "name:en": "Shri venkateshwara motor works",
        "shop": "car"
      }
    },
    {
      "type": "node",
      "id": 4843099632,
      "lat": 12.9696922,
      "lon": 77.6066419,
      "tags": {
        "amenity": "atm",
        "brand": "Central Bank of India",
        "brand:wikidata": "Q2007090",
        "name": "Central Bank of India",
        "operator": "Central Bank of India",
        "operator:wikidata": "Q2007090"
      }
    },
    {
      "type": "node",
      "id": 4843100426,
      "lat": 12.9667854,
      "lon": 77.5985305,
      "tags": {
        "name": "Jewels Garden",
        "name:en": "Jewels Garden",
        "shop": "jewelry"
      }
    },
    {
      "type": "node",
      "id": 4843100427,
      "lat": 12.9707396,
      "lon": 77.6070806,
      "tags": {
        "amenity": "restaurant",
        "name": "Snack dine meet",
        "name:en": "Snack dine meet"
      }
    },
    {
      "type": "node",
      "id": 4843100428,
      "lat": 12.9689652,
      "lon": 77.6064394,
      "tags": {
        "amenity": "restaurant",
        "name": "Brigade Prince",
        "name:en": "Brigade Prince"
      }
    },
    {
      "type": "node",
      "id": 4843100429,
      "lat": 12.968924,
      "lon": 77.6064233,
      "tags": {
        "name": "Laludas",
        "name:en": "Laludas",
        "shop": "shoes"
      }
    },
    {
      "type": "node",
      "id": 4843100430,
      "lat": 12.9690922,
      "lon": 77.6061839,
      "tags": {
        "amenity": "restaurant",
        "name": "The Grill house",
        "name:en": "The Grill house"
      }
    },
    {
      "type": "node",
      "id": 4843100431,
      "lat": 12.9728948,
      "lon": 77.6070991,
      "tags": {
        "amenity": "restaurant",
        "name": "Shangri-la Plaza",
        "name:en": "Shangri-la Plaza"
      }
    },
    {
      "type": "node",
      "id": 4843100432,
      "lat": 12.9713557,
      "lon": 77.6063804,
      "tags": {
        "addr:city": "Bangalore",
        "addr:floor": "G",
        "addr:hamlet": "Shanthala Nagar",
        "addr:housenumber": "C001,C002,C003,C004,C005",
        "addr:postcode": "560 025",
        "addr:state": "KA",
        "addr:street": "St. Patrick's Square",
        "addr:suburb": "Ashok Nagar",
        "level": "0",
        "name": "Blue Bird Wine Centre",
        "shop": "alcohol"
      }
    },
    {
      "type": "node",
      "id": 4843123825,
      "lat": 12.9643183,
      "lon": 77.5969261,
      "tags": {
        "amenity": "prep_school",
        "level": "2",
        "name": "Logic Option",
        "name:en": "Logic option"
      }
    },
    {
      "type": "node",
      "id": 4843125823,
      "lat": 12.9679992,
      "lon": 77.6007868,
      "tags": {
        "amenity": "atm",
        "brand": "Corporation Bank",
        "brand:wikidata": "Q2003387",
        "name": "Corporation Bank",
        "operator": "Corporation Bank",
        "operator:wikidata": "Q2003387"
      }
    },
    {
      "type": "node",
      "id": 4843126721,
      "lat": 12.9730509,
      "lon": 77.6025495,
      "tags": {
        "name": "Nexa",
        "name:en": "NEXA",
        "shop": "car"
      }
    },
    {
      "type": "node",
      "id": 4846789723,
      "lat": 12.9729083,
      "lon": 77.6084987,
      "tags": {
        "amenity": "cafe",
        "name": "Driven Cafe",
        "name:en": "Driven Cafe"
      }
    },
    {
      "type": "node",
      "id": 4847287229,
      "lat": 12.9707944,
      "lon": 77.6007269,
      "tags": {
        "amenity": "bank",
        "branch": "Saint Mark's Road",
        "brand": "Federal Bank",
        "brand:wikidata": "Q2044983",
        "brand:wikipedia": "en:Federal Bank",
        "name": "Federal Bank",
        "name:en": "Federal Bank",
        "name:kn": "ಫೆಡೆರಲ್ ಬ್ಯಾಂಕ್",
        "website": "https://www.federalbank.co.in",
        "wheelchair": "limited"
      }
    },
    {
      "type": "node",
      "id": 4847287230,
      "lat": 12.9664015,
      "lon": 77.6037829,
      "tags": {
        "amenity": "clinic",
        "name": "Ancient China",
        "name:en": "Ancient China"
      }
    },
    {
      "type": "node",
      "id": 4847294835,
      "lat": 12.9731397,
      "lon": 77.6074555,
      "tags": {
        "amenity": "restaurant",
        "name": "Brigade Garden",
        "name:en": "Brigade Garden"
      }
    },
    {
      "type": "node",
      "id": 4847294837,
      "lat": 12.9686496,
      "lon": 77.6002531,
      "tags": {
        "amenity": "atm",
        "operator": "Union bank"
      }
    },
    {
      "type": "node",
      "id": 4847294839,
      "lat": 12.9656547,
      "lon": 77.6018918,
      "tags": {
        "amenity": "bank",
        "atm": "yes",
        "brand": "Axis Bank",
        "brand:wikidata": "Q2003549",
        "brand:wikipedia": "en:Axis Bank",
        "name": "Axis Bank",
        "name:en": "Axis Bank",
        "name:kn": "ಆಕ್ಸಿಸ್ ಬ್ಯಾಂಕ್",
        "website": "https://www.axisbank.com"
      }
    },
    {
      "type": "node",
      "id": 4847295223,
      "lat": 12.972953,
      "lon": 77.6074102,
      "tags": {
        "brand": "Converse",
        "brand:wikidata": "Q319515",
        "name": "Converse",
        "name:en": "Converse",
        "shop": "shoes"
      }
    },
    {
      "type": "node",
      "id": 4847296031,
      "lat": 12.9700893,
      "lon": 77.6004749,
      "tags": {
        "brand": "Audi",
        "brand:wikidata": "Q23317",
        "name": "Audi",
        "name:en": "Audi",
        "name:kn": "ಔಡಿ",
        "shop": "car"
      }
    },
    {
      "type": "node",
      "id": 4847296032,
      "lat": 12.9692549,
      "lon": 77.6023796,
      "tags": {
        "addr:city": "Beṅgaḷūru",
        "addr:neighborhood": "Śivājinagara",
        "addr:postcode": "560025",
        "amenity": "bureau_de_change",
        "email": "rd@prithvifx.com",
        "name": "Prithvī",
        "name:en": "Prithvi",
        "name:hi": "प्रिथ्वी",
        "name:sa": "पृथ्वी",
        "name:sa-Latn": "Pr̥thvī",
        "name:ur": "پرتھوی",
        "website": "https://www.prithvifx.com/branch-locator/"
      }
    },
    {
      "type": "node",
      "id": 4847296033,
      "lat": 12.9654387,
      "lon": 77.599506,
      "tags": {
        "name": "Neelkanth",
        "name:en": "Neelkanth",
        "shop": "jewelry"
      }
    },
    {
      "type": "node",
      "id": 4847297822,
      "lat": 12.9683717,
      "lon": 77.6016294,
      "tags": {
        "alt_name": "RBL Bank Limited",
        "amenity": "bank",
        "brand": "RBL Bank",
        "brand:wikidata": "Q13120398",
        "brand:wikipedia": "en:RBL Bank",
        "name": "RBL Bank",
        "name:en": "RBL Bank",
        "old_name": "Ratnakar Bank Limited",
        "short_name": "RBL",
        "website": "https://www.rblbank.com"
      }
    },
    {
      "type": "node",
      "id": 5061395356,
      "lat": 12.9671456,
      "lon": 77.6103961,
      "tags": {
        "amenity": "pharmacy",
        "name": "Hosmat Pharmacy"
      }
    },
    {
      "type": "node",
      "id": 5061395362,
      "lat": 12.9659404,
      "lon": 77.6144089,
      "tags": {
        "amenity": "bank",
        "atm": "yes",
        "brand": "Axis Bank",
        "brand:wikidata": "Q2003549",
        "name": "Axis Bank",
        "name:kn": "ಆಕ್ಸಿಸ್ ಬ್ಯಾಂಕ್"
      }
    },
    {
      "type": "node",
      "id": 5168571696,
      "lat": 12.9711493,
      "lon": 77.6057474,
      "tags": {
        "amenity": "pub",
        "level": "0,1",
        "name": "3 Page Bar and Restaurant"
      }
    },
    {
      "type": "node",
      "id": 5168571698,
      "lat": 12.970382,
      "lon": 77.6107862,
      "tags": {
        "name": "Delsey Paris",
        "shop": "bag"
      }
    },
    {
      "type": "node",
      "id": 5168658567,
      "lat": 12.9570709,
      "lon": 77.6057127,
      "tags": {
        "name": "Hercules Sports International",
        "shop": "sports"
      }
    },
    {
      "type": "node",
      "id": 5168658571,
      "lat": 12.9638723,
      "lon": 77.6065817,
      "tags": {
        "name": "Nandini Milk Parlour",
        "name:kn": "ನಂದಿನಿ ಹಾಲಿನ ಅಂಗಡಿ",
        "shop": "dairy"
      }
    },
    {
      "type": "node",
      "id": 5168658572,
      "lat": 12.9647139,
      "lon": 77.6056671,
      "tags": {
        "amenity": "atm",
        "brand": "Axis Bank",
        "brand:wikidata": "Q2003549",
        "name": "Axis Bank",
        "name:kn": "ಆಕ್ಸಿಸ್ ಬ್ಯಾಂಕ್",
        "operator": "Axis Bank",
        "operator:wikidata": "Q2003549"
      }
    },
    {
      "type": "node",
      "id": 5168658573,
      "lat": 12.9657964,
      "lon": 77.6051237,
      "tags": {
        "amenity": "clinic",
        "healthcare": "clinic",
        "name": "Renew Medical Center"
      }
    },
    {
      "type": "node",
      "id": 5168668845,
      "lat": 12.9664558,
      "lon": 77.6137032,
      "tags": {
        "leisure": "fitness_centre",
        "name": "Zion Fitness"
      }
    },
    {
      "type": "node",
      "id": 5168668848,
      "lat": 12.9646721,
      "lon": 77.6143585,
      "tags": {
        "name": "Reeta Enterprises",
        "note": "snacks, phone recharge",
        "shop": "stationery"
      }
    },
    {
      "type": "node",
      "id": 5168668849,
      "lat": 12.9646664,
      "lon": 77.6143244,
      "tags": {
        "name": "Sai Stores",
        "shop": "stationery"
      }
    },
    {
      "type": "node",
      "id": 5168668858,
      "lat": 12.9646365,
      "lon": 77.614174,
      "tags": {
        "name": "Lusitania Meat Shop",
        "shop": "butcher"
      }
    },
    {
      "type": "node",
      "id": 5168668859,
      "lat": 12.9646363,
      "lon": 77.6141291,
      "tags": {
        "amenity": "bicycle_repair_station",
        "operator": "Thunder Bird - Bike Servicing"
      }
    },
    {
      "type": "node",
      "id": 5168668860,
      "lat": 12.9646225,
      "lon": 77.6139894,
      "tags": {
        "name": "Coorg Products",
        "organic": "only",
        "shop": "convenience",
        "survey:date": "2023-09-23"
      }
    },
    {
      "type": "node",
      "id": 5168668873,
      "lat": 12.9646268,
      "lon": 77.6139096,
      "tags": {
        "amenity": "restaurant",
        "name": "MS Restaurant",
        "old_name": "Backyard - Roasted Chicken on Fire; Backyard Boys Kitchen"
      }
    },
    {
      "type": "node",
      "id": 5168668874,
      "lat": 12.9646066,
      "lon": 77.6138001,
      "tags": {
        "amenity": "dentist",
        "healthcare": "dentist",
        "name": "My Smile Dentist"
      }
    },
    {
      "type": "node",
      "id": 5168668875,
      "lat": 12.9644942,
      "lon": 77.6135414,
      "tags": {
        "name": "Kamath Stores",
        "shop": "supermarket",
        "survey:date": "2023-09-23"
      }
    },
    {
      "type": "node",
      "id": 5200633856,
      "lat": 12.9654654,
      "lon": 77.5989089,
      "tags": {
        "addr:city": "Bengaluru",
        "amenity": "bar",
        "level": "3",
        "name": "Sanctum Pub",
        "operator": "Elixir Hospitality",
        "smoking": "separated"
      }
    },
    {
      "type": "node",
      "id": 5229454408,
      "lat": 12.9646209,
      "lon": 77.5970636,
      "tags": {
        "check_date": "2023-12-09",
        "name": "Studio Young Designs",
        "shop": "furniture"
      }
    },
    {
      "type": "node",
      "id": 5229454410,
      "lat": 12.9650621,
      "lon": 77.5998831,
      "tags": {
        "name": "Style Spa",
        "shop": "interior_decoration"
      }
    },
    {
      "type": "node",
      "id": 5229454411,
      "lat": 12.9668641,
      "lon": 77.6111792,
      "tags": {
        "clothes": "women",
        "name": "Samyakk",
        "shop": "clothes",
        "website": "https://www.samyakk.com/"
      }
    },
    {
      "type": "node",
      "id": 5229454412,
      "lat": 12.9703926,
      "lon": 77.6106787,
      "tags": {
        "name": "Nalli Next",
        "shop": "clothes",
        "website": "https://www.nalli.com/"
      }
    },
    {
      "type": "node",
      "id": 5402224036,
      "lat": 12.9635407,
      "lon": 77.597756,
      "tags": {
        "amenity": "dentist"
      }
    },
    {
      "type": "node",
      "id": 5402302827,
      "lat": 12.9584526,
      "lon": 77.6046732,
      "tags": {
        "shop": "furniture"
      }
    },
    {
      "type": "node",
      "id": 5402307927,
      "lat": 12.9606269,
      "lon": 77.6008095,
      "tags": {
        "amenity": "place_of_worship"
      }
    },
    {
      "type": "node",
      "id": 5402307928,
      "lat": 12.9618944,
      "lon": 77.5977432,
      "tags": {
        "amenity": "place_of_worship"
      }
    },
    {
      "type": "node",
      "id": 5765878302,
      "lat": 12.9649744,
      "lon": 77.5993954,
      "tags": {
        "name": "M. P. Swarna Mahal",
        "shop": "jewelry"
      }
    },
    {
      "type": "node",
      "id": 5765878304,
      "lat": 12.9649875,
      "lon": 77.5996327,
      "tags": {
        "amenity": "bank",
        "atm": "yes",
        "brand": "Punjab National Bank",
        "brand:wikidata": "Q2743499",
        "name": "Punjab National Bank"
      }
    },
    {
      "type": "node",
      "id": 6348761817,
      "lat": 12.96555,
      "lon": 77.6061116,
      "tags": {
        "amenity": "school",
        "isced:level": "2",
        "name": "GUPHS Arblen",
        "name:kn": "ಸರ್ಕಾರಿ ಉರ್ದು ಹಿರಿಯ ಪ್ರಾಥಮಿಕ ಶಾಲೆ ಅಬ್ಲೇನ್",
        "operator": "Department of Education",
        "school": "primary"
      }
    },
    {
      "type": "node",
      "id": 6349571364,
      "lat": 12.9675192,
      "lon": 77.603794,
      "tags": {
        "alt_name": "St. Euphrasia's Higher Primary School",
        "amenity": "school",
        "isced:level": "2",
        "name": "St. Mary's Euphrasia School",
        "operator": "Pvt. Aided",
        "school": "primary"
      }
    },
    {
      "type": "node",
      "id": 6349597045,
      "lat": 12.9664376,
      "lon": 77.6101244,
      "tags": {
        "amenity": "school",
        "isced:level": "2",
        "name": "Sacred Heart Boys Primary School",
        "name:kn": "ಸೇಕ್ರೆಡ್ ಹಾರ್ಟ್ಸ್ ಬಾಲಕರ ಪ್ರಾಥಮಿಕ ಶಾಲೆ ರಿಚ್‌ಮಂಡ್ ಟೌನ್",
        "operator": "Pvt. Aided",
        "school": "primary"
      }
    },
    {
      "type": "node",
      "id": 6400067715,
      "lat": 12.9697506,
      "lon": 77.6118686,
      "tags": {
        "amenity": "bicycle_rental",
        "name": "DULT Bike Share Point"
      }
    },
    {
      "type": "node",
      "id": 6400075545,
      "lat": 12.9741515,
      "lon": 77.6069681,
      "tags": {
        "addr:city": "Bengaluru",
        "addr:country": "IN",
        "addr:floor": "3",
        "addr:housename": "Asha Enclave",
        "addr:housenumber": "2",
        "addr:postcode": "560001",
        "addr:street": "Church Street",
        "addr:suburb": "Ashok Nagar",
        "alt_name": "Blossoms",
        "check_date": "2024-09-05",
        "contact:instagram": "blossombookhouse",
        "contact:twitter": "blossombookhous",
        "description": "Second, larger store",
        "level": "3",
        "name": "Blossom Book House",
        "opening_hours": "10:30-22:00",
        "payment:cash": "yes",
        "payment:credit_cards": "yes",
        "payment:debit_cards": "yes",
        "phone": "+91 94493 73202",
        "shop": "books",
        "website": "https://www.blossombookhouse.in/",
        "wheelchair": "limited"
      }
    },
    {
      "type": "node",
      "id": 6569023747,
      "lat": 12.9735712,
      "lon": 77.6087644,
      "tags": {
        "addr:city": "Bengaluru",
        "addr:country": "IN",
        "addr:housenumber": "43",
        "addr:postcode": "560025",
        "addr:street": "Field Marshal Cariappa Road",
        "amenity": "coworking_space",
        "brand": "WeWork",
        "brand:wikidata": "Q19995004",
        "fee": "yes",
        "name": "WeWork Galaxy",
        "office": "coworking",
        "operator": "WeWork",
        "start_date": "2017",
        "website": "https://www.wework.com/buildings/galaxy--bengaluru--Karnataka"
      }
    },
    {
      "type": "node",
      "id": 6579780092,
      "lat": 12.9643575,
      "lon": 77.6135306,
      "tags": {
        "amenity": "fast_food",
        "cuisine": "chinese",
        "name": "Little Chef"
      }
    },
    {
      "type": "node",
      "id": 6584009943,
      "lat": 12.9741436,
      "lon": 77.6077833,
      "tags": {
        "brand": "Adidas",
        "brand:wikidata": "Q3895",
        "name": "Adidas",
        "name:kn": "ಅಡಿಡಾಸ್",
        "shop": "sports"
      }
    },
    {
      "type": "node",
      "id": 6584009944,
      "lat": 12.9740671,
      "lon": 77.6077491,
      "tags": {
        "brand": "Reebok",
        "brand:wikidata": "Q466183",
        "name": "Reebok",
        "name:kn": "ರೀಬಾಕ್",
        "shop": "clothes"
      }
    },
    {
      "type": "node",
      "id": 6584009945,
      "lat": 12.9739907,
      "lon": 77.6077276,
      "tags": {
        "name": "Indian Terrain",
        "shop": "clothes"
      }
    },
    {
      "type": "node",
      "id": 6584009946,
      "lat": 12.9738966,
      "lon": 77.6076934,
      "tags": {
        "name": "Soles",
        "shop": "shoes"
      }
    },
    {
      "type": "node",
      "id": 6584009947,
      "lat": 12.9739299,
      "lon": 77.6076988,
      "tags": {
        "name": "Ruosh",
        "shop": "shoes"
      }
    },
    {
      "type": "node",
      "id": 6584009949,
      "lat": 12.9738031,
      "lon": 77.6076613,
      "tags": {
        "name": "Victory",
        "shop": "dry_cleaning"
      }
    },
    {
      "type": "node",
      "id": 6584009950,
      "lat": 12.9737704,
      "lon": 77.6076552,
      "tags": {
        "amenity": "bank",
        "atm": "yes",
        "brand": "United Bank of India",
        "brand:wikidata": "Q2003237",
        "name": "United Bank of India"
      }
    },
    {
      "type": "node",
      "id": 6584009951,
      "lat": 12.9737319,
      "lon": 77.6076492,
      "tags": {
        "name": "Wildcraft",
        "shop": "bag"
      }
    },
    {
      "type": "node",
      "id": 6584009952,
      "lat": 12.9736914,
      "lon": 77.6076344,
      "tags": {
        "name": "Spykar",
        "shop": "clothes"
      }
    },
    {
      "type": "node",
      "id": 6584009953,
      "lat": 12.9733,
      "lon": 77.6074809,
      "tags": {
        "name": "Rusm",
        "shop": "jewelry"
      }
    },
    {
      "type": "node",
      "id": 6584009954,
      "lat": 12.9735045,
      "lon": 77.607562,
      "tags": {
        "brand": "METRO",
        "brand:wikidata": "Q13610282",
        "brand:wikipedia": "en:Metro Cash & Carry",
        "check_date": "2024-06-06",
        "name": "Metro",
        "shop": "department_store"
      }
    },
    {
      "type": "node",
      "id": 6584009955,
      "lat": 12.9734176,
      "lon": 77.6075218,
      "tags": {
        "name": "Showoff",
        "shop": "clothes"
      }
    },
    {
      "type": "node",
      "id": 6584009956,
      "lat": 12.9731791,
      "lon": 77.6074534,
      "tags": {
        "name": "Florsheim",
        "shop": "shoes"
      }
    },
    {
      "type": "node",
      "id": 6584009957,
      "lat": 12.9728158,
      "lon": 77.60744,
      "tags": {
        "brand": "Hush Puppies",
        "brand:wikidata": "Q1828588",
        "name": "Hush Puppies",
        "shop": "shoes"
      }
    },
    {
      "type": "node",
      "id": 6584009958,
      "lat": 12.9730458,
      "lon": 77.6074507,
      "tags": {
        "brand": "Levi's",
        "brand:wikidata": "Q127962",
        "clothes": "denim;men;women",
        "name": "Levi's",
        "shop": "clothes"
      }
    },
    {
      "type": "node",
      "id": 6584009959,
      "lat": 12.9729752,
      "lon": 77.6074708,
      "tags": {
        "name": "Zimson",
        "shop": "watches"
      }
    },
    {
      "type": "node",
      "id": 6584009960,
      "lat": 12.9729301,
      "lon": 77.6074769,
      "tags": {
        "amenity": "cafe",
        "name": "Tea Trails"
      }
    },
    {
      "type": "node",
      "id": 6584009961,
      "lat": 12.9728288,
      "lon": 77.607387,
      "tags": {
        "amenity": "cafe",
        "name": "Frozen Bottle"
      }
    },
    {
      "type": "node",
      "id": 6584009964,
      "lat": 12.9715814,
      "lon": 77.6066615,
      "tags": {
        "amenity": "bench",
        "backrest": "no",
        "material": "metal"
      }
    },
    {
      "type": "node",
      "id": 6584009966,
      "lat": 12.9716422,
      "lon": 77.6067178,
      "tags": {
        "amenity": "bench",
        "backrest": "no",
        "material": "metal"
      }
    },
    {
      "type": "node",
      "id": 6584009967,
      "lat": 12.9716631,
      "lon": 77.6067862,
      "tags": {
        "amenity": "bench",
        "backrest": "no",
        "material": "metal"
      }
    },
    {
      "type": "node",
      "id": 6584009971,
      "lat": 12.9718003,
      "lon": 77.6065495,
      "tags": {
        "name": "Brigade Foot Wear",
        "shop": "shoes"
      }
    },
    {
      "type": "node",
      "id": 6584009972,
      "lat": 12.9717886,
      "lon": 77.6064918,
      "tags": {
        "name": "My Bags",
        "shop": "bag"
      }
    },
    {
      "type": "node",
      "id": 6584009973,
      "lat": 12.9713517,
      "lon": 77.6065451,
      "tags": {
        "addr:city": "Bangalore",
        "addr:floor": "G",
        "addr:hamlet": "Shanthala Nagar",
        "addr:housenumber": "A020",
        "addr:postcode": "560 025",
        "addr:state": "KA",
        "addr:suburb": "Ashok Nagar",
        "amenity": "bank",
        "atm": "yes",
        "branch": "Brigade Road",
        "brand": "CSB Bank",
        "brand:wikidata": "Q5053244",
        "level": "0",
        "name": "CSB Bank",
        "official_name": "Catholic Syrian Bank",
        "opening_hours": "Mo-Sa 09:30-16:00; PH,Sa[2,4] closed",
        "operator": "CSB Bank",
        "operator:wikidata": "Q5053244"
      }
    },
    {
      "type": "node",
      "id": 6584009976,
      "lat": 12.9713553,
      "lon": 77.6066004,
      "tags": {
        "addr:city": "Bangalore",
        "addr:floor": "G",
        "addr:hamlet": "Shanthala Nagar",
        "addr:housenumber": "A019",
        "addr:postcode": "560 025",
        "addr:state": "KA",
        "addr:suburb": "Ashok Nagar",
        "amenity": "clinic",
        "contact:mobile": "+91 98451 94369",
        "contact:phone": "+91 80 2552 1135",
        "healthcare": "clinic",
        "level": "0",
        "name": "Tibetan Healing & Wellness Center"
      }
    },
    {
      "type": "node",
      "id": 6584009977,
      "lat": 12.9713679,
      "lon": 77.6061792,
      "tags": {
        "addr:city": "Bangalore",
        "addr:floor": "G",
        "addr:hamlet": "Shanthala Nagar",
        "addr:housenumber": "C009",
        "addr:postcode": "560 025",
        "addr:state": "KA",
        "addr:street": "Field Marshal Cariappa Road",
        "addr:suburb": "Ashok Nagar",
        "level": "0",
        "name": "Fee Chu Beauty Parlour",
        "shop": "beauty"
      }
    },
    {
      "type": "node",
      "id": 6584009978,
      "lat": 12.9709182,
      "lon": 77.6071631,
      "tags": {
        "brand": "Decathlon",
        "brand:wikidata": "Q509349",
        "name": "Decathlon",
        "shop": "sports",
        "survey:date": "2023-09-14"
      }
    },
    {
      "type": "node",
      "id": 6681215529,
      "lat": 12.9659363,
      "lon": 77.6035702,
      "tags": {
        "addr:floor": "G",
        "amenity": "cafe",
        "check_date": "2024-12-29",
        "level": "0",
        "name": "Cafe Mor'ish",
        "opening_hours": "08:30-22:00",
        "outdoor_seating": "no",
        "wheelchair": "limited"
      }
    },
    {
      "type": "node",
      "id": 6681215531,
      "lat": 12.9661166,
      "lon": 77.6051702,
      "tags": {
        "amenity": "bank",
        "atm": "yes",
        "brand": "Bank of India",
        "brand:wikidata": "Q2004439",
        "name": "Bank of India"
      }
    },
    {
      "type": "node",
      "id": 6681215532,
      "lat": 12.9667204,
      "lon": 77.6082963,
      "tags": {
        "name": "Bamburies",
        "shop": "butcher",
        "wheelchair": "no"
      }
    },
    {
      "type": "node",
      "id": 6681215533,
      "lat": 12.9668909,
      "lon": 77.6093255,
      "tags": {
        "check_date": "2023-12-03",
        "name": "Fatima Bakery",
        "shop": "bakery"
      }
    },
    {
      "type": "node",
      "id": 6681215534,
      "lat": 12.964466,
      "lon": 77.6136929,
      "tags": {
        "shop": "copyshop",
        "survey:date": "2023-09-23"
      }
    },
    {
      "type": "node",
      "id": 6681215536,
      "lat": 12.9638217,
      "lon": 77.6144908,
      "tags": {
        "amenity": "fast_food",
        "cuisine": "indian",
        "name": "Chaitanya Delicacy",
        "takeaway": "yes"
      }
    },
    {
      "type": "node",
      "id": 6819880190,
      "lat": 12.9683503,
      "lon": 77.6027151,
      "tags": {
        "addr:city": "Bengaluru",
        "addr:housenumber": "15",
        "addr:postcode": "560025",
        "addr:street": "Convent Road",
        "addr:suburb": "Indiranagar",
        "amenity": "restaurant",
        "contact:facebook": "greentheory",
        "contact:instagram": "greentheory",
        "cuisine": "international",
        "delivery": "yes",
        "diet:vegan": "yes",
        "diet:vegetarian": "only",
        "email": "info@greentheory.in",
        "name": "Green Theory",
        "phone": "+91 8861435956",
        "takeaway": "yes",
        "website": "https://www.greentheory.in/"
      }
    },
    {
      "type": "node",
      "id": 6882713303,
      "lat": 12.96539,
      "lon": 77.6105627,
      "tags": {
        "addr:city": "Bengaluru",
        "addr:district": "BENGALURU URBAN",
        "addr:full": "No.1, Nilsandra Road",
        "addr:postcode": "560047",
        "addr:state": "Karnataka",
        "amenity": "blood_bank",
        "contact:mobile": "9916065305",
        "contact:phone": "8040164348",
        "name": "Saint Philomena Blood Bank",
        "opening_hours": "24/7",
        "operator:type": "private",
        "source": "OpenGovernmentData"
      }
    },
    {
      "type": "node",
      "id": 6882713304,
      "lat": 12.9690415,
      "lon": 77.6133992,
      "tags": {
        "addr:city": "Bengaluru",
        "addr:district": "BENGALURU URBAN",
        "addr:full": "No. 45, Magrath Road, Off. Richmond Road",
        "addr:postcode": "560023",
        "addr:state": "Karnataka",
        "amenity": "blood_bank",
        "contact:mobile": "8050780930",
        "contact:phone": "8025593796",
        "fax": "9180 25593798",
        "name": "Hosmat Hospital Unit of Phisicare Services Private Limited Blood Bank",
        "opening_hours": "24/7",
        "operator:type": "private",
        "source": "OpenGovernmentData",
        "website": "https://www.hosmatnet.com/"
      }
    },
    {
      "type": "node",
      "id": 6947504038,
      "lat": 12.964162,
      "lon": 77.5982255,
      "tags": {
        "addr:district": "Bengaluru Urban",
        "addr:full": "No. 5, Langford Gardens, Near Richmond Circle",
        "addr:postcode": "560025",
        "addr:state": "Karnataka",
        "amenity": "hospital",
        "name": "Republic Hospital",
        "source": "OpenGovernmentData"
      }
    },
    {
      "type": "node",
      "id": 7031756532,
      "lat": 12.9728669,
      "lon": 77.6070859,
      "tags": {
        "air_conditioning": "yes",
        "description": "Our focus is on design innovation and promotion of handcrafted products made by skilled artisans using natural inputs which sustains and preserves the environment. We are dedicated towards preserving rich and vibrant traditional Indian art.",
        "name": "Jute Cottage",
        "shop": "gift",
        "source": "survey;local knowledge;gps;aerial imagery",
        "website": "https://www.jutecottage.co.in/"
      }
    },
    {
      "type": "node",
      "id": 7043992185,
      "lat": 12.9620164,
      "lon": 77.5978486,
      "tags": {
        "amenity": "restaurant",
        "name": "Peace Restaurant"
      }
    },
    {
      "type": "node",
      "id": 7043992186,
      "lat": 12.9583199,
      "lon": 77.6049603,
      "tags": {
        "name": "Hafele Appliances",
        "opening_hours": "Mo-Sa 10:00-17:00",
        "shop": "electronics"
      }
    },
    {
      "type": "node",
      "id": 7176651785,
      "lat": 12.9611765,
      "lon": 77.604694,
      "tags": {
        "addr:city": "Bengaluru",
        "addr:country": "IN",
        "addr:hamlet": "Richmond Town",
        "addr:housenumber": "11/1",
        "addr:postcode": "560025",
        "addr:street": "Alfred Street",
        "amenity": "restaurant",
        "cuisine": "japanese",
        "name": "Azuki Japan Travel Bistro & Sake",
        "note": "Opened in the middle of February 2020",
        "opening_hours": "11:00 - 23:00"
      }
    },
    {
      "type": "node",
      "id": 7220694773,
      "lat": 12.969593,
      "lon": 77.6100571,
      "tags": {
        "access": "customers",
        "amenity": "parking",
        "fee": "yes",
        "level": "-1",
        "parking": "underground",
        "supervised": "yes"
      }
    },
    {
      "type": "node",
      "id": 7255929396,
      "lat": 12.9715102,
      "lon": 77.6056382,
      "tags": {
        "addr:city": "Bengaluru",
        "addr:country": "IN",
        "addr:hamlet": "Shanthala Nagar",
        "addr:housenumber": "93",
        "addr:postcode": "560025",
        "addr:street": "Field Marshal Cariappa Road",
        "addr:suburb": "Ashok Nagar",
        "amenity": "coworking_space",
        "fee": "yes",
        "name": "Smartworks - Sargod Imperial",
        "office": "coworking",
        "operator": "smartworks",
        "website": "https://www.smartworksoffice.com/"
      }
    },