{
  "area_name": "Chamundi Nagara",
  "osm_id": 12887221981,
  "osm_type": "node",
  "place_type": "neighbourhood",
  "amenity_count": 145,
  "amenities": [
    {
      "type": "node",
      "id": 850751675,
      "lat": 13.0273116,
      "lon": 77.5934753,
      "tags": {
        "amenity": "restaurant",
        "name": "Kabab Manor",
        "name:kn": "ಕಬಾಬ್ ಮೆನರ್"
      }
    },
    {
      "type": "node",
      "id": 1370777378,
      "lat": 13.0328921,
      "lon": 77.6065664,
      "tags": {
        "amenity": "place_of_worship",
        "name": "Ganesh Temple",
        "name:kn": "ಗಣೇಶ ದೇವಸ್ಥಾನ",
        "religion": "hindu"
      }
    },
    {
      "type": "node",
      "id": 1370783346,
      "lat": 13.0383104,
      "lon": 77.6072338,
      "tags": {
        "amenity": "pharmacy",
        "brand": "MedPlus",
        "brand:wikidata": "Q65684234",
        "healthcare": "pharmacy",
        "name": "Medplus",
        "name:kn": "ಮೆಡ್‍ಪ್ಲಸ್"
      }
    },
    {
      "type": "node",
      "id": 1370783363,
      "lat": 13.0365701,
      "lon": 77.6064886,
      "tags": {
        "amenity": "school",
        "wheelchair": "yes"
      }
    },
    {
      "type": "node",
      "id": 1954714028,
      "lat": 13.0392207,
      "lon": 77.6000536,
      "tags": {
        "name": "More",
        "name:kn": "ಮೋರ್",
        "shop": "supermarket"
      }
    },
    {
      "type": "node",
      "id": 1954714029,
      "lat": 13.0391647,
      "lon": 77.5991817,
      "tags": {
        "name": "Mythri",
        "shop": "supermarket"
      }
    },
    {
      "type": "node",
      "id": 2210804544,
      "lat": 13.0269431,
      "lon": 77.60086,
      "tags": {
        "amenity": "place_of_worship",
        "name": "Rama temple",
        "name:kn": "ರಾಮ ದೇವಸ್ಥಾನ",
        "religion": "hindu"
      }
    },
    {
      "type": "node",
      "id": 4386500110,
      "lat": 13.0265617,
      "lon": 77.6040589,
      "tags": {
        "name": "Smita Info Solutions",
        "shop": "copyshop"
      }
    },
    {
      "type": "node",
      "id": 4386500111,
      "lat": 13.0266169,
      "lon": 77.6040449,
      "tags": {
        "name": "GM Time Center Watch Repair",
        "shop": "convenience"
      }
    },
    {
      "type": "node",
      "id": 4386500112,
      "lat": 13.0268489,
      "lon": 77.6041398,
      "tags": {
        "name": "Fond",
        "shop": "mobile_phone"
      }
    },
    {
      "type": "node",
      "id": 4386500113,
      "lat": 13.0268721,
      "lon": 77.6041478,
      "tags": {
        "name": "KSRTC Travel House",
        "shop": "travel_agency"
      }
    },
    {
      "type": "node",
      "id": 4386500114,
      "lat": 13.026938,
      "lon": 77.6041637,
      "tags": {
        "amenity": "school",
        "name": "Marian Kids"
      }
    },
    {
      "type": "node",
      "id": 4386500115,
      "lat": 13.0270552,
      "lon": 77.6041687,
      "tags": {
        "name": "Deluxe Bedding and Sofa center",
        "shop": "convenience"
      }
    },
    {
      "type": "node",
      "id": 4386500116,
      "lat": 13.0271281,
      "lon": 77.6042299,
      "tags": {
        "amenity": "pharmacy",
        "name": "Sakshi Medical And General Stores"
      }
    },
    {
      "type": "node",
      "id": 4386500117,
      "lat": 13.0273712,
      "lon": 77.6043059,
      "tags": {
        "amenity": "clinic",
        "name": "Hemant Clinic"
      }
    },
    {
      "type": "node",
      "id": 4386500118,
      "lat": 13.0274345,
      "lon": 77.6042708,
      "tags": {
        "name": "Shukrutha Chicken Center",
        "shop": "butcher"
      }
    },
    {
      "type": "node",
      "id": 4386500119,
      "lat": 13.0276254,
      "lon": 77.6043712,
      "tags": {
        "amenity": "school",
        "name": "Mona Nursery, Primary and High School"
      }
    },
    {
      "type": "node",
      "id": 4386500120,
      "lat": 13.0276582,
      "lon": 77.604326,
      "tags": {
        "name": "Prem Fancy Store",
        "shop": "convenience"
      }
    },
    {
      "type": "node",
      "id": 4386500121,
      "lat": 13.0276805,
      "lon": 77.6043445,
      "tags": {
        "name": "Sri Vinayaka Hot Chips",
        "shop": "convenience"
      }
    },
    {
      "type": "node",
      "id": 4386500122,
      "lat": 13.0278433,
      "lon": 77.6043961,
      "tags": {
        "name": "Raghavendra Jewellery Woris",
        "shop": "jewelry"
      }
    },
    {
      "type": "node",
      "id": 4386500197,
      "lat": 13.0267182,
      "lon": 77.6040529,
      "tags": {
        "name": "Ganga Bookstore",
        "shop": "books"
      }
    },
    {
      "type": "node",
      "id": 4386500198,
      "lat": 13.0267584,
      "lon": 77.6040579,
      "tags": {
        "name": "Time House",
        "shop": "convenience"
      }
    },
    {
      "type": "node",
      "id": 4386500199,
      "lat": 13.026904,
      "lon": 77.6041555,
      "tags": {
        "name": "Veena Collections",
        "shop": "clothes"
      }
    },
    {
      "type": "node",
      "id": 4386500200,
      "lat": 13.0271819,
      "lon": 77.6042504,
      "tags": {
        "name": "Keishna Electricals",
        "shop": "electronics"
      }
    },
    {
      "type": "node",
      "id": 4386506501,
      "lat": 13.0265159,
      "lon": 77.6040547,
      "tags": {
        "name": "SR Consultant Real Estate",
        "shop": "department_store"
      }
    },
    {
      "type": "node",
      "id": 4386506502,
      "lat": 13.0266962,
      "lon": 77.6040529,
      "tags": {
        "name": "Yakshini Condiments",
        "shop": "convenience"
      }
    },
    {
      "type": "node",
      "id": 4386506503,
      "lat": 13.0267483,
      "lon": 77.6041132,
      "tags": {
        "amenity": "atm",
        "operator": "Karur Vaisya Bank"
      }
    },
    {
      "type": "node",
      "id": 4386506504,
      "lat": 13.0268576,
      "lon": 77.6041118,
      "tags": {
        "amenity": "pharmacy",
        "name": "Kushal Medical Devices"
      }
    },
    {
      "type": "node",
      "id": 4386506505,
      "lat": 13.0270352,
      "lon": 77.6041657,
      "tags": {
        "name": "Shine Telecom",
        "shop": "mobile_phone"
      }
    },
    {
      "type": "node",
      "id": 4386506506,
      "lat": 13.0275314,
      "lon": 77.6042985,
      "tags": {
        "name": "MHN Jewellers",
        "shop": "jewelry"
      }
    },
    {
      "type": "node",
      "id": 4386506507,
      "lat": 13.0275936,
      "lon": 77.6043528,
      "tags": {
        "amenity": "fast_food",
        "name": "Goli Vadapav No.1"
      }
    },
    {
      "type": "node",
      "id": 4386506508,
      "lat": 13.0276513,
      "lon": 77.6043712,
      "tags": {
        "name": "Shree Sai Appliances",
        "shop": "electronics"
      }
    },
    {
      "type": "node",
      "id": 4386506509,
      "lat": 13.0276765,
      "lon": 77.6043712,
      "tags": {
        "amenity": "restaurant",
        "name": "Chitra Darshini",
        "name:kn": "ಚಿತ್ರ ದರ್ಶಿನಿ"
      }
    },
    {
      "type": "node",
      "id": 4386506510,
      "lat": 13.0276316,
      "lon": 77.604326,
      "tags": {
        "name": "Shree Basaveswara Frame Works",
        "shop": "convenience"
      }
    },
    {
      "type": "node",
      "id": 4386506511,
      "lat": 13.027842,
      "lon": 77.6044191,
      "tags": {
        "name": "PN Tools Hardware",
        "shop": "hardware"
      }
    },
    {
      "type": "node",
      "id": 4386506512,
      "lat": 13.027778,
      "lon": 77.6043901,
      "tags": {
        "craft": "tailor",
        "name": "Sangam Ladies Tailor",
        "shop": "mobile_phone"
      }
    },
    {
      "type": "node",
      "id": 4386506598,
      "lat": 13.0265752,
      "lon": 77.6040303,
      "tags": {
        "name": "Zooland Aquatic",
        "shop": "pet"
      }
    },
    {
      "type": "node",
      "id": 4386506599,
      "lat": 13.0266474,
      "lon": 77.6040449,
      "tags": {
        "name": "Golden Choice Footwear",
        "shop": "shoes"
      }
    },
    {
      "type": "node",
      "id": 4386506600,
      "lat": 13.0266933,
      "lon": 77.6041031,
      "tags": {
        "name": "Seek n Hide Tours and Travels",
        "shop": "convenience"
      }
    },
    {
      "type": "node",
      "id": 4386506601,
      "lat": 13.0269861,
      "lon": 77.6041889,
      "tags": {
        "amenity": "atm",
        "operator": "ICICI Bank"
      }
    },
    {
      "type": "node",
      "id": 4386506602,
      "lat": 13.0275985,
      "lon": 77.6043248,
      "tags": {
        "name": "Khushi Beauty Parlour",
        "shop": "cosmetics"
      }
    },
    {
      "type": "node",
      "id": 4386506603,
      "lat": 13.0277189,
      "lon": 77.6044033,
      "tags": {
        "name": "Chaitra Pan",
        "shop": "convenience"
      }
    },
    {
      "type": "node",
      "id": 4386506604,
      "lat": 13.0277645,
      "lon": 77.604407,
      "tags": {
        "name": "KGN FootWear",
        "shop": "shoes"
      }
    },
    {
      "type": "node",
      "id": 4386506605,
      "lat": 13.0277965,
      "lon": 77.604407,
      "tags": {
        "name": "A1 Mobile Service Center",
        "shop": "mobile_phone"
      }
    },
    {
      "type": "node",
      "id": 4386506606,
      "lat": 13.0278097,
      "lon": 77.6043901,
      "tags": {
        "amenity": "atm",
        "operator": "Axis Bank"
      }
    },
    {
      "type": "node",
      "id": 4386506694,
      "lat": 13.0264161,
      "lon": 77.6040116,
      "tags": {
        "amenity": "fast_food",
        "name": "HMS Fast Food"
      }
    },
    {
      "type": "node",
      "id": 4386506695,
      "lat": 13.0266014,
      "lon": 77.6040359,
      "tags": {
        "name": "Om Ganesh Juice Center",
        "shop": "convenience"
      }
    },
    {
      "type": "node",
      "id": 4386506696,
      "lat": 13.0274651,
      "lon": 77.6042813,
      "tags": {
        "name": "Durga Pan Bhandar",
        "shop": "convenience"
      }
    },
    {
      "type": "node",
      "id": 4386506697,
      "lat": 13.0275697,
      "lon": 77.6043333,
      "tags": {
        "name": "Mummy Daddy Garments",
        "shop": "clothes"
      }
    },
    {
      "type": "node",
      "id": 4386506790,
      "lat": 13.0267774,
      "lon": 77.6040589,
      "tags": {
        "name": "Maharaja Hi Fashion",
        "shop": "clothes"
      }
    },
    {
      "type": "node",
      "id": 4386506791,
      "lat": 13.0269118,
      "lon": 77.6041118,
      "tags": {
        "name": "Bangalore Time Center",
        "shop": "convenience"
      }
    },
    {
      "type": "node",
      "id": 4386506792,
      "lat": 13.0275104,
      "lon": 77.6043235,
      "tags": {
        "amenity": "clinic",
        "name": "Anagha Polyclinic"
      }
    },
    {
      "type": "node",
      "id": 4386506793,
      "lat": 13.0275425,
      "lon": 77.6043333,
      "tags": {
        "amenity": "pharmacy",
        "name": "Anagha Pharma"
      }
    },
    {
      "type": "node",
      "id": 4386506794,
      "lat": 13.027668,
      "lon": 77.6043446,
      "tags": {
        "name": "Sleep Good Matress",
        "shop": "convenience"
      }
    },
    {
      "type": "node",
      "id": 4386506899,
      "lat": 13.0269196,
      "lon": 77.6041622,
      "tags": {
        "name": "China Bazzar",
        "shop": "gift"
      }
    },
    {
      "type": "node",
      "id": 4386506900,
      "lat": 13.0272795,
      "lon": 77.6042868,
      "tags": {
        "amenity": "clinic",
        "name": "Gandhi Dental Clinic"
      }
    },
    {
      "type": "node",
      "id": 4386506901,
      "lat": 13.0273351,
      "lon": 77.6042946,
      "tags": {
        "name": "Pavithra Enterprises",
        "shop": "convenience"
      }
    },
    {
      "type": "node",
      "id": 4386506902,
      "lat": 13.0275755,
      "lon": 77.6043124,
      "tags": {
        "amenity": "cafe",
        "name": "Cool Corner"
      }
    },
    {
      "type": "node",
      "id": 4386506992,
      "lat": 13.0268892,
      "lon": 77.6041118,
      "tags": {
        "amenity": "fast_food",
        "name": "Five Star Chicken"
      }
    },
    {
      "type": "node",
      "id": 4386507095,
      "lat": 13.0267226,
      "lon": 77.6041132,
      "tags": {
        "amenity": "hospital",
        "name": "Vignesh Lab and Diagnostics"
      }
    },
    {
      "type": "node",
      "id": 4386507096,
      "lat": 13.0270235,
      "lon": 77.6041889,
      "tags": {
        "amenity": "pharmacy",
        "name": "Medplus",
        "name:kn": "ಮೆಡ್‍ಪ್ಲಸ್"
      }
    },
    {
      "type": "node",
      "id": 4386507097,
      "lat": 13.0269891,
      "lon": 77.6041517,
      "tags": {
        "name": "All Brands Collections",
        "shop": "shoes"
      }
    },
    {
      "type": "node",
      "id": 4386507098,
      "lat": 13.0274094,
      "lon": 77.6042695,
      "tags": {
        "name": "Mobile Hut",
        "shop": "mobile_phone"
      }
    },
    {
      "type": "node",
      "id": 4386507099,
      "lat": 13.0278285,
      "lon": 77.6044191,
      "tags": {
        "name": "DK Kova",
        "shop": "confectionery"
      }
    },
    {
      "type": "node",
      "id": 4386507391,
      "lat": 13.0274943,
      "lon": 77.6042931,
      "tags": {
        "name": "New Lovely Trends",
        "shop": "gift"
      }
    },
    {
      "type": "node",
      "id": 4386507689,
      "lat": 13.0271564,
      "lon": 77.6042369,
      "tags": {
        "name": "Jagathamba Bankers and Jewellers",
        "shop": "jewelry"
      }
    },
    {
      "type": "node",
      "id": 4443560972,
      "lat": 13.0272204,
      "lon": 77.593535,
      "tags": {
        "addr:city": "bangalore",
        "addr:housenumber": "16",
        "addr:postcode": "560032",
        "addr:street": "Hmt Layout, Near-R T Nagar Bus Depot, R T Nagar, HMT Layout, Dinnur, RT Nagar",
        "amenity": "pharmacy",
        "name": "Sri Srinivasa Medicals",
        "phone": "080 2353 5499"
      }
    },
    {
      "type": "node",
      "id": 4445614215,
      "lat": 13.0373064,
      "lon": 77.6052013,
      "tags": {
        "addr:city": "Bangalore",
        "addr:housenumber": "20",
        "addr:postcode": "560032",
        "addr:street": "1st Main Rd, Kanaka Nagar, Hebbal,",
        "amenity": "restaurant",
        "cuisine": "regional",
        "delivery": "yes",
        "name": "Al Khair Restaurant",
        "opening_hours": "11:00-23:00",
        "phone": "080 2365 1666",
        "smoking": "no",
        "takeaway": "yes",
        "website": "https://www.alkhair.in/"
      }
    },
    {
      "type": "node",
      "id": 4445687662,
      "lat": 13.0314172,
      "lon": 77.6043283,
      "tags": {
        "addr:city": "Bangalore",
        "addr:housenumber": "#56/2",
        "addr:postcode": "560032",
        "addr:street": "Sulthanpalya Main Road, 1st Floor,R.T.Nagar Post",
        "amenity": "pharmacy",
        "name": "Shiva Homoeo Medicals",
        "phone": "+9199165 21079"
      }
    },
    {
      "type": "node",
      "id": 4445709313,
      "lat": 13.037145,
      "lon": 77.5916005,
      "tags": {
        "addr:city": "Bangalore",
        "addr:housenumber": "#3",
        "addr:postcode": "560024",
        "addr:street": "SS Ashram Road, No. 1, 4th Main, Manjunatha Complex",
        "amenity": "clinic",
        "name": "Dattatreya Multispeciality Clinic",
        "phone": "+9198806 44753"
      }
    },
    {
      "type": "node",
      "id": 4445802548,
      "lat": 13.0292674,
      "lon": 77.6045683,
      "tags": {
        "addr:city": "Bangalore",
        "addr:housenumber": "#53",
        "addr:postcode": "560032",
        "addr:street": "Sulthanpalya Main Road, 12th Cross,Manorayana Palya,",
        "amenity": "clinic",
        "name": "Synergy Health Care",
        "phone": "080500 80120",
        "source": "http://www.bangalorehospital.co.in/"
      }
    },
    {
      "type": "node",
      "id": 4445886952,
      "lat": 13.0316481,
      "lon": 77.6023154,
      "tags": {
        "addr:city": "Bangalore",
        "addr:postcode": "560032",
        "addr:street": "Sultanpalya Main Road, Near-Bus Stand, R T Nagar",
        "amenity": "hospital",
        "name": "Sanjeevini Children & Women Clinic",
        "phone": "080 2292 4422"
      }
    },
    {
      "type": "node",
      "id": 4488400190,
      "lat": 13.0400633,
      "lon": 77.6061723,
      "tags": {
        "addr:city": "bangalore",
        "addr:postcode": "560032",
        "addr:street": "Kanaka Nagar 1st Main Road",
        "name": "Daisy's Beauty Parlour",
        "opening_hours": "10:00-19:00",
        "phone": "097400 07553",
        "shop": "beauty"
      }
    },
    {
      "type": "node",
      "id": 4488587289,
      "lat": 13.0391189,
      "lon": 77.5992828,
      "tags": {
        "addr:city": "bangalore",
        "addr:housenumber": "Vishwanath Naganahalli Main Rd",
        "addr:postcode": "560032",
        "addr:street": "Bhadrappa Layout, Chinana Layout, Guddadahalli",
        "leisure": "sports_centre",
        "name": "Good Health And Fitness Zone",
        "opening_hours": "5:30-22:00",
        "phone": "8033569108",
        "sport": "gymnastics"
      }
    },
    {
      "type": "node",
      "id": 4697854891,
      "lat": 13.0264736,
      "lon": 77.599251,
      "tags": {
        "amenity": "school",
        "name": "Kingston school",
        "name:en": "Kingston school"
      }
    },
    {
      "type": "node",
      "id": 4697889489,
      "lat": 13.0263631,
      "lon": 77.5996649,
      "tags": {
        "name": "Ashok bakery",
        "name:en": "Ashok bakery",
        "shop": "bakery"
      }
    },
    {
      "type": "node",
      "id": 5286949427,
      "lat": 13.0416427,
      "lon": 77.5950772,
      "tags": {
        "addr:state": "KA",
        "name": "All About Liquor",
        "opening_hours": "Mo-Su 10:00-20:30",
        "shop": "alcohol",
        "wheelchair": "yes"
      }
    },
    {
      "type": "node",
      "id": 5286949428,
      "lat": 13.0416622,
      "lon": 77.5948393,
      "tags": {
        "brand": "Ford",
        "brand:wikidata": "Q44294",
        "name": "Ford",
        "shop": "car"
      }
    },
    {
      "type": "node",
      "id": 5286949429,
      "lat": 13.0416642,
      "lon": 77.5945134,
      "tags": {
        "brand": "Volkswagen",
        "brand:wikidata": "Q246",
        "name": "Volkswagen",
        "shop": "car"
      }
    },
    {
      "type": "node",
      "id": 5295004587,
      "lat": 13.04165,
      "lon": 77.5967025,
      "tags": {
        "name": "Orientbell Tiles",
        "shop": "tiles"
      }
    },
    {
      "type": "node",
      "id": 5329386293,
      "lat": 13.0264895,
      "lon": 77.6040339,
      "tags": {
        "highway": "bus_stop",
        "name": "Shaji Stores",
        "shop": "department_store"
      }
    },
    {
      "type": "node",
      "id": 6937963276,
      "lat": 13.0261691,
      "lon": 77.5984029,
      "tags": {
        "addr:district": "Bengaluru Urban",
        "addr:full": "#7, 2nd Main, 7Th Cross Dinnur, Rt Nagar Post",
        "addr:postcode": "560032",
        "addr:state": "Karnataka",
        "amenity": "clinic",
        "name": "Kids Care Health Centre",
        "source": "OpenGovernmentData",
        "wheelchair": "limited"
      }
    },
    {
      "type": "node",
      "id": 6938547661,
      "lat": 13.0289685,
      "lon": 77.6045479,
      "tags": {
        "addr:district": "Bengaluru Urban",
        "addr:full": "# 125 1st Cross Bhuwaneshwarinagar Sultanpalya Main Road R T Nagar Post",
        "addr:postcode": "560032",
        "addr:state": "Karnataka",
        "amenity": "hospital",
        "name": "Ashirwad Hospital",
        "source": "OpenGovernmentData"
      }
    },
    {
      "type": "node",
      "id": 6947430278,
      "lat": 13.0263344,
      "lon": 77.595128,
      "tags": {
        "addr:district": "Bengaluru Urban",
        "addr:full": "#200/A, Hmt Layout, Karthik Complex, Dinnur Main Road, R.T. Nagar",
        "addr:postcode": "560032",
        "addr:state": "Karnataka",
        "amenity": "hospital",
        "name": "Poornima Hospital",
        "source": "OpenGovernmentData"
      }
    },
    {
      "type": "node",
      "id": 6948529644,
      "lat": 13.034899,
      "lon": 77.6050904,
      "tags": {
        "addr:district": "Bengaluru Urban",
        "addr:full": "#9 Sulthanpalya Main Road,2nd Cross,6Th Main,Bhuvaneshwari Nagar,R.T.Nagar Post",
        "addr:postcode": "560032",
        "addr:state": "Karnataka",
        "amenity": "clinic",
        "name": "Parvathi Piles Clinic",
        "source": "OpenGovernmentData"
      }
    },
    {
      "type": "node",
      "id": 7216620534,
      "lat": 13.0428831,
      "lon": 77.5987798,
      "tags": {
        "name": "Varun Maruthi",
        "shop": "car"
      }
    },
    {
      "type": "node",
      "id": 7223109365,
      "lat": 13.0416367,
      "lon": 77.5954592,
      "tags": {
        "name": "Maruti",
        "name:kn": "ಮಾರುತಿ",
        "shop": "car"
      }
    },
    {
      "type": "node",
      "id": 8288337665,
      "lat": 13.0327874,
      "lon": 77.5965496,
      "tags": {
        "amenity": "school",
        "name": "Sukrupa School"
      }
    },
    {
      "type": "node",
      "id": 8684335453,
      "lat": 13.0329988,
      "lon": 77.5991477,
      "tags": {
        "amenity": "fuel",
        "brand": "Bharat Petroleum",
        "brand:wikidata": "Q854826",
        "name": "Bharat Petroleum",
        "name:kn": "ಭಾರತ್ ಪೆಟ್ರೋಲಿಯಂ"
      }
    },
    {
      "type": "node",
      "id": 8684358823,
      "lat": 13.0331404,
      "lon": 77.5993644,
      "tags": {
        "amenity": "pharmacy",
        "name": "Shiv shakthi medicals"
      }
    },
    {
      "type": "node",
      "id": 11119061418,
      "lat": 13.0324302,
      "lon": 77.6066728,
      "tags": {
        "amenity": "place_of_worship",
        "name": "St. Alphonsa Forane Church",
        "religion": "christian"
      }
    },
    {
      "type": "node",
      "id": 11119061507,
      "lat": 13.026009,
      "lon": 77.6016293,
      "tags": {
        "amenity": "fast_food",
        "name": "Chintu Chit Chat Centre Bangarapet Pani Puri"
      }
    },
    {
      "type": "node",
      "id": 11176470273,
      "lat": 13.0390315,
      "lon": 77.5977619,
      "tags": {
        "check_date": "2023-09-02",
        "name": "Tea time",
        "shop": "tea"
      }
    },
    {
      "type": "node",
      "id": 11176470274,
      "lat": 13.0390311,
      "lon": 77.5975494,
      "tags": {
        "check_date": "2023-09-02",
        "name": "Smart point",
        "shop": "supermarket"
      }
    },
    {
      "type": "node",
      "id": 11176470275,
      "lat": 13.039015,
      "lon": 77.5978589,
      "tags": {
        "brand:wikidata": "Q65090033",
        "check_date": "2023-09-02",
        "clothes": "women",
        "name": "Maa collections",
        "shop": "clothes"
      }
    },
    {
      "type": "node",
      "id": 11359595250,
      "lat": 13.0295006,
      "lon": 77.5949717,
      "tags": {
        "name": "Sai Medicals And General Stores",
        "shop": "medical_supply"
      }
    },
    {
      "type": "node",
      "id": 11359611697,
      "lat": 13.0274249,
      "lon": 77.5935355,
      "tags": {
        "addr:city": "Bengaluru",
        "addr:housenumber": "18",
        "addr:street": "80 Feet Road, RT Nagar",
        "amenity": "fast_food",
        "brand": "Pizza Hut",
        "brand:wikidata": "Q191615",
        "cuisine": "pizza",
        "name": "Pizza Hut",
        "opening_hours": "Mo-Su 11:00-23:00"
      }
    },
    {
      "type": "node",
      "id": 12285541096,
      "lat": 13.0393786,
      "lon": 77.5962148,
      "tags": {
        "amenity": "fuel",
        "check_date": "2024-10-24",
        "fuel:cng": "yes",
        "name": "Go Gas"
      }
    },
    {
      "type": "node",
      "id": 12285541097,
      "lat": 13.0363508,
      "lon": 77.5980075,
      "tags": {
        "amenity": "bank",
        "brand": "State Bank of India",
        "brand:wikidata": "Q1340361",
        "check_date": "2024-10-24",
        "name": "State Bank of India",
        "short_name": "SBI"
      }
    },
    {
      "type": "node",
      "id": 12285541098,
      "lat": 13.0363318,
      "lon": 77.5980792,
      "tags": {
        "amenity": "atm",
        "brand": "State Bank of India",
        "brand:wikidata": "Q1340361",
        "check_date": "2024-10-24",
        "operator": "State Bank of India",
        "operator:wikidata": "Q1340361",
        "short_name": "SBI"
      }
    },
    {
      "type": "node",
      "id": 12456051652,
      "lat": 13.0372408,
      "lon": 77.5910525,
      "tags": {
        "name": "Medical store",
        "shop": "medical_supply"
      }
    },
    {
      "type": "node",
      "id": 12833133105,
      "lat": 13.0312837,
      "lon": 77.5909518,
      "tags": {
        "brand": "HOPCOMS",
        "brand:wikidata": "Q22908959",
        "name": "HOPCOMS",
        "shop": "greengrocer"
      }
    },
    {
      "type": "node",
      "id": 12833133106,
      "lat": 13.0312001,
      "lon": 77.5909477,
      "tags": {
        "brand": "Nandini",
        "brand:wikidata": "Q124374212",
        "name": "Nandini",
        "shop": "dairy"
      }
    },
    {
      "type": "node",
      "id": 12846322963,
      "lat": 13.0292958,
      "lon": 77.6013165,
      "tags": {
        "amenity": "place_of_worship",
        "religion": "hindu"
      }
    },
    {
      "type": "way",
      "id": 54963084,
      "center": {
        "lat": 13.0347249,
        "lon": 77.5901708
      },
      "tags": {
        "addr:city": "Bangalore",
        "addr:district": "Bengaluru Urban",
        "addr:full": "138/1, Srinivasa Nagar, Devara Jeevanahalli, Bengaluru, Karnataka",
        "addr:postcode": "560024",
        "addr:state": "Karnataka",
        "addr:street": "Bellary Road",
        "amenity": "hospital",
        "emergency": "yes",
        "healthcare": "hospital",
        "name": "Baptist Hospital",
        "name:kn": "ಬೆಂಗಳೂರು ಬಾಪ್ಟಿಸ್ಟ್ ಆಸ್ಪತ್ರೆ",
        "phone": "08022024700",
        "source": "OpenGovernmentData",
        "website": "https://www.bbh.org.in/",
        "wheelchair": "limited"
      }
    },
    {
      "type": "way",
      "id": 54963214,
      "center": {
        "lat": 13.0380171,
        "lon": 77.5903177
      },
      "tags": {
        "amenity": "college",
        "landuse": "education",
        "name": "Government First Grade College"
      }
    },
    {
      "type": "way",
      "id": 71516174,
      "center": {
        "lat": 13.0285944,
        "lon": 77.5954864
      },
      "tags": {
        "leisure": "park",
        "name": "VV Park"
      }
    },
    {
      "type": "way",
      "id": 211067633,
      "center": {
        "lat": 13.0269684,
        "lon": 77.6004156
      },
      "tags": {
        "amenity": "school",
        "name": "Vivekananda centre",
        "name:kn": "ವಿವೇಕನಂದ ಕೇಂದ್ರ"
      }
    },
    {
      "type": "way",
      "id": 232654695,
      "center": {
        "lat": 13.043739,
        "lon": 77.5958175
      },
      "tags": {
        "amenity": "place_of_worship",
        "denomination": "pentecostal",
        "name": "Bethel AG",
        "religion": "christian"
      }
    },
    {
      "type": "way",
      "id": 346501622,
      "center": {
        "lat": 13.0360513,
        "lon": 77.5905954
      },
      "tags": {
        "amenity": "restaurant",
        "building": "yes"
      }
    },
    {
      "type": "way",
      "id": 346730865,
      "center": {
        "lat": 13.0380816,
        "lon": 77.5947162
      },
      "tags": {
        "addr:city": "Bengaluru",
        "addr:postcode": "560032",
        "addr:street": "Sonnappa Layout, Ayyappa Layout, Hebbal",
        "amenity": "place_of_worship",
        "building": "yes",
        "name": "Shri Aananda Lingeshwara Temple",
        "religion": "hindu"
      }
    },
    {
      "type": "way",
      "id": 347120887,
      "center": {
        "lat": 13.0267744,
        "lon": 77.5987021
      },
      "tags": {
        "amenity": "school",
        "building": "yes",
        "name": "Vatican High School"
      }
    },
    {
      "type": "way",
      "id": 367411062,
      "center": {
        "lat": 13.0343582,
        "lon": 77.5940581
      },
      "tags": {
        "leisure": "park",
        "name": "BBMP Amarjyothi Layout Park",
        "name:kn": "ಅಮರಜ್ಯೋತಿ ಉದ್ಯಾನವನ"
      }
    },
    {
      "type": "way",
      "id": 772934825,
      "center": {
        "lat": 13.042983,
        "lon": 77.5969446
      },
      "tags": {
        "amenity": "place_of_worship",
        "denomination": "pentecostal",
        "name": "Temple of God",
        "religion": "christian"
      }
    },
    {
      "type": "way",
      "id": 782108513,
      "center": {
        "lat": 13.0363198,
        "lon": 77.590595
      },
      "tags": {
        "amenity": "restaurant",
        "building": "yes"
      }
    },
    {
      "type": "way",
      "id": 782292577,
      "center": {
        "lat": 13.0349259,
        "lon": 77.5915241
      },
      "tags": {
        "access": "private",
        "leisure": "park"
      }
    },
    {
      "type": "way",
      "id": 1034261984,
      "center": {
        "lat": 13.0418889,
        "lon": 77.5983827
      },
      "tags": {
        "access": "private",
        "amenity": "parking",
        "parking": "surface"
      }
    },
    {
      "type": "way",
      "id": 1111845891,
      "center": {
        "lat": 13.0378792,
        "lon": 77.6039746
      },
      "tags": {
        "amenity": "school",
        "name": "Young Scholars Academy",
        "wheelchair": "yes"
      }
    },
    {
      "type": "way",
      "id": 1119296883,
      "center": {
        "lat": 13.0424154,
        "lon": 77.5953727
      },
      "tags": {
        "addr:city": "Bengaluru",
        "addr:postcode": "560024",
        "addr:street": "Vayunandana Layout, Hebbal Kempapura",
        "building": "yes",
        "name": "Western Cars",
        "second_hand": "only",
        "shop": "car"
      }
    },
    {
      "type": "way",
      "id": 1198647091,
      "center": {
        "lat": 13.0293789,
        "lon": 77.60653
      },
      "tags": {
        "access": "private",
        "leisure": "swimming_pool"
      }
    },
    {
      "type": "way",
      "id": 1202598184,
      "center": {
        "lat": 13.0391795,
        "lon": 77.6050169
      },
      "tags": {
        "alt_name": "Nagenahalli Church",
        "amenity": "place_of_worship",
        "name": "St. Paul the Hermit Church",
        "name:kn": "ನಾಗೇನಹಳ್ಳಿ ಇಗರ್ಜೆ",
        "religion": "christian"
      }
    },
    {
      "type": "way",
      "id": 1308743211,
      "center": {
        "lat": 13.0334315,
        "lon": 77.5915469
      },
      "tags": {
        "access": "private",
        "amenity": "parking",
        "parking": "surface"
      }
    },
    {
      "type": "way",
      "id": 1386060475,
      "center": {
        "lat": 13.0370414,
        "lon": 77.5979312
      },
      "tags": {
        "amenity": "school"
      }
    },
    {
      "type": "way",
      "id": 1386060476,
      "center": {
        "lat": 13.0333663,
        "lon": 77.5979688
      },
      "tags": {
        "amenity": "college",
        "landuse": "education",
        "name": "Rajiv Gandhi Institute of Technology"
      }
    },
    {
      "type": "way",
      "id": 1386060477,
      "center": {
        "lat": 13.0338347,
        "lon": 77.5974269
      },
      "tags": {
        "addr:city": "Bangalore",
        "addr:postcode": "560032",
        "addr:street": "Cholanagar",
        "amenity": "college",
        "description": "Dental College and Hospital",
        "landuse": "education",
        "name": "Sri Rajiv Gandhi College of Dental Sciences & Hospital",
        "opening_hours": "Mo-Sa 08:30-15:30",
        "phone": "+918023339377",
        "website": "https://srgcds.ac.in"
      }
    },
    {
      "type": "way",
      "id": 1386060496,
      "center": {
        "lat": 13.0320393,
        "lon": 77.5926422
      },
      "tags": {
        "leisure": "park"
      }
    },
    {
      "type": "way",
      "id": 1386060497,
      "center": {
        "lat": 13.0315745,
        "lon": 77.5914906
      },
      "tags": {
        "leisure": "park",
        "name": "Captain Kevin Park"
      }
    },
    {
      "type": "way",
      "id": 1386060510,
      "center": {
        "lat": 13.0312274,
        "lon": 77.5912953
      },
      "tags": {
        "amenity": "place_of_worship",
        "landuse": "religious",
        "religion": "hindu"
      }
    },
    {
      "type": "way",
      "id": 1386060629,
      "center": {
        "lat": 13.0321748,
        "lon": 77.5917027
      },
      "tags": {
        "leisure": "pitch",
        "sport": "soccer"
      }
    },
    {
      "type": "way",
      "id": 1386060630,
      "center": {
        "lat": 13.0322036,
        "lon": 77.5915014
      },
      "tags": {
        "access": "yes",
        "hoops": "2",
        "leisure": "pitch",
        "sport": "basketball",
        "surface": "concrete"
      }
    },
    {
      "type": "way",
      "id": 1386060657,
      "center": {
        "lat": 13.0291099,
        "lon": 77.592251
      },
      "tags": {
        "amenity": "place_of_worship",
        "landuse": "religious",
        "name": "Sri Shirdi Saibaba Temple",
        "religion": "hindu"
      }
    },
    {
      "type": "way",
      "id": 1387946479,
      "center": {
        "lat": 13.0291677,
        "lon": 77.6066994
      },
      "tags": {
        "access": "private",
        "leisure": "garden"
      }
    },
    {
      "type": "way",
      "id": 1387957381,
      "center": {
        "lat": 13.0318083,
        "lon": 77.6030804
      },
      "tags": {
        "amenity": "place_of_worship",
        "landuse": "religious",
        "name": "Sri Lakshmi Narasimha Swamy Temple",
        "religion": "hindu"
      }
    },
    {
      "type": "way",
      "id": 1388296336,
      "center": {
        "lat": 13.0354921,
        "lon": 77.6056231
      },
      "tags": {
        "amenity": "school"
      }
    },
    {
      "type": "way",
      "id": 1388440056,
      "center": {
        "lat": 13.0379907,
        "lon": 77.6043638
      },
      "tags": {
        "access": "private",
        "leisure": "swimming_pool"
      }
    },
    {
      "type": "way",
      "id": 1388440057,
      "center": {
        "lat": 13.0378975,
        "lon": 77.6040771
      },
      "tags": {
        "leisure": "pitch",
        "sport": "soccer",
        "wheelchair": "yes"
      }
    },
    {
      "type": "way",
      "id": 1388440058,
      "center": {
        "lat": 13.037576,
        "lon": 77.6039203
      },
      "tags": {
        "leisure": "pitch",
        "sport": "tennis"
      }
    },
    {
      "type": "way",
      "id": 1388693672,
      "center": {
        "lat": 13.0302783,
        "lon": 77.5935492
      },
      "tags": {
        "amenity": "place_of_worship",
        "building": "mosque",
        "name:kn": "ಮಸೀದಿ",
        "religion": "muslim"
      }
    },
    {
      "type": "way",
      "id": 1433092894,
      "center": {
        "lat": 13.0371077,
        "lon": 77.5930288
      },
      "tags": {
        "access": "private",
        "leisure": "swimming_pool"
      }
    },
    {
      "type": "way",
      "id": 1433092910,
      "center": {
        "lat": 13.0349676,
        "lon": 77.5915546
      },
      "tags": {
        "access": "private",
        "leisure": "playground"
      }
    },
    {
      "type": "way",
      "id": 1433092944,
      "center": {
        "lat": 13.0360265,
        "lon": 77.5932498
      },
      "tags": {
        "access": "private",
        "leisure": "swimming_pool"
      }
    },
    {
      "type": "way",
      "id": 1433092945,
      "center": {
        "lat": 13.0360889,
        "lon": 77.5930945
      },
      "tags": {
        "access": "private",
        "leisure": "playground"
      }
    },
    {
      "type": "way",
      "id": 1433092958,
      "center": {
        "lat": 13.0347569,
        "lon": 77.5927344
      },
      "tags": {
        "access": "private",
        "leisure": "pitch",
        "sport": "basketball"
      }
    },
    {
      "type": "way",
      "id": 1433092959,
      "center": {
        "lat": 13.034955,
        "lon": 77.592752
      },
      "tags": {
        "access": "private",
        "leisure": "pitch",
        "sport": "tennis"
      }
    },
    {
      "type": "way",
      "id": 1448247042,
      "center": {
        "lat": 13.0344628,
        "lon": 77.5905401
      },
      "tags": {
        "access": "private",
        "amenity": "parking",
        "parking": "surface"
      }
    }
  ]
}