{
  "area_name": "Craig Park Layout",
  "osm_id": 7293721308,
  "osm_type": "node",
  "place_type": "neighbourhood",
  "amenity_count": 724,
  "amenities": [
    {
      "type": "node",
      "id": 312545031,
      "lat": 12.9703806,
      "lon": 77.6094191,
      "tags": {
        "access": "customers",
        "amenity": "parking",
        "fee": "yes",
        "name": "Garuda Mall Parking",
        "parking": "underground"
      }
    },
    {
      "type": "node",
      "id": 316483286,
      "lat": 12.9748429,
      "lon": 77.608086,
      "tags": {
        "addr:street": "M G Road",
        "craft": "handicraft",
        "name": "Cauvery Arts And Crafts Emporium",
        "shop": "craft"
      }
    },
    {
      "type": "node",
      "id": 429876582,
      "lat": 12.9665538,
      "lon": 77.6141032,
      "tags": {
        "addr:housename": "#8",
        "addr:street": "Victoria Road",
        "amenity": "restaurant",
        "level": "0,1",
        "name": "Hyderbad Biryani House",
        "name:kn": "ಹೈದರಾಬಾದ್ ಬಿರಿಯಾನಿ ಹೌಸ್"
      }
    },
    {
      "type": "node",
      "id": 1065137172,
      "lat": 12.9698334,
      "lon": 77.6098091,
      "tags": {
        "addr:housename": "Garuda Mall",
        "addr:street": "Commissariat Road",
        "amenity": "cinema",
        "brand": "INOX Leisure",
        "brand:wikidata": "Q5972349",
        "drive_in": "no",
        "name": "INOX Garuda Mall",
        "screen": "5",
        "short_name": "INOX"
      }
    },
    {
      "type": "node",
      "id": 1065137180,
      "lat": 12.9745381,
      "lon": 77.6096029,
      "tags": {
        "amenity": "restaurant",
        "cuisine": "indian",
        "internet_access": "no",
        "name": "Ullas Refreshment",
        "name:kn": "ಉಲ್ಲಾಸ್ ರಿಫ್ರೆಶ್‌ಮೆಂಟ್"
      }
    },
    {
      "type": "node",
      "id": 1067841657,
      "lat": 12.9729051,
      "lon": 77.6074026,
      "tags": {
        "addr:street": "Brigade Road",
        "amenity": "fast_food",
        "brand": "Subway",
        "brand:pa": "ਸਬਵੇਅ",
        "brand:ur": "سب وے",
        "brand:wikidata": "Q244457",
        "brand:wikipedia": "en:Subway (restaurant)",
        "cuisine": "sandwich",
        "name": "Subway",
        "name:kn": "ಸಬ್‌ವೇ",
        "name:pa": "ਸਬਵੇਅ",
        "name:ur": "سب وے",
        "takeaway": "yes"
      }
    },
    {
      "type": "node",
      "id": 1129098580,
      "lat": 12.966942,
      "lon": 77.60796,
      "tags": {
        "amenity": "restaurant",
        "cuisine": "french",
        "name": "Olive Beach",
        "name:kn": "ಆಲೀವ್ ಬೀಚ್"
      }
    },
    {
      "type": "node",
      "id": 1454651986,
      "lat": 12.9671401,
      "lon": 77.6094485,
      "tags": {
        "addr:district": "Bengaluru Urban",
        "addr:full": "#37, Castle Street, Opp Sacred Heart Church, Ashok Nagar, B.E",
        "addr:housenumber": "37",
        "addr:postcode": "560025",
        "addr:state": "Karnataka",
        "addr:street": "Castle Street",
        "amenity": "hospital",
        "name": "Narayana Netralaya",
        "name:kn": "ನಾರಾಯಣ ನೇತ್ರಾಲಯ",
        "source": "OpenGovernmentData"
      }
    },
    {
      "type": "node",
      "id": 1460720496,
      "lat": 12.96527,
      "lon": 77.6172392,
      "tags": {
        "name": "India Garage",
        "shop": "car_repair"
      }
    },
    {
      "type": "node",
      "id": 1462124094,
      "lat": 12.972972,
      "lon": 77.6213025,
      "tags": {
        "amenity": "fast_food",
        "brand": "McDonald's",
        "brand:pa": "ਮੈਕਡੋਨਲਡ’ਜ਼",
        "brand:ur": "مکڈونلڈز",
        "brand:wikidata": "Q38076",
        "brand:wikipedia": "en:McDonald's",
        "brand:wikipedia:pa": "ਮੈਕਡੋਨਲਡ’ਜ਼",
        "brand:wikipedia:ur": "مکڈونلڈز",
        "cuisine": "burger",
        "name": "McDonald's",
        "name:kn": "ಮ್ಯಾಕ್‌ಡೊನಾಲ್ಡ್ಸ್",
        "name:pa": "ਮੈਕਡੋਨਲਡ’ਜ਼",
        "name:ur": "مکڈونلڈز",
        "takeaway": "yes"
      }
    },
    {
      "type": "node",
      "id": 1473999150,
      "lat": 12.973736,
      "lon": 77.6072937,
      "tags": {
        "amenity": "pub",
        "name": "Pecos",
        "start_date": "1989"
      }
    },
    {
      "type": "node",
      "id": 1473999153,
      "lat": 12.9733561,
      "lon": 77.6074951,
      "tags": {
        "amenity": "fast_food",
        "brand": "McDonald's",
        "brand:pa": "ਮੈਕਡੋਨਲਡ’ਜ਼",
        "brand:ur": "مکڈونلڈز",
        "brand:wikidata": "Q38076",
        "brand:wikipedia": "en:McDonald's",
        "brand:wikipedia:pa": "ਮੈਕਡੋਨਲਡ’ਜ਼",
        "brand:wikipedia:ur": "مکڈونلڈز",
        "cuisine": "burger",
        "name": "McDonald's",
        "name:kn": "ಮ್ಯಾಕ್‌ಡೊನಾಲ್ಡ್ಸ್",
        "name:pa": "ਮੈਕਡੋਨਲਡ’ਜ਼",
        "name:ur": "مکڈونلڈز",
        "takeaway": "yes",
        "wheelchair": "no"
      }
    },
    {
      "type": "node",
      "id": 1474001856,
      "lat": 12.9729633,
      "lon": 77.6086054,
      "tags": {
        "amenity": "restaurant",
        "name": "Purple Haze",
        "name:kn": "ಪರ್ಪಲ್ ಹೆಜ್"
      }
    },
    {
      "type": "node",
      "id": 1474001857,
      "lat": 12.973051,
      "lon": 77.6110437,
      "tags": {
        "amenity": "atm",
        "brand": "ICICI Bank",
        "brand:wikidata": "Q1653258",
        "name": "ICICI Bank",
        "operator": "ICICI Bank",
        "operator:wikidata": "Q1653258",
        "short_name": "ICICI"
      }
    },
    {
      "type": "node",
      "id": 1707859852,
      "lat": 12.9732119,
      "lon": 77.6217398,
      "tags": {
        "amenity": "restaurant",
        "brand": "TGI Fridays",
        "brand:wikidata": "Q1524184",
        "cuisine": "american",
        "name": "TGI Fridays",
        "name:kn": "ಟಜಿಐ ಫ್ರೈಡೇಸ್"
      }
    },
    {
      "type": "node",
      "id": 1725164116,
      "lat": 12.9758374,
      "lon": 77.6147563,
      "tags": {
        "name": "Bhima",
        "name:en": "Bhima",
        "name:kn": "ಭೀಮ",
        "shop": "jewelry"
      }
    },
    {
      "type": "node",
      "id": 1725164124,
      "lat": 12.9759517,
      "lon": 77.6147731,
      "tags": {
        "name": "Panasonic",
        "shop": "electronics"
      }
    },
    {
      "type": "node",
      "id": 1770390302,
      "lat": 12.9715903,
      "lon": 77.6084985,
      "tags": {
        "amenity": "restaurant",
        "diet:vegetarian": "only",
        "name": "Palm Grove",
        "name:kn": "ಪಾಮ್ ಗ್ರೊವ್"
      }
    },
    {
      "type": "node",
      "id": 1809856714,
      "lat": 12.9744138,
      "lon": 77.6095784,
      "tags": {
        "amenity": "cinema",
        "check_date": "2024-08-19",
        "name": "Swagath ShankarNag Chitramandira"
      }
    },
    {
      "type": "node",
      "id": 1809856741,
      "lat": 12.9744491,
      "lon": 77.6143016,
      "tags": {
        "branch": "Jewellary",
        "brand": "Tanishq",
        "brand:en": "Tanishq",
        "brand:wikidata": "Q13117711",
        "level": "0",
        "name": "Tanishq",
        "name:en": "Tanishq",
        "opening_hours": "Mo-Sa 09:50-20:00",
        "shop": "jewelry",
        "wheelchair": "no"
      }
    },
    {
      "type": "node",
      "id": 1851689644,
      "lat": 12.9733898,
      "lon": 77.6072915,
      "tags": {
        "addr:city": "Bengaluru",
        "addr:street": "Brigade Road",
        "addr:suburb": "Ashok Nagar",
        "amenity": "cafe",
        "check_date": "2025-03-09",
        "cuisine": "coffee_shop",
        "name": "Coffee All Day"
      }
    },
    {
      "type": "node",
      "id": 1852668995,
      "lat": 12.9755514,
      "lon": 77.6173581,
      "tags": {
        "shop": "florist"
      }
    },
    {
      "type": "node",
      "id": 1852670707,
      "lat": 12.9758023,
      "lon": 77.6165936,
      "tags": {
        "amenity": "cafe",
        "cuisine": "french",
        "name": "French Loaf"
      }
    },
    {
      "type": "node",
      "id": 1852671127,
      "lat": 12.9758154,
      "lon": 77.616548,
      "tags": {
        "amenity": "restaurant",
        "cuisine": "thai",
        "name": "Benjerong"
      }
    },
    {
      "type": "node",
      "id": 1852671675,
      "lat": 12.9758363,
      "lon": 77.6165158,
      "tags": {
        "amenity": "restaurant",
        "cuisine": "regional",
        "name": "Ente Kerelam",
        "name:kn": "ಎಂಟೆ ಕೇರಳಮ್"
      }
    },
    {
      "type": "node",
      "id": 2188840978,
      "lat": 12.9679393,
      "lon": 77.6074294,
      "tags": {
        "addr:housenumber": "20",
        "addr:street": "Castle Street",
        "amenity": "restaurant",
        "cuisine": "korean",
        "name": "Hae Kum Gang"
      }
    },
    {
      "type": "node",
      "id": 2641818345,
      "lat": 12.9703092,
      "lon": 77.6109836,
      "tags": {
        "addr:city": "Bangalore",
        "addr:housenumber": "8",
        "addr:postcode": "560025",
        "addr:street": "Magrath Road",
        "amenity": "pub",
        "level": "4",
        "microbrewery": "yes",
        "name": "Arbor Brewing Company",
        "opening_hours": "12:00-23:30",
        "phone": "+91 80501 44477",
        "smoking": "outside",
        "website": "https://www.arborbrewing.in/"
      }
    },
    {
      "type": "node",
      "id": 2659801075,
      "lat": 12.970738,
      "lon": 77.6105649,
      "tags": {
        "name": "Abaran Jewelers",
        "shop": "jewelry"
      }
    },
    {
      "type": "node",
      "id": 2868082722,
      "lat": 12.9748217,
      "lon": 77.6145482,
      "tags": {
        "brand": "Bhima Jewellers",
        "brand:wikidata": "Q17004889",
        "name": "Bhima Jewellers",
        "shop": "jewelry"
      }
    },
    {
      "type": "node",
      "id": 2999559155,
      "lat": 12.9722421,
      "lon": 77.6184419,
      "tags": {
        "addr:city": "Bangalore",
        "addr:country": "IN",
        "addr:hamlet": "Craig Park Layout",
        "addr:housename": "Ramanashree Arcade",
        "addr:housenumber": "18",
        "addr:postcode": "560025",
        "addr:street": "MG Road",
        "addr:suburb": "Ashok Nagar",
        "amenity": "restaurant",
        "contact:instagram": "daysie.allday",
        "contact:whatsapp": "+91 89040 85004",
        "level": "0",
        "name": "Daysie",
        "outdoor_seating": "yes",
        "phone": "+91 080 47250 000",
        "website": "https://daysie.in/"
      }
    },
    {
      "type": "node",
      "id": 2999562190,
      "lat": 12.9723821,
      "lon": 77.6185949,
      "tags": {
        "addr:street": "Mahatma Gandhi Road",
        "name": "Big Kids Kemp",
        "shop": "clothes"
      }
    },
    {
      "type": "node",
      "id": 2999562191,
      "lat": 12.9723534,
      "lon": 77.6186861,
      "tags": {
        "addr:street": "Mahatma Gandhi Road",
        "amenity": "bank",
        "name": "EXIM (Export-Import Bank of India)"
      }
    },
    {
      "type": "node",
      "id": 2999619029,
      "lat": 12.9689899,
      "lon": 77.6200161,
      "tags": {
        "addr:street": "Trinity Church Road",
        "name": "Army Canteen",
        "shop": "yes"
      }
    },
    {
      "type": "node",
      "id": 3170021930,
      "lat": 12.9734434,
      "lon": 77.6216713,
      "tags": {
        "name": "Big Bazaar",
        "name:kn": "ಬಿಗ್ ಬಜಾರ್",
        "shop": "supermarket"
      }
    },
    {
      "type": "node",
      "id": 3170025557,
      "lat": 12.9750047,
      "lon": 77.6200027,
      "tags": {
        "amenity": "restaurant",
        "cuisine": "regional",
        "level": "2",
        "name": "Carnival De Goa",
        "name:kn": "ಕಾರ್ನಿವಾಲ್ ಡಿ ಗೋವಾ",
        "smoking": "outside"
      }
    },
    {
      "type": "node",
      "id": 3170038846,
      "lat": 12.9693531,
      "lon": 77.6248085,
      "tags": {
        "name": "Sabu collection",
        "shop": "clothes"
      }
    },
    {
      "type": "node",
      "id": 3170057096,
      "lat": 12.972455,
      "lon": 77.6202099,
      "tags": {
        "brand": "Suzuki",
        "brand:wikidata": "Q181642",
        "name": "Suzuki",
        "name:kn": "ಸುಜುಕಿ",
        "shop": "motorcycle"
      }
    },
    {
      "type": "node",
      "id": 3170057127,
      "lat": 12.9733087,
      "lon": 77.6214181,
      "tags": {
        "amenity": "atm"
      }
    },
    {
      "type": "node",
      "id": 3170060062,
      "lat": 12.9734362,
      "lon": 77.6215884,
      "tags": {
        "amenity": "atm"
      }
    },
    {
      "type": "node",
      "id": 3170060228,
      "lat": 12.9742729,
      "lon": 77.607273,
      "tags": {
        "addr:city": "Bangalore",
        "addr:street": "Church Street",
        "amenity": "restaurant",
        "brand": "Nando's",
        "cuisine": "indian;persian",
        "diet:halal": "yes",
        "name": "Ayda",
        "not:brand:wikidata": "Q3472954"
      }
    },
    {
      "type": "node",
      "id": 3170066310,
      "lat": 12.9731071,
      "lon": 77.6082808,
      "tags": {
        "level": "0,1,2",
        "name": "Sapna Book House",
        "shop": "books"
      }
    },
    {
      "type": "node",
      "id": 3170073596,
      "lat": 12.9740565,
      "lon": 77.609206,
      "tags": {
        "level": "0",
        "name": "KSIC Seconds Showroom",
        "shop": "clothes"
      }
    },
    {
      "type": "node",
      "id": 3292614897,
      "lat": 12.9730022,
      "lon": 77.6173053,
      "tags": {
        "amenity": "fast_food",
        "brand": "Domino's",
        "brand:ks": "ڈومینوز",
        "brand:pa": "ਡੋਮੀਨੋਜ਼",
        "brand:ur": "ڈومینوز",
        "brand:wikidata": "Q839466",
        "brand:wikipedia": "en:Domino's Pizza",
        "cuisine": "pizza",
        "indoor_seating": "yes",
        "name": "Domino's",
        "name:ks": "ڈومینوز",
        "name:pa": "ਡੋਮੀਨੋਜ਼",
        "name:ur": "ڈومینوز",
        "outdoor_seating": "no",
        "takeaway": "yes"
      }
    },
    {
      "type": "node",
      "id": 3292614929,
      "lat": 12.9736204,
      "lon": 77.6155256,
      "tags": {
        "amenity": "bank",
        "atm": "yes",
        "brand": "Citibank",
        "brand:wikidata": "Q857063",
        "name": "Citibank",
        "name:kn": "ಸಿಟಿಬ್ಯಾಂಕ್",
        "short_name": "Citi"
      }
    },
    {
      "type": "node",
      "id": 3292614939,
      "lat": 12.9734322,
      "lon": 77.6204609,
      "tags": {
        "amenity": "ice_cream",
        "brand": "Häagen-Dazs",
        "brand:wikidata": "Q1143333",
        "cuisine": "ice_cream",
        "name": "Häagen-Dazs"
      }
    },
    {
      "type": "node",
      "id": 3323896908,
      "lat": 12.9728628,
      "lon": 77.6074393,
      "tags": {
        "brand": "Nilgiri's",
        "brand:wikidata": "Q17079567",
        "name": "Nilgiri's",
        "name:kn": "ನೀಲ್ಗಿರೀಸ್",
        "shop": "supermarket"
      }
    },
    {
      "type": "node",
      "id": 3323896956,
      "lat": 12.9729398,
      "lon": 77.6085437,
      "tags": {
        "addr:city": "Bangalore",
        "addr:street": "Residency Road",
        "level": "0",
        "name": "Planet Fashion",
        "shop": "clothes"
      }
    },
    {
      "type": "node",
      "id": 3355609489,
      "lat": 12.9745629,
      "lon": 77.6073138,
      "tags": {
        "air_conditioning": "yes",
        "amenity": "cafe",
        "bar": "no",
        "brand": "Starbucks",
        "brand:pa": "ਸਟਾਰਬਕਸ",
        "brand:ur": "اسٹاربکس",
        "brand:wikidata": "Q37158",
        "brand:wikipedia": "en:Starbucks",
        "check_date": "2024-08-19",
        "cuisine": "coffee_shop",
        "delivery": "yes",
        "drive_through": "no",
        "internet_access": "wlan",
        "internet_access:fee": "no",
        "level": "0",
        "name": "Starbucks",
        "name:kn": "ಸ್ಟಾರ್ಬಕ್ಸ್",
        "name:pa": "ਸਟਾਰਬਕਸ",
        "name:ur": "اسٹاربکس",
        "official_name": "Starbucks Coffee",
        "official_name:pa": "ਸਟਾਰਬਕਸ ਕੌਫੀ",
        "official_name:ur": "اسٹاربکس کافی",
        "opening_hours": "PH,Mo-Su 08:00-23:30",
        "outdoor_seating": "no",
        "payment:cash": "yes",
        "payment:mastercard": "yes",
        "payment:visa": "yes",
        "takeaway": "yes",
        "wheelchair": "no"
      }
    },
    {
      "type": "node",
      "id": 3384450215,
      "lat": 12.9728223,
      "lon": 77.6091815,
      "tags": {
        "addr:city": "Bengaluru",
        "addr:housenumber": "454",
        "addr:postcode": "560025",
        "addr:state": "KA",
        "addr:street": "Field Marshal Cariappa Road",
        "air_conditioning": "yes",
        "amenity": "restaurant",
        "baby_feeding": "no",
        "changing_table": "no",
        "check_date": "2024-06-05",
        "cuisine": "indian",
        "diet:vegetarian": "yes",
        "level": "1",
        "name": "Meghana Foods",
        "outdoor_seating": "no",
        "payment:cash": "yes",
        "payment:credit_cards": "yes",
        "payment:debit_cards": "yes",
        "toilets": "yes",
        "toilets:access": "customers",
        "toilets:wheelchair": "no",
        "wheelchair": "no"
      }
    },
    {
      "type": "node",
      "id": 3476877518,
      "lat": 12.9691307,
      "lon": 77.6168652,
      "tags": {
        "amenity": "police",
        "name": "Karnataka State Reserve Police"
      }
    },
    {
      "type": "node",
      "id": 3488721663,
      "lat": 12.972765,
      "lon": 77.6190259,
      "tags": {
        "amenity": "atm",
        "brand": "Bank of Baroda",
        "brand:wikidata": "Q2003797",
        "check_date": "2022-07-03",
        "name": "Bank of Baroda",
        "name:kn": "ವಿಜಯ ಬ್ಯಾಂಕು",
        "operator": "Bank of Baroda",
        "operator:wikidata": "Q2003797"
      }
    },
    {
      "type": "node",
      "id": 3701774141,
      "lat": 12.9735251,
      "lon": 77.6081233,
      "tags": {
        "check_date": "2024-09-06",
        "contact:facebook": "https://www.facebook.com/selectbookshop/",
        "name": "Select Bookshop",
        "opening_hours": "Mo-Sa 11:30-19:00; Su 11:30-18:30",
        "operator": "KSS Murthy",
        "phone": "+91 78298 03202",
        "shop": "books",
        "start_date": "1945"
      }
    },
    {
      "type": "node",
      "id": 3730961535,
      "lat": 12.9739292,
      "lon": 77.6232945,
      "tags": {
        "amenity": "cafe",
        "name": "Kumbakonam Traditional Coffee",
        "name:kn": "ಕುಂಬಕೊಣಂ ಸಂಪ್ರದಾಯಕ ಕಾಫೀ"
      }
    },
    {
      "type": "node",
      "id": 3760131454,
      "lat": 12.9687118,
      "lon": 77.6139361,
      "tags": {
        "amenity": "clinic",
        "name": "Oasis Artificial Kidney Care (P) Ltd",
        "phone": "8971151515, 9886756813"
      }
    },
    {
      "type": "node",
      "id": 3760133043,
      "lat": 12.9729167,
      "lon": 77.6172137,
      "tags": {
        "amenity": "atm",
        "brand": "Yes Bank",
        "brand:wikidata": "Q2040394",
        "layer": "1",
        "level": "1",
        "name": "Yes Bank",
        "operator": "Yes Bank",
        "operator:wikidata": "Q2040394"
      }
    },
    {
      "type": "node",
      "id": 3761073062,
      "lat": 12.9720694,
      "lon": 77.6089097,
      "tags": {
        "addr:city": "Bengaluru",
        "addr:district": "Bangalore Urban",
        "addr:housenumber": "66",
        "addr:postcode": "560025",
        "addr:street": "Residency Road",
        "air_conditioning": "yes",
        "amenity": "restaurant",
        "check_date": "2024-06-06",
        "cuisine": "regional;south_western_coastal",
        "diet:vegetarian": "yes",
        "name": "Karavalli",
        "name:kn": "ಕರಾವಳಿ",
        "opening_hours": "Mo-Su 12:30-15:00,19:00-23:30",
        "outdoor_seating": "yes",
        "payment:cash": "yes",
        "payment:credit_cards": "yes",
        "payment:debit_cards": "yes",
        "phone": "+91- 9620162387",
        "reservation": "yes",
        "wheelchair": "limited"
      }
    },
    {
      "type": "node",
      "id": 3761073063,
      "lat": 12.9728503,
      "lon": 77.6091975,
      "tags": {
        "amenity": "restaurant",
        "check_date": "2024-06-04",
        "level": "0",
        "name": "Udupi Park"
      }
    },
    {
      "type": "node",
      "id": 3761074061,
      "lat": 12.9730522,
      "lon": 77.6085652,
      "tags": {
        "amenity": "bank",
        "brand": "State Bank of India",
        "brand:wikidata": "Q1340361",
        "brand:wikipedia": "en:State Bank of India",
        "level": "1",
        "name": "State Bank of India",
        "name:kn": "ಭಾರತೀಯ ಸ್ಟೇಟ್ ಬ್ಯಾಂಕ್",
        "short_name": "SBI"
      }
    },
    {
      "type": "node",
      "id": 3761074634,
      "lat": 12.97323,
      "lon": 77.609195,
      "tags": {
        "addr:housenumber": "44/1",
        "addr:street": "Residency Road",
        "air_conditioning": "yes",
        "amenity": "restaurant",
        "branch": "Residency",
        "brand": "Nagarjuna",
        "check_date": "2024-12-14",
        "cuisine": "andhra",
        "diet:vegetarian": "yes",
        "internet_access": "no",
        "level": "1",
        "name": "Nagarjuna",
        "name:kn": "ನಾಗಾರ್ಜುನ",
        "payment:cash": "yes",
        "payment:credit_cards": "yes",
        "payment:debit_cards": "yes",
        "phone": "25592233"
      }
    },
    {
      "type": "node",
      "id": 3761085750,
      "lat": 12.9729508,
      "lon": 77.6085761,
      "tags": {
        "amenity": "pub",
        "level": "-1",
        "name": "Down Town Pub",
        "name:kn": "ಡೌನ್ ಟೌನ್ ಪಬ್"
      }
    },
    {
      "type": "node",
      "id": 3761230359,
      "lat": 12.9749935,
      "lon": 77.6199471,
      "tags": {
        "addr:street": "Bhaskaran Road",
        "amenity": "restaurant",
        "cuisine": "mexican",
        "level": "0",
        "name": "The Grill House",
        "name:kn": "ದ ಗ್ರಿಲ್ ಹೌಸ್"
      }
    },
    {
      "type": "node",
      "id": 3776717263,
      "lat": 12.9752131,
      "lon": 77.6086452,
      "tags": {
        "amenity": "atm",
        "brand": "Punjab National Bank",
        "brand:wikidata": "Q2743499",
        "brand:wikipedia": "en:Punjab National Bank",
        "name": "Punjab National Bank",
        "name:kn": "ಪಂಜಾಬ ರಾಷ್ಟ್ರೀಯ ಬ್ಯಾಂಕ್",
        "operator": "Punjab National Bank",
        "operator:wikidata": "Q2743499",
        "operator:wikipedia": "en:Punjab National Bank"
      }
    },
    {
      "type": "node",
      "id": 3785881931,
      "lat": 12.9733286,
      "lon": 77.6167758,
      "tags": {
        "amenity": "bank",
        "atm": "yes",
        "brand": "Axis Bank",
        "brand:wikidata": "Q2003549",
        "brand:wikipedia": "en:Axis Bank",
        "level": "0",
        "name": "Axis Bank",
        "name:en": "Axis Bank",
        "name:kn": "ಅಕ್ಸಿಸ್ ಬ್ಯಾಂಕ್",
        "website": "https://www.axisbank.com"
      }
    },
    {
      "type": "node",
      "id": 3785884026,
      "lat": 12.9731918,
      "lon": 77.6167348,
      "tags": {
        "amenity": "cafe",
        "brand": "Chai Point",
        "brand:wikidata": "Q28173415",
        "check_date": "2024-12-29",
        "cuisine": "coffee_shop",
        "level": "0",
        "name": "Chai Point",
        "outdoor_seating": "no",
        "takeaway": "yes"
      }
    },
    {
      "type": "node",
      "id": 3785884274,
      "lat": 12.9733953,
      "lon": 77.6169631,
      "tags": {
        "amenity": "bank",
        "brand": "Corporation Bank",
        "brand:wikidata": "Q2003387",
        "brand:wikipedia": "en:Corporation Bank",
        "level": "3",
        "name": "Corporation Bank",
        "name:en": "Corporation Bank",
        "name:kn": "ಕಾರ್ಪರೇಷನ್ ಬ್ಯಾಂಕ್",
        "website": "https://corpbank.com/"
      }
    },
    {
      "type": "node",
      "id": 3785903457,
      "lat": 12.9734064,
      "lon": 77.616709,
      "tags": {
        "name": "Orbitz India Services Pvt Ltd.",
        "shop": "travel_agency"
      }
    },
    {
      "type": "node",
      "id": 3785905427,
      "lat": 12.9733651,
      "lon": 77.6164843,
      "tags": {
        "amenity": "bank",
        "atm": "yes",
        "brand": "State Bank of India",
        "brand:wikidata": "Q1340361",
        "brand:wikipedia": "en:State Bank of India",
        "level": "0",
        "name": "State Bank of India",
        "name:kn": "ಭಾರತೀಯ ಸ್ಟೇಟ್ ಬ್ಯಾಂಕ್",
        "short_name": "SBI"
      }
    },
    {
      "type": "node",
      "id": 3785906627,
      "lat": 12.9733842,
      "lon": 77.6163899,
      "tags": {
        "amenity": "restaurant",
        "cuisine": "indian",
        "level": "1",
        "name": "Caesars"
      }
    },
    {
      "type": "node",
      "id": 3785911557,
      "lat": 12.9734064,
      "lon": 77.6163313,
      "tags": {
        "amenity": "bank",
        "atm": "yes",
        "level": "0",
        "name": "Tamil Nadu Marcantile Bank"
      }
    },
    {
      "type": "node",
      "id": 3788574611,
      "lat": 12.9704001,
      "lon": 77.6171095,
      "tags": {
        "amenity": "kindergarten",
        "level": "0",
        "name": "Golden Bead Montessory School",
        "survey:date": "2023-09-23"
      }
    },
    {
      "type": "node",
      "id": 3797611901,
      "lat": 12.9717014,
      "lon": 77.6181421,
      "tags": {
        "access": "permissive",
        "amenity": "parking",
        "fee": "no",
        "name": "Car Parking",
        "parking": "lane",
        "supervised": "no"
      }
    },
    {
      "type": "node",
      "id": 3797611957,
      "lat": 12.9721967,
      "lon": 77.6182668,
      "tags": {
        "amenity": "motorcycle_parking"
      }
    },
    {
      "type": "node",
      "id": 3805426547,
      "lat": 12.9721557,
      "lon": 77.6184858,
      "tags": {
        "amenity": "post_office",
        "name": "Professional Couriers",
        "operator": "Professional Couriers"
      }
    },
    {
      "type": "node",
      "id": 3805440421,
      "lat": 12.9717578,
      "lon": 77.6179225,
      "tags": {
        "amenity": "arts_centre",
        "level": "-1",
        "name": "Indian Cartoon Gallery"
      }
    },
    {
      "type": "node",
      "id": 3805440422,
      "lat": 12.9717578,
      "lon": 77.6179755,
      "tags": {
        "amenity": "bureau_de_change",
        "name": "Forxchange"
      }
    },
    {
      "type": "node",
      "id": 3805493606,
      "lat": 12.9721008,
      "lon": 77.6184589,
      "tags": {
        "amenity": "bank",
        "atm": "no",
        "level": "4",
        "name": "EXIM Bank;Export-Import Bank of India"
      }
    },
    {
      "type": "node",
      "id": 3805499875,
      "lat": 12.9723831,
      "lon": 77.6184938,
      "tags": {
        "amenity": "bank",
        "atm": "no",
        "brand": "Canara Bank",
        "brand:en": "Canara Bank",
        "brand:hi": "केनरा बैंक",
        "brand:kn": "ಕೆನರಾ ಬ್ಯಾಂಕ್",
        "brand:pa": "ਕੇਨਰਾ ਬੈਂਕ",
        "brand:pnb": "کینرا بینک",
        "brand:ur": "کینرا بینک",
        "brand:wikidata": "Q2003777",
        "brand:wikipedia": "en:Canara Bank",
        "brand:wikipedia:pa": "ਕੇਨਰਾ ਬੈਂਕ",
        "level": "3",
        "name": "Canara Bank",
        "name:en": "Canara Bank",
        "name:hi": "केनरा बैंक",
        "name:kn": "ಕೆನರಾ ಬ್ಯಾಂಕ್",
        "name:pa": "ਕੇਨਰਾ ਬੈਂਕ",
        "name:pnb": "کینرا بینک",
        "name:ur": "کینرا بینک",
        "website": "https://www.canarabank.com/"
      }
    },
    {
      "type": "node",
      "id": 3808141555,
      "lat": 12.9739311,
      "lon": 77.6115112,
      "tags": {
        "amenity": "place_of_worship",
        "level": "0",
        "name": "Shri Maha Muneeshwara Temple",
        "religion": "hindu"
      }
    },
    {
      "type": "node",
      "id": 3808148476,
      "lat": 12.9739937,
      "lon": 77.6091888,
      "tags": {
        "level": "3",
        "name": "GIC Housing Finance Ltd.",
        "shop": "money_lender"
      }
    },
    {
      "type": "node",
      "id": 3808148855,
      "lat": 12.9741304,
      "lon": 77.6095504,
      "tags": {
        "amenity": "bank",
        "brand": "State Bank of India",
        "brand:wikidata": "Q1340361",
        "brand:wikipedia": "en:State Bank of India",
        "level": "0",
        "name": "State Bank of India",
        "name:kn": "ಭಾರತೀಯ ಸ್ಟೇಟ್ ಬ್ಯಾಂಕ್",
        "short_name": "SBI",
        "website": "https://www.sbi.co.in"
      }
    },
    {
      "type": "node",
      "id": 3808163238,
      "lat": 12.9740669,
      "lon": 77.6092489,
      "tags": {
        "amenity": "restaurant",
        "cuisine": "chinese",
        "level": "0",
        "name": "Chung Wah",
        "name:kn": "ಚುಂಗ್ ವಾ"
      }
    },
    {
      "type": "node",
      "id": 3808169526,
      "lat": 12.9736712,
      "lon": 77.6093156,
      "tags": {
        "amenity": "ice_cream",
        "brand": "Corner House",
        "delivery": "yes",
        "level": "0",
        "name": "Corner House",
        "operator": "Corner House",
        "takeaway": "yes"
      }
    },
    {
      "type": "node",
      "id": 3808171448,
      "lat": 12.9733555,
      "lon": 77.6093639,
      "tags": {
        "amenity": "pub",
        "level": "0",
        "name": "Narthaki"
      }
    },
    {
      "type": "node",
      "id": 3808171450,
      "lat": 12.9732979,
      "lon": 77.6093585,
      "tags": {
        "amenity": "restaurant",
        "level": "0",
        "name": "Donne Biryani House"
      }
    },
    {
      "type": "node",
      "id": 3808172768,
      "lat": 12.9735202,
      "lon": 77.609472,
      "tags": {
        "access": "yes",
        "amenity": "toilets",
        "fee": "yes",
        "level": "0",
        "operator": "BBMP"
      }
    },
    {
      "type": "node",
      "id": 3808173002,
      "lat": 12.9744098,
      "lon": 77.6094477,
      "tags": {
        "access": "yes",
        "amenity": "motorcycle_parking",
        "covered": "no",
        "fee": "yes",
        "level": "0"
      }
    },
    {
      "type": "node",
      "id": 3808180480,
      "lat": 12.97357,
      "lon": 77.6097223,
      "tags": {
        "amenity": "parking",
        "fee": "yes",
        "level": "-1",
        "name": "Pay and Park",
        "operator": "BBMP",
        "parking": "underground",
        "supervised": "yes"
      }
    },
    {
      "type": "node",
      "id": 3808184784,
      "lat": 12.9732807,
      "lon": 77.6140413,
      "tags": {
        "access": "customers",
        "amenity": "parking",
        "fee": "yes",
        "name": "Visitors Car Parking",
        "parking": "surface"
      }
    },
    {
      "type": "node",
      "id": 3808186286,
      "lat": 12.9739333,
      "lon": 77.6123872,
      "tags": {
        "amenity": "bank",
        "brand:wikidata": "Q5266685",
        "brand:wikipedia": "en:DCB Bank",
        "level": "0,1",
        "name": "DCB Bank",
        "name:en": "DCB Bank",
        "name:kn": "ಡಿಸಿಬಿ ಬ್ಯಾಂಕ್",
        "website": "https://www.dcbbank.com"
      }
    },
    {
      "type": "node",
      "id": 3808203218,
      "lat": 12.9733146,
      "lon": 77.6092125,
      "tags": {
        "amenity": "ice_cream",
        "check_date": "2024-06-06",
        "level": "1",
        "name": "Art of Delight"
      }
    },
    {
      "type": "node",
      "id": 3808206692,
      "lat": 12.9731313,
      "lon": 77.6080088,
      "tags": {
        "amenity": "bank",
        "brand": "State Bank of India",
        "brand:wikidata": "Q1340361",
        "brand:wikipedia": "en:State Bank of India",
        "level": "3",
        "name": "State Bank of India",
        "name:kn": "ಭಾರತೀಯ ಸ್ಟೇಟ್ ಬ್ಯಾಂಕ್",
        "short_name": "SBI"
      }
    },
    {
      "type": "node",
      "id": 3808538485,
      "lat": 12.9729256,
      "lon": 77.6160971,
      "tags": {
        "addr:floor": "G;1",
        "amenity": "bank",
        "brand": "Kotak Mahindra Bank",
        "brand:wikidata": "Q2040404",
        "check_date": "2025-05-20",
        "level": "0;1",
        "name": "Kotak Mahindra Bank",
        "operator": "Kotak Mahindra Bank",
        "operator:wikidata": "Q2040404"
      }
    },
    {
      "type": "node",
      "id": 3808553984,
      "lat": 12.9730752,
      "lon": 77.6155935,
      "tags": {
        "amenity": "bank",
        "brand": "HDFC Bank",
        "brand:wikidata": "Q631047",
        "brand:wikipedia": "en:HDFC Bank",
        "level": "0",
        "name": "HDFC Bank",
        "name:kn": "ಎಚ್ ಡಿ ಎಫ್ ಸಿ",
        "short_name": "HDFC",
        "website": "https://www.hdfcbank.com"
      }
    },
    {
      "type": "node",
      "id": 3808565777,
      "lat": 12.9731241,
      "lon": 77.6136623,
      "tags": {
        "amenity": "bank",
        "brand": "Deutsche Bank",
        "brand:wikidata": "Q66048",
        "level": "0;2-3",
        "name": "Deutsche Bank"
      }
    },
    {
      "type": "node",
      "id": 3808565778,
      "lat": 12.9732234,
      "lon": 77.6137669,
      "tags": {
        "amenity": "bank",
        "brand": "Standard Chartered",
        "brand:wikidata": "Q548278",
        "level": "0;6",
        "name": "Standard Chartered",
        "name:kn": "ಸ್ಟಾಂಡರ್ಡ್ ಚಾರ್ಟರ್ಡ್"
      }
    },
    {
      "type": "node",
      "id": 3808573610,
      "lat": 12.9733488,
      "lon": 77.6136783,
      "tags": {
        "amenity": "bank",
        "brand": "Kotak Mahindra Bank",
        "brand:wikidata": "Q2040404",
        "brand:wikipedia": "en:Kotak Mahindra Bank",
        "level": "5",
        "name": "Kotak Mahindra Bank",
        "name:en": "Kotak Mahindra Bank",
        "name:kn": "ಕೋಟಕ್ ಮಹಿಂದ್ರ ಬ್ಯಾಂಕ್",
        "website": "http://www.kotak.com"
      }
    },
    {
      "type": "node",
      "id": 3808585051,
      "lat": 12.9732887,
      "lon": 77.6137025,
      "tags": {
        "amenity": "coworking_space",
        "branch": "Business Centre",
        "brand": "Regus",
        "brand:wikidata": "Q761072",
        "level": "9",
        "name": "Regus",
        "office": "coworking"
      }
    },
    {
      "type": "node",
      "id": 3808589488,
      "lat": 12.9733619,
      "lon": 77.6137669,
      "tags": {
        "amenity": "coworking_space",
        "level": "10",
        "name": "Quest Offices",
        "office": "yes"
      }
    },
    {
      "type": "node",
      "id": 3808590529,
      "lat": 12.9733462,
      "lon": 77.6138259,
      "tags": {
        "amenity": "coworking_space",
        "level": "10",
        "name": "Muzammil Business Centre",
        "office": "yes"
      }
    },
    {
      "type": "node",
      "id": 3808614236,
      "lat": 12.9728784,
      "lon": 77.6138634,
      "tags": {
        "amenity": "bank",
        "brand": "Standard Chartered",
        "brand:wikidata": "Q548278",
        "level": "0,2,3",
        "name": "Standard Chartered",
        "name:kn": "ಸ್ಟಾಂಡರ್ಡ್ ಚಾರ್ಟರ್ಡ್"
      }
    },
    {
      "type": "node",
      "id": 3808614237,
      "lat": 12.9729672,
      "lon": 77.6138822,
      "tags": {
        "amenity": "coworking_space",
        "branch": "Business Centre",
        "brand": "Regus",
        "brand:wikidata": "Q761072",
        "level": "9",
        "name": "Regus",
        "office": "coworking"
      }
    },
    {
      "type": "node",
      "id": 3808615267,
      "lat": 12.9728784,
      "lon": 77.6139761,
      "tags": {
        "amenity": "coworking_space",
        "level": "10",
        "name": "Quest Offices",
        "office": "yes"
      }
    },
    {
      "type": "node",
      "id": 3808615268,
      "lat": 12.9727947,
      "lon": 77.6139761,
      "tags": {
        "amenity": "coworking_space",
        "level": "10",
        "name": "Muzammil Business Centre",
        "office": "yes"
      }
    },
    {
      "type": "node",
      "id": 3808615938,
      "lat": 12.972813,
      "lon": 77.6138715,
      "tags": {
        "amenity": "bank",
        "branch": "Zonal Office",
        "brand": "Punjab National Bank",
        "brand:wikidata": "Q2743499",
        "level": "1",
        "name": "Punjab National Bank",
        "name:kn": "ಪಂಜಾಬ ರಾಷ್ಟ್ರೀಯ ಬ್ಯಾಂಕ್"
      }
    },
    {
      "type": "node",
      "id": 3808617598,
      "lat": 12.972881,
      "lon": 77.6139332,
      "tags": {
        "amenity": "bank",
        "branch": "Circle Office",
        "brand": "Indian Bank",
        "brand:wikidata": "Q2003789",
        "level": "4",
        "name": "Indian Bank"
      }
    },
    {
      "type": "node",
      "id": 3810662311,
      "lat": 12.9718803,
      "lon": 77.6180899,
      "tags": {
        "name": "India Cements Capital Limited",
        "shop": "travel_agency"
      }
    },
    {
      "type": "node",
      "id": 3815215349,
      "lat": 12.9721211,
      "lon": 77.6078577,
      "tags": {
        "brand": "Samsonite",
        "brand:wikidata": "Q1203426",
        "level": "0",
        "name": "Samsonite",
        "shop": "bag"
      }
    },
    {
      "type": "node",
      "id": 3815215350,
      "lat": 12.972091,
      "lon": 77.6077959,
      "tags": {
        "level": "0",
        "name": "Colorplus",
        "shop": "clothes"
      }
    },
    {
      "type": "node",
      "id": 3815215351,
      "lat": 12.9721037,
      "lon": 77.6078626,
      "tags": {
        "amenity": "pub",
        "level": "1",
        "name": "Baywatch",
        "name:kn": "ಬೇ ವಾಚ್"
      }
    },
    {
      "type": "node",
      "id": 3815215352,
      "lat": 12.9720624,
      "lon": 77.6078121,
      "tags": {
        "level": "-1",
        "name": "Check In",
        "shop": "clothes"
      }
    },
    {
      "type": "node",
      "id": 3819250513,
      "lat": 12.9672647,
      "lon": 77.6090629,
      "tags": {
        "amenity": "restaurant",
        "level": "0",
        "name": "Empire",
        "name:kn": "ಎಂಪೈರ್"
      }
    },
    {
      "type": "node",
      "id": 3819252973,
      "lat": 12.9668201,
      "lon": 77.6091407,
      "tags": {
        "leisure": "fitness_centre",
        "level": "1",
        "name": "Chisel"
      }
    },
    {
      "type": "node",
      "id": 3819327680,
      "lat": 12.9744631,
      "lon": 77.6075842,
      "tags": {
        "branch": "Showroom",
        "brand": "Nike",
        "brand:wikidata": "Q483915",
        "brand:wikipedia": "en:Nike, Inc.",
        "level": "0,1",
        "name": "Nike",
        "shop": "clothes"
      }
    },
    {
      "type": "node",
      "id": 3820249093,
      "lat": 12.9735781,
      "lon": 77.6135363,
      "tags": {
        "amenity": "bank",
        "brand": "IndusInd Bank",
        "brand:wikidata": "Q2040323",
        "brand:wikipedia": "en:IndusInd Bank",
        "level": "0",
        "name": "IndusInd Bank",
        "name:en": "IndusInd Bank",
        "name:kn": "ಇಂಡಸ್ಇಂಡ್ ಬ್ಯಾಂಕ್",
        "website": "https://www.indusind.com"
      }
    },
    {
      "type": "node",
      "id": 3820249094,
      "lat": 12.9736722,
      "lon": 77.6131796,
      "tags": {
        "amenity": "restaurant",
        "level": "0,1",
        "name": "Tandoor"
      }
    },
    {
      "type": "node",
      "id": 3820249100,
      "lat": 12.973633,
      "lon": 77.6131796,
      "tags": {
        "amenity": "bank",
        "brand": "IndusInd Bank",
        "brand:wikidata": "Q2040323",
        "brand:wikipedia": "en:IndusInd Bank",
        "level": "5",
        "name": "IndusInd Bank",
        "name:en": "IndusInd Bank",
        "name:kn": "ಇಂಡಸ್ಇಂಡ್",
        "website": "https://www.indusind.com"
      }
    },
    {
      "type": "node",
      "id": 3820249102,
      "lat": 12.9736382,
      "lon": 77.6131447,
      "tags": {
        "amenity": "bank",
        "brand": "Punjab National Bank",
        "brand:wikidata": "Q2743499",
        "level": "2",
        "name": "Punjab National Bank",
        "name:en": "Punjab National Bank",
        "name:kn": "ಪಂಜಾಬ ರಾಷ್ಟ್ರೀಯ ಬ್ಯಾಂಕ್",
        "short_name": "PNB",
        "website": "https://www.pnbindia.in"
      }
    },
    {
      "type": "node",
      "id": 3844286515,
      "lat": 12.9727193,
      "lon": 77.6171973,
      "tags": {
        "amenity": "bicycle_rental",
        "bicycle_rental": "dropoff_point",
        "level": "0"
      }
    },
    {
      "type": "node",
      "id": 3844308317,
      "lat": 12.9730853,
      "lon": 77.6154726,
      "tags": {
        "level": "-1",
        "name": "Kairali",
        "shop": "handicraft"
      }
    },
    {
      "type": "node",
      "id": 3844308318,
      "lat": 12.9730696,
      "lon": 77.6154861,
      "tags": {
        "level": "0",
        "name": "Central Cottage Industries Corporation Of India Ltd",
        "shop": "handicraft"
      }
    },
    {
      "type": "node",
      "id": 3844308319,
      "lat": 12.9730644,
      "lon": 77.6155317,
      "tags": {
        "amenity": "bank",
        "brand": "HDFC Bank",
        "brand:wikidata": "Q631047",
        "level": "-1",
        "name": "HDFC Bank",
        "short_name": "HDFC"
      }
    },
    {
      "type": "node",
      "id": 3844315071,
      "lat": 12.9730539,
      "lon": 77.6156282,
      "tags": {
        "level": "-1",
        "name": "VH Gems and Jewels",
        "shop": "jewelry"
      }
    },
    {
      "type": "node",
      "id": 3844324660,
      "lat": 12.9743706,
      "lon": 77.6143537,
      "tags": {
        "level": "0",
        "name": "Kovi Shop",
        "opening_hours": "Mo-Sa 10:00-18:00",
        "shop": "Gun_dealers"
      }
    },
    {
      "type": "node",
      "id": 3844324661,
      "lat": 12.9744925,
      "lon": 77.6143949,
      "tags": {
        "level": "0",
        "name": "Kings Way Travel Pvt Ltd",
        "shop": "travel_agency"
      }
    },
    {
      "type": "node",
      "id": 3844336215,
      "lat": 12.9743829,
      "lon": 77.6150015,
      "tags": {
        "level": "0",
        "name": "CLS Book Shop",
        "opening_hours": "Mo-Su 09:00-20:00",
        "shop": "books"
      }
    },
    {
      "type": "node",
      "id": 3846349182,
      "lat": 12.9747756,
      "lon": 77.6151783,
      "tags": {
        "amenity": "post_office",
        "level": "0",
        "name": "Shree Maruti Courier",
        "operator": "Shree Maruti Courier"
      }
    },
    {
      "type": "node",
      "id": 3846361459,
      "lat": 12.9752032,
      "lon": 77.6147572,
      "tags": {
        "amenity": "atm",
        "brand": "Citibank",
        "brand:wikidata": "Q857063",
        "level": "0",
        "name": "Citibank",
        "name:kn": "ಸಿಟಿಬ್ಯಾಂಕ್",
        "operator": "Citibank",
        "operator:wikidata": "Q857063",
        "short_name": "Citi"
      }
    },
    {
      "type": "node",
      "id": 3846361461,
      "lat": 12.9751927,
      "lon": 77.614784,
      "tags": {
        "amenity": "bank",
        "brand": "Allahabad Bank",
        "brand:wikidata": "Q2018840",
        "brand:wikipedia": "en:Allahabad Bank",
        "level": "1",
        "name": "Allahabad Bank",
        "name:en": "Allahabad Bank",
        "name:kn": "ಅಲಹಾಬಾದ್ ಬ್ಯಾಂಕ",
        "website": "https://www.allahabadbank.in"
      }
    },
    {
      "type": "node",
      "id": 3846361464,
      "lat": 12.9751587,
      "lon": 77.6148698,
      "tags": {
        "amenity": "bank",
        "brand": "Syndicate Bank",
        "brand:wikidata": "Q2004088",
        "level": "1",
        "name": "Syndicate Bank",
        "name:kn": "ಸಿಂಡಿಕೇಟ್ ಬ್ಯಾಂಕ್"
      }
    },
    {
      "type": "node",
      "id": 3846361465,
      "lat": 12.9751475,
      "lon": 77.614911,
      "tags": {
        "level": "0",
        "name": "Sears Travels",
        "shop": "travel_agency"
      }
    },
    {
      "type": "node",
      "id": 3846361466,
      "lat": 12.9751457,
      "lon": 77.6148806,
      "tags": {
        "amenity": "fast_food",
        "cuisine": "snacks",
        "level": "0",
        "name": "Bhaiya Ji Food Court"
      }
    },
    {
      "type": "node",
      "id": 3846361467,
      "lat": 12.9751333,
      "lon": 77.6149534,
      "tags": {
        "amenity": "fast_food",
        "level": "1",
        "name": "Vibhas"
      }
    },
    {
      "type": "node",
      "id": 3846361468,
      "lat": 12.9751349,
      "lon": 77.6149697,
      "tags": {
        "amenity": "fast_food",
        "level": "0",
        "name": "MumbaiStyle"
      }
    },
    {
      "type": "node",
      "id": 3846365180,
      "lat": 12.9750968,
      "lon": 77.6150804,
      "tags": {
        "level": "1",
        "name": "Page3",
        "shop": "books"
      }
    },
    {
      "type": "node",
      "id": 3846365181,
      "lat": 12.975092,
      "lon": 77.6151016,
      "tags": {
        "amenity": "bureau_de_change",
        "level": "0",
        "name": "UAE XChange"
      }
    },
    {
      "type": "node",
      "id": 3846365474,
      "lat": 12.9750841,
      "lon": 77.615139,
      "tags": {
        "amenity": "toilets",
        "level": "1",
        "male": "yes",
        "name": "Gents Toilet"
      }
    },
    {
      "type": "node",
      "id": 3846368540,
      "lat": 12.9748952,
      "lon": 77.6153654,
      "tags": {
        "amenity": "restaurant",
        "level": "5",
        "name": "Paparazzi"
      }
    },
    {
      "type": "node",
      "id": 3846368541,
      "lat": 12.9748429,
      "lon": 77.6153686,
      "tags": {
        "amenity": "cafe",
        "name": "Pinxx"
      }
    },
    {
      "type": "node",
      "id": 3862580459,
      "lat": 12.9736889,
      "lon": 77.6112977,
      "tags": {
        "amenity": "cafe",
        "brand": "Cafe Coffee Day",
        "brand:wikidata": "Q5017235",
        "cuisine": "coffee_shop",
        "level": "0",
        "name": "Cafe Coffee Day",
        "name:kn": "ಕಫೆ ಕಾಫಿ ಡೇ",
        "takeaway": "yes"
      }
    },
    {
      "type": "node",
      "id": 4121454427,
      "lat": 12.9748439,
      "lon": 77.6083535,
      "tags": {
        "amenity": "atm",
        "brand": "Kotak Mahindra Bank",
        "brand:wikidata": "Q2040404",
        "check_date": "2021-12-05",
        "name": "Kotak Mahindra Bank",
        "name:kn": "ಕೋಟಕ್ ಮಹಿಂದ್ರ",
        "operator": "Kotak Mahindra Bank",
        "operator:wikidata": "Q2040404"
      }
    },
    {
      "type": "node",
      "id": 4121469882,
      "lat": 12.9750054,
      "lon": 77.6076001,
      "tags": {
        "brand": "Pantaloons",
        "brand:wikidata": "Q7131643",
        "check_date": "2024-07-28",
        "name": "Vijayalakshmi Silks",
        "name:en": "Vijayalakshmi Silks",
        "shop": "clothes"
      }
    },
    {
      "type": "node",
      "id": 4294260125,
      "lat": 12.9718911,
      "lon": 77.6066836,
      "tags": {
        "amenity": "restaurant",
        "diet:vegetarian": "only",
        "name": "Chariot"
      }
    },
    {
      "type": "node",
      "id": 4294260126,
      "lat": 12.9720568,
      "lon": 77.6067921,
      "tags": {
        "alt_name": "Dunkin' Donuts",
        "amenity": "fast_food",
        "brand": "Dunkin'",
        "brand:wikidata": "Q847743",
        "cuisine": "donut;coffee_shop",
        "level": "0",
        "name": "Dunkin'",
        "shop": "bakery",
        "takeaway": "yes"
      }
    },
    {
      "type": "node",
      "id": 4294261081,
      "lat": 12.9722398,
      "lon": 77.6068828,
      "tags": {
        "check_date": "2023-12-30",
        "level": "0",
        "name": "Tibet Bazaar",
        "shop": "clothes"
      }
    },
    {
      "type": "node",
      "id": 4307589728,
      "lat": 12.9652475,
      "lon": 77.6099699,
      "tags": {
        "amenity": "post_office",
        "brand": "Desk to Desk Courier & Cargo",
        "brand:short": "DTDC",
        "brand:wikidata": "Q55608802",
        "name": "DTDC",
        "operator": "Desk to Desk Courier & Cargo",
        "operator:short": "DTDC",
        "operator:wikidata": "Q55608802"
      }
    },
    {
      "type": "node",
      "id": 4307608188,
      "lat": 12.9728321,
      "lon": 77.6111241,
      "tags": {
        "amenity": "bank",
        "atm": "yes",
        "brand": "ICICI Bank",
        "brand:wikidata": "Q1653258",
        "name": "ICICI Bank",
        "name:en": "ICICI Bank",
        "name:kn": "ಐಸಿಐಸಿಐ ಬ್ಯಾಂಕು",
        "short_name": "ICICI",
        "website": "https://www.icicibank.com"
      }
    },
    {
      "type": "node",
      "id": 4310173692,
      "lat": 12.9664529,
      "lon": 77.6093326,
      "tags": {
        "name": "Sacred Heart Church Religious Stall",
        "shop": "books"
      }
    },
    {
      "type": "node",
      "id": 4314330392,
      "lat": 12.966707,
      "lon": 77.6118198,
      "tags": {
        "name": "Homecentre",
        "shop": "department_store"
      }
    },
    {
      "type": "node",
      "id": 4314392990,
      "lat": 12.9665522,
      "lon": 77.6127824,
      "tags": {
        "addr:city": "Bengaluru",
        "addr:country": "IN",
        "addr:housenumber": "33/12",
        "addr:postcode": "560047",
        "addr:street": "Victoria Road",
        "name": "Artefacts",
        "shop": "gift"
      }
    },
    {
      "type": "node",
      "id": 4440837939,
      "lat": 12.9743668,
      "lon": 77.6071761,
      "tags": {
        "addr:street": "Church street",
        "amenity": "restaurant",
        "name": "Wolfish"
      }
    },
    {
      "type": "node",
      "id": 4443302069,
      "lat": 12.9703171,
      "lon": 77.6096478,
      "tags": {
        "addr:city": "Bangalore",
        "addr:housenumber": "15, Magrath Rd, Ashok Nagar, Bengaluru,",
        "addr:postcode": "560025",
        "addr:street": "Magrath Road",
        "brand": "Westside",
        "name": "Westside",
        "opening_hours": "10:00-22:00",
        "phone": "8066641230",
        "shop": "clothes",
        "website": "https://www.mywestside.com"
      }
    },
    {
      "type": "node",
      "id": 4443310734,
      "lat": 12.9702937,
      "lon": 77.6097845,
      "tags": {
        "addr:city": "Bangalore",
        "addr:housenumber": "Ashok Nagar",
        "addr:postcode": "560025",
        "addr:street": "15 Magrath Road",
        "name": "Wiliam Penn",
        "opening_hours": "10:00-22:00",
        "phone": "08041127993",
        "shop": "stationery",
        "website": "https://www.williampenn.net/"
      }
    },
    {
      "type": "node",
      "id": 4443313643,
      "lat": 12.970278,
      "lon": 77.6098784,
      "tags": {
        "addr:city": "Bangalore",
        "addr:housenumber": "Magrath Rd, Ashok Nagar, Bengaluru,",
        "addr:postcode": "560025",
        "addr:street": "Magrath Road",
        "name": "CIS",
        "opening_hours": "10:00-21:00",
        "shop": "shoes"
      }
    },
    {
      "type": "node",
      "id": 4443381445,
      "lat": 12.9700844,
      "lon": 77.6095781,
      "tags": {
        "addr:city": "Bangalore",
        "addr:housenumber": "Ashok Naga",
        "addr:postcode": "560025",
        "addr:street": "Magrath Road",
        "name": "Sunglass Hot",
        "opening_hours": "10:00-22:00",
        "phone": "8040698857",
        "shop": "optician",
        "website": "https://garudamall.in/"
      }
    },
    {
      "type": "node",
      "id": 4443385011,
      "lat": 12.9701797,
      "lon": 77.6095278,
      "tags": {
        "addr:city": "Bangalore",
        "addr:housenumber": "15  Ashok Nagar",
        "addr:postcode": "560025",
        "addr:street": "Magrath Road",
        "name": "Sands",
        "opening_hours": "10:00-21:00",
        "phone": "8040954128",
        "shop": "cosmetics",
        "website": "https://sandsoapaholics.com/"
      }
    },
    {
      "type": "node",
      "id": 4443389075,
      "lat": 12.9702333,
      "lon": 77.6098322,
      "tags": {
        "addr:city": "Bangalore",
        "addr:housenumber": "Ashok Nagar,",
        "addr:postcode": "560025",
        "addr:street": "Magrath Road",
        "amenity": "atm",
        "brand": "Citibank",
        "brand:wikidata": "Q857063",
        "currency:INR": "yes",
        "level": "0",
        "name": "Citibank",
        "name:kn": "ಸಿಟಿಬ್ಯಾಂಕ್",
        "operator": "Citibank",
        "operator:wikidata": "Q857063",
        "short_name": "Citi"
      }
    },
    {
      "type": "node",
      "id": 4443392689,
      "lat": 12.9703117,
      "lon": 77.6094111,
      "tags": {
        "addr:city": "Bangalore",
        "addr:housenumber": "Ashoknagar",
        "addr:postcode": "560025",
        "addr:street": "Magrath Road",
        "name": "Cookie Man",
        "opening_hours": "10:00-23:00",
        "shop": "bakery"
      }
    },
    {
      "type": "node",
      "id": 4443393191,
      "lat": 12.9702202,
      "lon": 77.6097061,
      "tags": {
        "addr:city": "Bangalore",
        "addr:housenumber": "14 Ashoknagar",
        "addr:postcode": "560025",
        "addr:street": "Magrath Road",
        "brand": "Inglot",
        "brand:wikidata": "Q5420712",
        "level": "0",
        "name": "Inglot",
        "opening_hours": "10:00-21:00",
        "phone": "8040698857",
        "shop": "cosmetics",
        "website": "https://inglotcosmetics.com/"
      }
    },
    {
      "type": "node",
      "id": 4443393194,
      "lat": 12.9701575,
      "lon": 77.6097866,
      "tags": {
        "addr:city": "Bangalore",
        "addr:housenumber": "Ashoknagar",
        "addr:postcode": "560025",
        "addr:street": "Magrath Road",
        "name": "Colourbar U.S.A",
        "opening_hours": "10:00-21:00",
        "phone": "8041132837",
        "shop": "cosmetics",
        "website": "https://www.colorbarcosmetics.com/"
      }
    },
    {
      "type": "node",
      "id": 4443807475,
      "lat": 12.9703327,
      "lon": 77.6095057,
      "tags": {
        "addr:city": "Bangalore",
        "addr:housenumber": "Ashoknagar",
        "addr:postcode": "560025",
        "addr:street": "Magrath Road",
        "name": "Clarie's",
        "opening_hours": "10:00-21:00",
        "phone": "8040698857",
        "shop": "clothes",
        "website": "https://garudamall.in/"
      }
    },
    {
      "type": "node",
      "id": 4443813176,
      "lat": 12.970236,
      "lon": 77.609898,
      "tags": {
        "addr:city": "Bangalore",
        "addr:housenumber": "Ashoknagar",
        "addr:postcode": "560025",
        "addr:street": "Magrath Road",
        "brand": "Levi's",
        "brand:wikidata": "Q127962",
        "clothes": "denim;men;women",
        "name": "Levi's",
        "opening_hours": "10:00-22:00",
        "phone": "099085 86325",
        "shop": "clothes",
        "website": "https://www.levi.in/"
      }
    },
    {
      "type": "node",
      "id": 4443817651,
      "lat": 12.9701263,
      "lon": 77.6094581,
      "tags": {
        "addr:city": "Bangalore",
        "addr:housenumber": "Ashoknagar",
        "addr:postcode": "560025",
        "addr:street": "Magrath Road",
        "branch": "Junior",
        "brand": "Tommy Hilfiger",
        "brand:wikidata": "Q634881",
        "name": "Tommy Hilfiger",
        "opening_hours": "10:00-22:00",
        "phone": "8041573443",
        "shop": "clothes",
        "website": "https://global.tommy.com/"
      }
    },
    {
      "type": "node",
      "id": 4443848741,
      "lat": 12.9700765,
      "lon": 77.6100428,
      "tags": {
        "addr:city": "Bangalore",
        "addr:housenumber": "15",
        "addr:postcode": "560025",
        "addr:street": "Magrath Road",
        "name": "Accessorize",
        "phone": "8041511639",
        "shop": "fashion",
        "website": "https://bangalore.mallsmarket.com/malls/garuda-mall-magrath-road-ashok-nagar/stores/accessorize"
      }
    },
    {
      "type": "node",
      "id": 4443875708,
      "lat": 12.9703373,
      "lon": 77.6095755,
      "tags": {
        "addr:city": "Bangalore",
        "addr:housenumber": "Ashoknagar",
        "addr:postcode": "560025",
        "addr:street": "Magrath Road",
        "name": "Arrow",
        "opening_hours": "10:00-22:00",
        "phone": "8041658804",
        "shop": "clothes",
        "website": "http://www.arrowlife.com"
      }
    },
    {
      "type": "node",
      "id": 4443882400,
      "lat": 12.9702752,
      "lon": 77.6096767,
      "tags": {
        "addr:city": "Bangalore",
        "addr:housenumber": "Ashoknagar",
        "addr:postcode": "560025",
        "addr:street": "Magrath Road",
        "brand": "Hidesign",
        "brand:wikidata": "Q5752690",
        "name": "Hidesign",
        "opening_hours": "10:00-22:00",
        "phone": "089511 52479",
        "shop": "leather",
        "website": "https://hidesign.com/store"
      }
    },
    {
      "type": "node",
      "id": 4443884115,
      "lat": 12.9702596,
      "lon": 77.6096405,
      "tags": {
        "addr:city": "Bangalore",
        "addr:housenumber": "Ashoknagar",
        "addr:postcode": "560025",
        "addr:street": "Magrath Road",
        "brand": "Nike",
        "brand:wikidata": "Q483915",
        "name": "Nike",
        "name:kn": "ನೈಕ್",
        "opening_hours": "10:00-22:00",
        "phone": "080 4175 1839",
        "shop": "clothes",
        "website": "https://www.nike.com/in/"
      }
    },
    {
      "type": "node",
      "id": 4443896277,
      "lat": 12.9703347,
      "lon": 77.6093582,
      "tags": {
        "addr:city": "Bangalore",
        "addr:housenumber": "Ashoknagar",
        "addr:postcode": "560025",
        "addr:street": "Magrath Road",
        "amenity": "atm",
        "brand": "HSBC",
        "brand:wikidata": "Q190464",
        "currency:INR": "yes",
        "drive_through": "no",
        "name": "HSBC",
        "name:kn": "ಎಚ್ ಎಸ್ ಬೀ ಸೀ",
        "operator": "HSBC",
        "operator:wikidata": "Q190464"
      }
    },
    {
      "type": "node",
      "id": 4443900658,
      "lat": 12.9703105,
      "lon": 77.6093743,
      "tags": {
        "addr:city": "Bangalore",
        "addr:housenumber": "Ashoknagar",
        "addr:postcode": "560025",
        "addr:street": "Magrath Road",
        "name": "Estee Lauder",
        "opening_hours": "10:00-22:00",
        "phone": "8040698857",
        "shop": "clothes",
        "website": "https://garudamall.in/"
      }
    },
    {
      "type": "node",
      "id": 4443909531,
      "lat": 12.9702183,
      "lon": 77.6099621,
      "tags": {
        "addr:city": "Bangalore",
        "addr:housenumber": "Ashoknagar",
        "addr:postcode": "560025",
        "addr:street": "Magrath Road",
        "name": "ShopperStop",
        "opening_hours": "10:00-22:00",
        "phone": "08043401317",
        "shop": "clothes",
        "website": "https://www.shoppersstop.com"
      }
    },
    {
      "type": "node",
      "id": 4443910583,
      "lat": 12.9701765,
      "lon": 77.6097046,
      "tags": {
        "addr:city": "Bangalore",
        "addr:housenumber": "Ashoknagar",
        "addr:postcode": "560025",
        "addr:street": "Magrath Road",
        "brand": "Mothercare",
        "brand:wikidata": "Q136738",
        "name": "Mothercare",
        "opening_hours": "10:00-22:00",
        "phone": "8040698857",
        "shop": "baby_goods",
        "website": "https://garudamall.in/"
      }
    },
    {
      "type": "node",
      "id": 4443914479,
      "lat": 12.9701425,
      "lon": 77.6099031,
      "tags": {
        "addr:city": "Bangalore",
        "addr:housenumber": "Ashoknagar",
        "addr:postcode": "560025",
        "addr:street": "Magrath Road",
        "name": "Mustard",
        "opening_hours": "10:00-22:00",
        "phone": "080 4111 3391",
        "shop": "clothes",
        "website": "https://www.mustardfashion.com/"
      }
    },
    {
      "type": "node",
      "id": 4443915322,
      "lat": 12.9701608,
      "lon": 77.6098414,
      "tags": {
        "addr:city": "Bangalore",
        "addr:housenumber": "Ashoknagar",
        "addr:postcode": "560025",
        "addr:street": "Magrath Road",
        "name": "SteveMaden",
        "opening_hours": "10:00-22:00",
        "phone": "8040698857",
        "shop": "clothes",
        "website": "https://www.stevemadden.in/"
      }
    },
    {
      "type": "node",
      "id": 4443917144,
      "lat": 12.9701216,
      "lon": 77.6095142,
      "tags": {
        "addr:city": "Bangalore",
        "addr:housenumber": "Ashoknagar",
        "addr:postcode": "560025",
        "addr:street": "Magrath Road",
        "name": "Forever",
        "opening_hours": "10:00-22:00",
        "phone": "080 4110 4473",
        "shop": "clothes",
        "website": "https://bangalore.mallsmarket.com/malls/garuda-mall-magrath-road-ashok-nagar/stores/forever-21"
      }
    },
    {
      "type": "node",
      "id": 4443921704,
      "lat": 12.9702627,
      "lon": 77.6093988,
      "tags": {
        "addr:city": "Bangalore",
        "addr:housenumber": "Ashoknagar",
        "addr:postcode": "560025",
        "addr:street": "Magrath Road",
        "name": "Swarovski",
        "opening_hours": "10:00-22:00",
        "phone": "080666 41088",
        "shop": "clothes",
        "website": "https://garudamall.in/"
      }
    },
    {
      "type": "node",
      "id": 4443925167,
      "lat": 12.9701373,
      "lon": 77.6096402,
      "tags": {
        "addr:city": "Bangalore",
        "addr:housenumber": "Ashoknagar",
        "addr:postcode": "560025",
        "addr:street": "Magrath Road",
        "brand": "U.S. Polo Assn.",
        "brand:wikidata": "Q7863282",
        "name": "U.S. Polo Assn.",
        "opening_hours": "10:00-22:00",
        "phone": "8040698857",
        "shop": "clothes",
        "website": "https://garudamall.in/"
      }
    },
    {
      "type": "node",
      "id": 4443926029,
      "lat": 12.9700719,
      "lon": 77.6095008,
      "tags": {
        "addr:city": "Bangalore",
        "addr:housenumber": "Ashoknagar",
        "addr:postcode": "560025",
        "addr:street": "Magrath Road",
        "brand": "Adidas",
        "brand:wikidata": "Q3895",
        "name": "Adidas",
        "name:kn": "ಅಡಿಡಾಸ್",
        "opening_hours": "10:00-22:00",
        "phone": "080 4171 2312",
        "shop": "sports",
        "website": "https://www.adidas.co.in/"
      }
    },
    {
      "type": "node",
      "id": 4443928886,
      "lat": 12.9701111,
      "lon": 77.609651,
      "tags": {
        "addr:city": "Bangalore",
        "addr:housenumber": "Ashoknagar",
        "addr:postcode": "560025",
        "addr:street": "Magrath Road",
        "brand": "Allen Solly",
        "brand:wikidata": "Q110036995",
        "name": "Allen Solly",
        "name:kn": "ಅಲೆನ್ ಸೊಲಿ",
        "opening_hours": "10:00-22:00",
        "phone": "080 4107 6734",
        "shop": "clothes",
        "website": "https://www.allensolly.com"
      }
    },
    {
      "type": "node",
      "id": 4443933016,
      "lat": 12.9702366,
      "lon": 77.6094525,
      "tags": {
        "addr:city": "Bangalore",
        "addr:housenumber": "Ashoknagar",
        "addr:postcode": "560025",
        "addr:street": "Magrath Road",
        "name": "Women(POI)",
        "opening_hours": "10:00-22:00",
        "phone": "8040698857",
        "shop": "clothes"
      }
    },
    {
      "type": "node",
      "id": 4443943352,
      "lat": 12.9702157,
      "lon": 77.609592,
      "tags": {
        "addr:city": "Bangalore",
        "addr:housenumber": "Ashoknagar",
        "addr:postcode": "560025",
        "addr:street": "Magrath Road",
        "name": "Chemistry",
        "opening_hours": "10:00-22:00",
        "phone": "8040698857",
        "shop": "clothes",
        "website": "https://chemistryindia.com/"
      }
    },
    {
      "type": "node",
      "id": 4443944541,
      "lat": 12.970268,
      "lon": 77.6095115,
      "tags": {
        "addr:city": "Bangalore",
        "addr:housenumber": "Ashoknagar",
        "addr:postcode": "560025",
        "addr:street": "Magrath Road",
        "name": "Dev's Jewellery",
        "opening_hours": "10:00-21:00",
        "phone": "080 4095 2940",
        "shop": "jewelry",
        "website": "http://www.devsjewellery.com"
      }
    },
    {
      "type": "node",
      "id": 4443946458,
      "lat": 12.9703059,
      "lon": 77.6097499,
      "tags": {
        "addr:city": "Bangalore",
        "addr:housenumber": "Garuda Mall",
        "addr:postcode": "560025",
        "addr:street": "Magrath Road",
        "brand": "Fabindia",
        "brand:wikidata": "Q5427779",
        "name": "Fabindia",
        "opening_hours": "10:00-22:00",
        "organic": "yes",
        "payment:cash": "yes",
        "payment:debit_cards": "yes",
        "phone": "080 3221 6151",
        "shop": "clothes",
        "website": "https://www.fabindia.com/"
      }
    },
    {
      "type": "node",
      "id": 4443947196,
      "lat": 12.9703295,
      "lon": 77.6094669,
      "tags": {
        "addr:city": "Bangalore",
        "addr:housenumber": "Ashoknagar",
        "addr:postcode": "560025",
        "addr:street": "Magrath Road",
        "name": "Enamor",
        "opening_hours": "10:00-22:00",
        "phone": "080 4112 6141",
        "shop": "clothes",
        "website": "https://enamor.co.in/"
      }
    },
    {
      "type": "node",
      "id": 4443949637,
      "lat": 12.9702746,
      "lon": 77.6097391,
      "tags": {
        "shop": "clothes"
      }
    },
    {
      "type": "node",
      "id": 4443949638,
      "lat": 12.9702471,
      "lon": 77.6097673,
      "tags": {
        "addr:city": "Bangalore",
        "addr:housenumber": "Ashoknagar",
        "addr:postcode": "560025",
        "addr:street": "Magrath Road",
        "brand": "Forever New",
        "brand:wikidata": "Q119221929",
        "clothes": "women",
        "name": "Forever New",
        "opening_hours": "10:00-22:00",
        "phone": "080 4112 6994",
        "shop": "clothes",
        "website": "https://www.forevernew.co.in/"
      }
    },
    {
      "type": "node",
      "id": 4443951104,
      "lat": 12.9702537,
      "lon": 77.6094977,
      "tags": {
        "addr:city": "Bangalore",
        "addr:housenumber": "Ashoknagar",
        "addr:postcode": "560025",
        "addr:street": "Magrath Road",
        "name": "Health & Glow",
        "opening_hours": "10:00-22:00",
        "phone": "1800 3000 8866",
        "shop": "beauty",
        "website": "https://garudamall.in/"
      }
    },
    {
      "type": "node",
      "id": 4443955551,
      "lat": 12.9702811,
      "lon": 77.6097137,
      "tags": {
        "addr:city": "Bangalore",
        "addr:housenumber": "Ashoknagar",
        "addr:postcode": "560025",
        "addr:street": "Magrath Road",
        "name": "Mint(POI)",
        "opening_hours": "10:00-22:00",
        "phone": "080 4123 9142",
        "shop": "clothes",
        "website": "https://garudamall.in/"
      }
    },
    {
      "type": "node",
      "id": 4443958328,
      "lat": 12.9702288,
      "lon": 77.6097566,
      "tags": {
        "addr:city": "Bangalore",
        "addr:housenumber": "Ashoknagar",
        "addr:postcode": "560025",
        "addr:street": "Magrath Road",
        "brand": "Samsonite",
        "brand:wikidata": "Q1203426",
        "name": "Samsonite",
        "opening_hours": "10:00-22:00",
        "phone": "080661 41006",
        "shop": "bag",
        "website": "https://garudamall.in/"
      }
    },
    {
      "type": "node",
      "id": 4463865291,
      "lat": 12.9737462,
      "lon": 77.6193171,
      "tags": {
        "addr:postcode": "560001",
        "addr:street": "Naveen Complex Building,MG Road",
        "amenity": "bank",
        "brand": "Canara Bank",
        "brand:en": "Canara Bank",
        "brand:hi": "केनरा बैंक",
        "brand:kn": "ಕೆನರಾ ಬ್ಯಾಂಕ್",
        "brand:pa": "ਕੇਨਰਾ ਬੈਂਕ",
        "brand:pnb": "کینرا بینک",
        "brand:ur": "کینرا بینک",
        "brand:wikidata": "Q2003777",
        "brand:wikipedia": "en:Canara Bank",
        "brand:wikipedia:pa": "ਕੇਨਰਾ ਬੈਂਕ",
        "name": "Canara Bank",
        "name:en": "Canara Bank",
        "name:hi": "केनरा बैंक",
        "name:kn": "ಕೆನರಾ ಬ್ಯಾಂಕ್",
        "name:pa": "ਕੇਨਰਾ ਬੈਂਕ",
        "name:pnb": "کینرا بینک",
        "name:ur": "کینرا بینک",
        "opening_hours": "Mo-Sa 22:00-06:00",
        "website": "https://www.canarabank.com/"
      }
    },
    {
      "type": "node",
      "id": 4489106086,
      "lat": 12.9736655,
      "lon": 77.6203864,
      "tags": {
        "addr:city": "Bangalore",
        "addr:housenumber": "1",
        "addr:postcode": "560008",
        "addr:street": "Swami Vivekanand Road, Bhadrappa Layout, Someshwarpura, Ulsoor",
        "name": "Manchester United Store",
        "opening_hours": "10:00-21:30",
        "phone": "080 3256 9278",
        "shop": "sports",
        "website": "https://www.manutd.com/"
      }
    },
    {
      "type": "node",
      "id": 4489841678,
      "lat": 12.9692465,
      "lon": 77.6101289,
      "tags": {
        "addr:city": "Bangalore",
        "addr:housenumber": "Garuda Mall",
        "addr:postcode": "560025",
        "addr:street": "Ashok Nagar",
        "name": "Flicks Salon And Spa",
        "opening_hours": "11:00-21:00",
        "phone": "080 4127 2304",
        "shop": "beauty",
        "website": "www.flicksspa.com"
      }
    },
    {
      "type": "node",
      "id": 4489922811,
      "lat": 12.9733578,
      "lon": 77.6218193,
      "tags": {
        "addr:city": "Bangalore",
        "addr:postcode": "560001",
        "addr:street": "Swami Vivekanand Road, MG Road, Trinity Circle, Someshwarpura",
        "name": "Lakme Salon",
        "opening_hours": "10:00-20:00",
        "phone": "080 2208 6677",
        "shop": "beauty",
        "website": "https://lakmeindia.com/"
      }
    },
    {
      "type": "node",
      "id": 4565647989,
      "lat": 12.9748864,
      "lon": 77.608186,
      "tags": {
        "name": "Navrathan's Antique Art",
        "name:en": "Navrathan's Antique Art",
        "opening_hours": "Mo-Su 10:00-20:00",
        "shop": "department_store",
        "website": "https://navrathansantiqueart.com/"
      }
    },
    {
      "type": "node",
      "id": 4718241233,
      "lat": 12.9668014,
      "lon": 77.6114459,
      "tags": {
        "addr:city": "bangalore",
        "addr:postcode": "560047",
        "amenity": "fast_food",
        "brand": "Krispy Kreme",
        "brand:wikidata": "Q1192805",
        "cuisine": "donut",
        "indoor_seating": "yes",
        "internet_access": "no",
        "name": "Krispy Kreme",
        "outdoor_seating": "no",
        "phone": "08041254402",
        "takeaway": "yes",
        "website": "https://krispykremeindia.in/"
      }
    },
    {
      "type": "node",
      "id": 4809112928,
      "lat": 12.9737963,
      "lon": 77.6218675,
      "tags": {
        "amenity": "parking_entrance"
      }
    },
    {
      "type": "node",
      "id": 4810078627,
      "lat": 12.9732081,
      "lon": 77.6218855,
      "tags": {
        "amenity": "parking_entrance"
      }
    },
    {
      "type": "node",
      "id": 4840185927,
      "lat": 12.9748954,
      "lon": 77.6080699,
      "tags": {
        "amenity": "bureau_de_change"
      }
    },
    {
      "type": "node",
      "id": 4840186222,
      "lat": 12.9753996,
      "lon": 77.6223913,
      "tags": {
        "amenity": "pharmacy",
        "healthcare": "pharmacy",
        "name": "Suneel Pharma",
        "name:en": "Suneel Pharma"
      }
    },
    {
      "type": "node",
      "id": 4843100427,
      "lat": 12.9707396,
      "lon": 77.6070806,
      "tags": {
        "amenity": "restaurant",
        "name": "Snack dine meet",
        "name:en": "Snack dine meet"
      }
    },
    {
      "type": "node",
      "id": 4843100431,
      "lat": 12.9728948,
      "lon": 77.6070991,
      "tags": {
        "amenity": "restaurant",
        "name": "Shangri-la Plaza",
        "name:en": "Shangri-la Plaza"
      }
    },
    {
      "type": "node",
      "id": 4844863387,
      "lat": 12.9791268,
      "lon": 77.6154453,
      "tags": {
        "amenity": "clinic",
        "check_date": "2025-05-09",
        "name": "Medical Center",
        "name:en": "Medical Center"
      }
    },
    {
      "type": "node",
      "id": 4846787926,
      "lat": 12.9755275,
      "lon": 77.6179176,
      "tags": {
        "amenity": "bank",
        "brand": "BNP Paribas",
        "brand:wikidata": "Q499707",
        "brand:wikipedia": "en:BNP Paribas",
        "name": "BNP Paribas",
        "name:en": "BNP PARIBAS"
      }
    },
    {
      "type": "node",
      "id": 4846787927,
      "lat": 12.9750488,
      "lon": 77.6181385,
      "tags": {
        "name": "The travel company",
        "name:en": "The travel company",
        "shop": "travel_agency"
      }
    },
    {
      "type": "node",
      "id": 4846789723,
      "lat": 12.9729083,
      "lon": 77.6084987,
      "tags": {
        "amenity": "cafe",
        "name": "Driven Cafe",
        "name:en": "Driven Cafe"
      }
    },
    {
      "type": "node",
      "id": 4846789724,
      "lat": 12.9749189,
      "lon": 77.6185055,
      "tags": {
        "amenity": "bank",
        "brand": "HDFC Bank",
        "brand:wikidata": "Q631047",
        "name": "HDFC Bank",
        "name:en": "HDFC Bank",
        "name:kn": "ಎಚ್ ಡಿ ಎಫ್ ಸಿ",
        "short_name": "HDFC"
      }
    },
    {
      "type": "node",
      "id": 4846789824,
      "lat": 12.9749455,
      "lon": 77.6197537,
      "tags": {
        "amenity": "school",
        "name": "Purvankara academy of excellence",
        "name:en": "Purvankara academy of excellence"
      }
    },
    {
      "type": "node",
      "id": 4846789825,
      "lat": 12.9756503,
      "lon": 77.6170739,
      "tags": {
        "amenity": "cafe",
        "name": "The French Loaf",
        "name:en": "The French Loaf"
      }
    },
    {
      "type": "node",
      "id": 4846817422,
      "lat": 12.9746129,
      "lon": 77.6193934,
      "tags": {
        "addr:city": "Bengaluru",
        "addr:country": "IN",
        "addr:floor": "G",
        "addr:postcode": "560008",
        "addr:street": "Halasuru Road",
        "addr:suburb": "Ulsoor",
        "air_conditioning": "yes",
        "amenity": "cafe",
        "bar": "no",
        "check_date": "2025-01-11",
        "contact:instagram": "@marzipan.cafe",
        "cuisine": "greek",
        "delivery": "yes",
        "email": "marzipan.ulsoor@gmail.com",
        "level": "0",
        "name": "Marzipan Cafe",
        "name:en": "Marzipan Cafe",
        "outdoor_seating": "yes",
        "payment:cash": "yes",
        "payment:credit_cards": "yes",
        "payment:debit_cards": "yes",
        "phone": "9844422724",
        "shop": "bakery",
        "takeaway": "yes",
        "wheelchair": "no"
      }
    },
    {
      "type": "node",
      "id": 4846817423,
      "lat": 12.9725684,
      "lon": 77.6205679,
      "tags": {
        "amenity": "dentist",
        "name": "Ridgetop dental",
        "name:en": "Ridgetop dental"
      }
    },
    {
      "type": "node",
      "id": 4847294832,
      "lat": 12.9747335,
      "lon": 77.6079408,
      "tags": {
        "brand": "Bata",
        "brand:wikidata": "Q688082",
        "name": "Bata",
        "name:en": "Bata",
        "name:kn": "ಬಾಟಾ",
        "shop": "shoes"
      }
    },
    {
      "type": "node",
      "id": 4847294835,
      "lat": 12.9731397,
      "lon": 77.6074555,
      "tags": {
        "amenity": "restaurant",
        "name": "Brigade Garden",
        "name:en": "Brigade Garden"
      }
    },
    {
      "type": "node",
      "id": 4847295223,
      "lat": 12.972953,
      "lon": 77.6074102,
      "tags": {
        "brand": "Converse",
        "brand:wikidata": "Q319515",
        "name": "Converse",
        "name:en": "Converse",
        "shop": "shoes"
      }
    },
    {
      "type": "node",
      "id": 4847296027,
      "lat": 12.9749087,
      "lon": 77.6074411,
      "tags": {
        "name": "Malabar Gold",
        "name:en": "Malabar Gold",
        "shop": "jewelry"
      }
    },
    {
      "type": "node",
      "id": 4877306121,
      "lat": 12.9747363,
      "lon": 77.6083147,
      "tags": {
        "addr:street": "Mahatma Gandhi Road",
        "brand": "Bose",
        "brand:wikidata": "Q328568",
        "brand:wikipedia": "en:Bose Corporation",
        "name": "Bose",
        "name:en": "Bose India",
        "opening_hours": "Mo-Su 09:00-20:00",
        "operator": "Bose India",
        "shop": "hifi"
      }
    },
    {
      "type": "node",
      "id": 5061395356,
      "lat": 12.9671456,
      "lon": 77.6103961,
      "tags": {
        "amenity": "pharmacy",
        "name": "Hosmat Pharmacy"
      }
    },
    {
      "type": "node",
      "id": 5061395362,
      "lat": 12.9659404,
      "lon": 77.6144089,
      "tags": {
        "amenity": "bank",
        "atm": "yes",
        "brand": "Axis Bank",
        "brand:wikidata": "Q2003549",
        "name": "Axis Bank",
        "name:kn": "ಆಕ್ಸಿಸ್ ಬ್ಯಾಂಕ್"
      }
    },
    {
      "type": "node",
      "id": 5168571698,
      "lat": 12.970382,
      "lon": 77.6107862,
      "tags": {
        "name": "Delsey Paris",
        "shop": "bag"
      }
    },
    {
      "type": "node",
      "id": 5168668845,
      "lat": 12.9664558,
      "lon": 77.6137032,
      "tags": {
        "leisure": "fitness_centre",
        "name": "Zion Fitness"
      }
    },
    {
      "type": "node",
      "id": 5168668848,
      "lat": 12.9646721,
      "lon": 77.6143585,
      "tags": {
        "name": "Reeta Enterprises",
        "note": "snacks, phone recharge",
        "shop": "stationery"
      }
    },
    {
      "type": "node",
      "id": 5168668849,
      "lat": 12.9646664,
      "lon": 77.6143244,
      "tags": {
        "name": "Sai Stores",
        "shop": "stationery"
      }
    },
    {
      "type": "node",
      "id": 5168668858,
      "lat": 12.9646365,
      "lon": 77.614174,
      "tags": {
        "name": "Lusitania Meat Shop",
        "shop": "butcher"
      }
    },
    {
      "type": "node",
      "id": 5168668859,
      "lat": 12.9646363,
      "lon": 77.6141291,
      "tags": {
        "amenity": "bicycle_repair_station",
        "operator": "Thunder Bird - Bike Servicing"
      }
    },
    {
      "type": "node",
      "id": 5168668860,
      "lat": 12.9646225,
      "lon": 77.6139894,
      "tags": {
        "name": "Coorg Products",
        "organic": "only",
        "shop": "convenience",
        "survey:date": "2023-09-23"
      }
    },
    {
      "type": "node",
      "id": 5168668873,
      "lat": 12.9646268,
      "lon": 77.6139096,
      "tags": {
        "amenity": "restaurant",
        "name": "MS Restaurant",
        "old_name": "Backyard - Roasted Chicken on Fire; Backyard Boys Kitchen"
      }
    },
    {
      "type": "node",
      "id": 5168668874,
      "lat": 12.9646066,
      "lon": 77.6138001,
      "tags": {
        "amenity": "dentist",
        "healthcare": "dentist",
        "name": "My Smile Dentist"
      }
    },
    {
      "type": "node",
      "id": 5168668875,
      "lat": 12.9644942,
      "lon": 77.6135414,
      "tags": {
        "name": "Kamath Stores",
        "shop": "supermarket",
        "survey:date": "2023-09-23"
      }
    },
    {
      "type": "node",
      "id": 5229454411,
      "lat": 12.9668641,
      "lon": 77.6111792,
      "tags": {
        "clothes": "women",
        "name": "Samyakk",
        "shop": "clothes",
        "website": "https://www.samyakk.com/"
      }
    },
    {
      "type": "node",
      "id": 5229454412,
      "lat": 12.9703926,
      "lon": 77.6106787,
      "tags": {
        "name": "Nalli Next",
        "shop": "clothes",
        "website": "https://www.nalli.com/"
      }
    },
    {
      "type": "node",
      "id": 5524163946,
      "lat": 12.9737445,
      "lon": 77.62041,
      "tags": {
        "amenity": "cafe",
        "level": "5",
        "name": "Cafe Felix"
      }
    },
    {
      "type": "node",
      "id": 5599537622,
      "lat": 12.973347,
      "lon": 77.6217445,
      "tags": {
        "addr:city": "Bangalore",
        "addr:housenumber": "0",
        "addr:postcode": "560008",
        "addr:street": "Ground floor Lido mall",
        "amenity": "fast_food",
        "brand": "McDonald's",
        "brand:pa": "ਮੈਕਡੋਨਲਡ’ਜ਼",
        "brand:ur": "مکڈونلڈز",
        "brand:wikidata": "Q38076",
        "brand:wikipedia": "en:McDonald's",
        "brand:wikipedia:pa": "ਮੈਕਡੋਨਲਡ’ਜ਼",
        "brand:wikipedia:ur": "مکڈونلڈز",
        "cuisine": "burger",
        "name": "McDonald's",
        "name:kn": "ಮ್ಯಾಕ್‌ಡೊನಾಲ್ಡ್ಸ್",
        "name:pa": "ਮੈਕਡੋਨਲਡ’ਜ਼",
        "name:ur": "مکڈونلڈز",
        "takeaway": "yes",
        "wheelchair": "yes"
      }
    },
    {
      "type": "node",
      "id": 5714945190,
      "lat": 12.9721029,
      "lon": 77.6193559,
      "tags": {
        "amenity": "bank",
        "branch": "CAB Bangalore Branch",
        "brand": "State Bank of India",
        "brand:wikidata": "Q1340361",
        "name": "State Bank of India",
        "name:kn": "ಎಸ್ ಬಿ ಐ",
        "short_name": "SBI"
      }
    },
    {
      "type": "node",
      "id": 5715589842,
      "lat": 12.9752206,
      "lon": 77.6221318,
      "tags": {
        "amenity": "place_of_worship",
        "name": "Sri Pan Perumal Temple",
        "religion": "hindu"
      }
    },
    {
      "type": "node",
      "id": 5715589843,
      "lat": 12.9754837,
      "lon": 77.6229882,
      "tags": {
        "amenity": "place_of_worship",
        "name": "Anjaneya Swamy Temple",
        "name:kn": "ಆಂಜನೇಯಸ್ವಾಮಿ ದೇವಸ್ಥಾನ",
        "religion": "hindu"
      }
    },
    {
      "type": "node",
      "id": 6246844931,
      "lat": 12.973506,
      "lon": 77.6113148,
      "tags": {
        "amenity": "restaurant",
        "level": "5",
        "name": "Salvadores",
        "outdoor_seating": "yes",
        "phone": "080 49653492",
        "toilets": "yes"
      }
    },
    {
      "type": "node",
      "id": 6349045454,
      "lat": 12.9639537,
      "lon": 77.6161707,
      "tags": {
        "addr:place": "Yalagondana Palya",
        "amenity": "school",
        "isced:level": "2",
        "name": "GKHPS Yalagondana Palya",
        "name:kn": "ಸರ್ಕಾರಿ ಕನ್ನಡ ಹಿರಿಯ ಪ್ರಾಥಮಿಕ ಶಾಲೆ ಯಳಗೊಂಡನ ಪಾಳ್ಯ",
        "operator": "Department of Education",
        "school": "primary"
      }
    },
    {
      "type": "node",
      "id": 6349597045,
      "lat": 12.9664376,
      "lon": 77.6101244,
      "tags": {
        "amenity": "school",
        "isced:level": "2",
        "name": "Sacred Heart Boys Primary School",
        "name:kn": "ಸೇಕ್ರೆಡ್ ಹಾರ್ಟ್ಸ್ ಬಾಲಕರ ಪ್ರಾಥಮಿಕ ಶಾಲೆ ರಿಚ್‌ಮಂಡ್ ಟೌನ್",
        "operator": "Pvt. Aided",
        "school": "primary"
      }
    },
    {
      "type": "node",
      "id": 6398517993,
      "lat": 12.9702258,
      "lon": 77.6146582,
      "tags": {
        "alt_name": "Portland Grill and Cafe",
        "amenity": "restaurant",
        "check_date": "2024-02-07",
        "name": "Portland",
        "old_name": "Portland Steakhouse"
      }
    },
    {
      "type": "node",
      "id": 6400067715,
      "lat": 12.9697506,
      "lon": 77.6118686,
      "tags": {
        "amenity": "bicycle_rental",
        "name": "DULT Bike Share Point"
      }
    },
    {
      "type": "node",
      "id": 6454509103,
      "lat": 12.9756177,
      "lon": 77.6233864,
      "tags": {
        "amenity": "post_office",
        "name": "Halasuru Bazaar"
      }
    },
    {
      "type": "node",
      "id": 6531889492,
      "lat": 12.9696041,
      "lon": 77.6243903,
      "tags": {
        "addr:place": "Jogupalya",
        "amenity": "school",
        "isced:level": "1",
        "name": "GLPS Gowthamapura, jogupalya",
        "name:kn": "ಸರ್ಕಾರಿ ಕಿರಿಯ ಪ್ರಾಥಮಿಕ ಶಾಲೆ ಗೌತಮಪುರ, ಜೊಗುಪಾಳ್ಯ",
        "operator": "Department of Education",
        "school": "primary"
      }
    },
    {
      "type": "node",
      "id": 6569023747,
      "lat": 12.9735712,
      "lon": 77.6087644,
      "tags": {
        "addr:city": "Bengaluru",
        "addr:country": "IN",
        "addr:housenumber": "43",
        "addr:postcode": "560025",
        "addr:street": "Field Marshal Cariappa Road",
        "amenity": "coworking_space",
        "brand": "WeWork",
        "brand:wikidata": "Q19995004",
        "fee": "yes",
        "name": "WeWork Galaxy",
        "office": "coworking",
        "operator": "WeWork",
        "start_date": "2017",
        "website": "https://www.wework.com/buildings/galaxy--bengaluru--Karnataka"
      }
    },
    {
      "type": "node",
      "id": 6579780092,
      "lat": 12.9643575,
      "lon": 77.6135306,
      "tags": {
        "amenity": "fast_food",
        "cuisine": "chinese",
        "name": "Little Chef"
      }
    },
    {
      "type": "node",
      "id": 6584009933,
      "lat": 12.9745395,
      "lon": 77.6074118,
      "tags": {
        "name": "Ilahui",
        "shop": "beauty",
        "website": "https://ilahui.ph/"
      }
    },
    {
      "type": "node",
      "id": 6584009934,
      "lat": 12.9746251,
      "lon": 77.6073769,
      "tags": {
        "amenity": "restaurant",
        "name": "Coast II Coast"
      }
    },
    {
      "type": "node",
      "id": 6584009935,
      "lat": 12.9745173,
      "lon": 77.6074333,
      "tags": {
        "amenity": "bureau_de_change",
        "name": "Haya"
      }
    },
    {
      "type": "node",
      "id": 6584009936,
      "lat": 12.9746121,
      "lon": 77.6078993,
      "tags": {
        "brand": "Skechers",
        "brand:wikidata": "Q2945643",
        "brand:wikipedia": "en:Skechers",
        "name": "Skechers",
        "shop": "shoes"
      }
    },
    {
      "type": "node",
      "id": 6584009937,
      "lat": 12.9745618,
      "lon": 77.6078852,
      "tags": {
        "name": "Mochi",
        "shop": "shoes",
        "survey:date": "2023-09-23"
      }
    },
    {
      "type": "node",
      "id": 6584009938,
      "lat": 12.9744866,
      "lon": 77.6078671,
      "tags": {
        "name": "Jockey",
        "shop": "clothes"
      }
    },
    {
      "type": "node",
      "id": 6584009939,
      "lat": 12.9746905,
      "lon": 77.6079328,
      "tags": {
        "brand": "Puma",
        "brand:wikidata": "Q157064",
        "name": "Puma",
        "name:kn": "ಪೂಮ",
        "shop": "clothes"
      }
    },
    {
      "type": "node",
      "id": 6584009940,
      "lat": 12.9743644,
      "lon": 77.607851,
      "tags": {
        "amenity": "restaurant",
        "cuisine": "indian",
        "name": "saatvikk"
      }
    },
    {
      "type": "node",
      "id": 6584009941,
      "lat": 12.9743095,
      "lon": 77.6078349,
      "tags": {
        "name": "Raymonds",
        "shop": "clothes"
      }
    },
    {
      "type": "node",
      "id": 6584009942,
      "lat": 12.9741814,
      "lon": 77.6081923,
      "tags": {
        "amenity": "college",
        "name": "JD Institute of Fashion Technology"
      }
    },
    {
      "type": "node",
      "id": 6584009943,
      "lat": 12.9741436,
      "lon": 77.6077833,
      "tags": {
        "brand": "Adidas",
        "brand:wikidata": "Q3895",
        "name": "Adidas",
        "name:kn": "ಅಡಿಡಾಸ್",
        "shop": "sports"
      }
    },
    {
      "type": "node",
      "id": 6584009944,
      "lat": 12.9740671,
      "lon": 77.6077491,
      "tags": {
        "brand": "Reebok",
        "brand:wikidata": "Q466183",
        "name": "Reebok",
        "name:kn": "ರೀಬಾಕ್",
        "shop": "clothes"
      }
    },
    {
      "type": "node",
      "id": 6584009945,
      "lat": 12.9739907,
      "lon": 77.6077276,
      "tags": {
        "name": "Indian Terrain",
        "shop": "clothes"
      }
    },
    {
      "type": "node",
      "id": 6584009946,
      "lat": 12.9738966,
      "lon": 77.6076934,
      "tags": {
        "name": "Soles",
        "shop": "shoes"
      }
    },
    {
      "type": "node",
      "id": 6584009947,
      "lat": 12.9739299,
      "lon": 77.6076988,
      "tags": {
        "name": "Ruosh",
        "shop": "shoes"
      }
    },
    {
      "type": "node",
      "id": 6584009949,
      "lat": 12.9738031,
      "lon": 77.6076613,
      "tags": {
        "name": "Victory",
        "shop": "dry_cleaning"
      }
    },
    {
      "type": "node",
      "id": 6584009950,
      "lat": 12.9737704,
      "lon": 77.6076552,
      "tags": {
        "amenity": "bank",
        "atm": "yes",
        "brand": "United Bank of India",
        "brand:wikidata": "Q2003237",
        "name": "United Bank of India"
      }
    },
    {
      "type": "node",
      "id": 6584009951,
      "lat": 12.9737319,
      "lon": 77.6076492,
      "tags": {
        "name": "Wildcraft",
        "shop": "bag"
      }
    },
    {
      "type": "node",
      "id": 6584009952,
      "lat": 12.9736914,
      "lon": 77.6076344,
      "tags": {
        "name": "Spykar",
        "shop": "clothes"
      }
    },
    {
      "type": "node",
      "id": 6584009953,
      "lat": 12.9733,
      "lon": 77.6074809,
      "tags": {
        "name": "Rusm",
        "shop": "jewelry"
      }
    },
    {
      "type": "node",
      "id": 6584009954,
      "lat": 12.9735045,
      "lon": 77.607562,
      "tags": {
        "brand": "METRO",
        "brand:wikidata": "Q13610282",
        "brand:wikipedia": "en:Metro Cash & Carry",
        "check_date": "2024-06-06",
        "name": "Metro",
        "shop": "department_store"
      }
    },
    {
      "type": "node",
      "id": 6584009955,
      "lat": 12.9734176,
      "lon": 77.6075218,
      "tags": {
        "name": "Showoff",
        "shop": "clothes"
      }
    },
    {
      "type": "node",
      "id": 6584009956,
      "lat": 12.9731791,
      "lon": 77.6074534,
      "tags": {
        "name": "Florsheim",
        "shop": "shoes"
      }
    },
    {
      "type": "node",
      "id": 6584009957,
      "lat": 12.9728158,
      "lon": 77.60744,
      "tags": {
        "brand": "Hush Puppies",
        "brand:wikidata": "Q1828588",
        "name": "Hush Puppies",
        "shop": "shoes"
      }
    },
    {
      "type": "node",
      "id": 6584009958,
      "lat": 12.9730458,
      "lon": 77.6074507,
      "tags": {
        "brand": "Levi's",
        "brand:wikidata": "Q127962",
        "clothes": "denim;men;women",
        "name": "Levi's",
        "shop": "clothes"
      }
    },
    {
      "type": "node",
      "id": 6584009959,
      "lat": 12.9729752,
      "lon": 77.6074708,
      "tags": {
        "name": "Zimson",
        "shop": "watches"
      }
    },
    {
      "type": "node",
      "id": 6584009960,
      "lat": 12.9729301,
      "lon": 77.6074769,
      "tags": {
        "amenity": "cafe",
        "name": "Tea Trails"
      }
    },
    {
      "type": "node",
      "id": 6584009961,
      "lat": 12.9728288,
      "lon": 77.607387,
      "tags": {
        "amenity": "cafe",
        "name": "Frozen Bottle"
      }
    },
    {
      "type": "node",
      "id": 6584009964,
      "lat": 12.9715814,
      "lon": 77.6066615,
      "tags": {
        "amenity": "bench",
        "backrest": "no",
        "material": "metal"
      }
    },
    {
      "type": "node",
      "id": 6584009966,
      "lat": 12.9716422,
      "lon": 77.6067178,
      "tags": {
        "amenity": "bench",
        "backrest": "no",
        "material": "metal"
      }
    },
    {
      "type": "node",
      "id": 6584009967,
      "lat": 12.9716631,
      "lon": 77.6067862,
      "tags": {
        "amenity": "bench",
        "backrest": "no",
        "material": "metal"
      }
    },
    {
      "type": "node",
      "id": 6584009978,
      "lat": 12.9709182,
      "lon": 77.6071631,
      "tags": {
        "brand": "Decathlon",
        "brand:wikidata": "Q509349",
        "name": "Decathlon",
        "shop": "sports",
        "survey:date": "2023-09-14"
      }
    },
    {
      "type": "node",
      "id": 6681215532,
      "lat": 12.9667204,
      "lon": 77.6082963,
      "tags": {
        "name": "Bamburies",
        "shop": "butcher",
        "wheelchair": "no"
      }
    },
    {
      "type": "node",
      "id": 6681215533,
      "lat": 12.9668909,
      "lon": 77.6093255,
      "tags": {
        "check_date": "2023-12-03",
        "name": "Fatima Bakery",
        "shop": "bakery"
      }
    },
    {
      "type": "node",
      "id": 6681215534,
      "lat": 12.964466,
      "lon": 77.6136929,
      "tags": {
        "shop": "copyshop",
        "survey:date": "2023-09-23"
      }
    },
    {
      "type": "node",
      "id": 6681215536,
      "lat": 12.9638217,
      "lon": 77.6144908,
      "tags": {
        "amenity": "fast_food",
        "cuisine": "indian",
        "name": "Chaitanya Delicacy",
        "takeaway": "yes"
      }
    },
    {
      "type": "node",
      "id": 6819843991,
      "lat": 12.9777864,
      "lon": 77.617985,
      "tags": {
        "addr:city": "Bangalore",
        "addr:housenumber": "46",
        "addr:postcode": "560042",
        "addr:street": "3rd Cross Road",
        "name": "Jasmine's Beauty Salon",
        "phone": "+91 80 2559 2498",
        "shop": "hairdresser"
      }
    },
    {
      "type": "node",
      "id": 6882713303,
      "lat": 12.96539,
      "lon": 77.6105627,
      "tags": {
        "addr:city": "Bengaluru",
        "addr:district": "BENGALURU URBAN",
        "addr:full": "No.1, Nilsandra Road",
        "addr:postcode": "560047",
        "addr:state": "Karnataka",
        "amenity": "blood_bank",
        "contact:mobile": "9916065305",
        "contact:phone": "8040164348",
        "name": "Saint Philomena Blood Bank",
        "opening_hours": "24/7",
        "operator:type": "private",
        "source": "OpenGovernmentData"
      }
    },
    {
      "type": "node",
      "id": 6882713304,
      "lat": 12.9690415,
      "lon": 77.6133992,
      "tags": {
        "addr:city": "Bengaluru",
        "addr:district": "BENGALURU URBAN",
        "addr:full": "No. 45, Magrath Road, Off. Richmond Road",
        "addr:postcode": "560023",
        "addr:state": "Karnataka",
        "amenity": "blood_bank",
        "contact:mobile": "8050780930",
        "contact:phone": "8025593796",
        "fax": "9180 25593798",
        "name": "Hosmat Hospital Unit of Phisicare Services Private Limited Blood Bank",
        "opening_hours": "24/7",
        "operator:type": "private",
        "source": "OpenGovernmentData",
        "website": "https://www.hosmatnet.com/"
      }
    },
    {
      "type": "node",
      "id": 6944418996,
      "lat": 12.975802,
      "lon": 77.6184806,
      "tags": {
        "addr:district": "Bengaluru Urban",
        "addr:full": "No.1 Haudin Road, Off Ulsoor Road",
        "addr:postcode": "560042",
        "addr:state": "Karnataka",
        "amenity": "hospital",
        "name": "Nikad Ortho Centre",
        "source": "OpenGovernmentData"
      }
    },
    {
      "type": "node",
      "id": 7007323121,
      "lat": 12.9652972,
      "lon": 77.6163818,
      "tags": {
        "addr:city": "Bengaluru",
        "addr:housenumber": "20",
        "addr:postcode": "560047",
        "addr:street": "2nd Cross Road",
        "name": "Begum Victoria",
        "shop": "cheese"
      }
    },
    {
      "type": "node",
      "id": 7031756532,
      "lat": 12.9728669,
      "lon": 77.6070859,
      "tags": {
        "air_conditioning": "yes",
        "description": "Our focus is on design innovation and promotion of handcrafted products made by skilled artisans using natural inputs which sustains and preserves the environment. We are dedicated towards preserving rich and vibrant traditional Indian art.",
        "name": "Jute Cottage",
        "shop": "gift",
        "source": "survey;local knowledge;gps;aerial imagery",
        "website": "https://www.jutecottage.co.in/"
      }
    },
    {
      "type": "node",
      "id": 7178597795,
      "lat": 12.973545,
      "lon": 77.6204172,
      "tags": {
        "addr:city": "Bengaluru",
        "addr:country": "IN",
        "addr:hamlet": "Ulsoor",
        "addr:housenumber": "1MG Mall",
        "addr:postcode": "560008",
        "addr:street": "Mahatma Gandhi Road",
        "amenity": "cafe",
        "name": "Food Hall",
        "website": "https://www.foodhallonline.com/"
      }
    },
    {
      "type": "node",
      "id": 7220694771,
      "lat": 12.9731121,
      "lon": 77.6111799,
      "tags": {
        "access": "customers",
        "amenity": "parking_entrance",
        "fee": "yes",
        "parking": "underground"
      }
    },
    {
      "type": "node",
      "id": 7220694773,
      "lat": 12.969593,
      "lon": 77.6100571,
      "tags": {
        "access": "customers",
        "amenity": "parking",
        "fee": "yes",
        "level": "-1",
        "parking": "underground",
        "supervised": "yes"
      }
    },
    {
      "type": "node",
      "id": 7287822486,
      "lat": 12.96724,
      "lon": 77.6109285,
      "tags": {
        "amenity": "bicycle_rental",
        "capacity": "Unlimited",
        "name": "D'Souza Circle Bicycle Parking",
        "network": "Bengaluru PBS",
        "operator": "Yulu"
      }
    },
    {
      "type": "node",
      "id": 7304811871,
      "lat": 12.9736443,
      "lon": 77.6091567,
      "tags": {
        "addr:city": "Bengaluru",
        "addr:country": "IN",
        "addr:housename": "Gopalakrishna Complex",
        "addr:housenumber": "45/3",
        "addr:postcode": "560025",
        "addr:street": "Field Marshal Cariappa Road",
        "addr:unit": "1st Floor",
        "amenity": "coworking_space",
        "fee": "yes",
        "name": "91springboard",
        "office": "coworking",
        "operator": "91springboard",
        "website": "https://www.91springboard.com"
      }
    },
    {
      "type": "node",
      "id": 7448743126,
      "lat": 12.9639432,
      "lon": 77.6118784,
      "tags": {
        "amenity": "place_of_worship",
        "name": "Anjaneya Temple",
        "name:kn": "ಆಂಜನೇಯ ದೇವಸ್ಥಾನ",
        "religion": "hindu",
        "survey:date": "2023-09-26"
      }
    },
    {
      "type": "node",
      "id": 7572526740,
      "lat": 12.9761401,
      "lon": 77.6227086,
      "tags": {
        "addr:district": "Bengaluru Urban",
        "addr:full": "Someshwarpura, Halasuru, Bengaluru",
        "addr:postcode": "560008",
        "addr:state": "Karnataka",
        "amenity": "dentist",
        "name": "Dhyan Dental Care",
        "source": "Local Knowledge"
      }
    },
    {
      "type": "node",
      "id": 7572526746,
      "lat": 12.9767057,
      "lon": 77.6229194,
      "tags": {
        "addr:district": "Bengaluru Urban",
        "addr:full": "Someshwarpura, Halasuru, Bengaluru",
        "addr:postcode": "560008",
        "addr:state": "Karnataka",
        "amenity": "clinic",
        "name": "Ghagare Health Care Clinic",
        "source": "Local Knowledge"
      }
    },
    {
      "type": "node",
      "id": 7572526788,
      "lat": 12.975488,
      "lon": 77.615338,
      "tags": {
        "addr:district": "Bengaluru Urban",
        "addr:full": "Yellappa Garden, Yellappa Chetty Layout, Halasuru, Bengaluru",
        "addr:postcode": "560001",
        "addr:state": "Karnataka",
        "amenity": "dentist",
        "healthcare": "dentist",
        "name": "Bluetooth Dental Clinic",
        "source": "Local Knowledge"
      }
    },
    {
      "type": "node",
      "id": 7576958030,
      "lat": 12.9638518,
      "lon": 77.6126513,
      "tags": {
        "addr:district": "Bengaluru Urban",
        "addr:full": "Ashok Nagar, Bengaluru",
        "addr:postcode": "560047",
        "addr:state": "Karnataka",
        "amenity": "dentist",
        "name": "Sai Speciality Dental Clinic",
        "source": "Local Knowledge"
      }
    },