{
  "area_name": "Dinnur",
  "osm_id": 11652675948,
  "osm_type": "node",
  "place_type": "neighbourhood",
  "amenity_count": 203,
  "amenities": [
    {
      "type": "node",
      "id": 1370777379,
      "lat": 13.0303875,
      "lon": 77.6079607,
      "tags": {
        "brand": "Reliance Fresh",
        "brand:wikidata": "Q7311014",
        "name": "Reliance Fresh",
        "name:kn": "ರಿಲಾಯನ್ಸ್ ಫ್ರೆಶ್",
        "shop": "supermarket"
      }
    },
    {
      "type": "node",
      "id": 1422401765,
      "lat": 13.0231839,
      "lon": 77.6004176,
      "tags": {
        "addr:street": "Dinnur Main Road",
        "name": "Super Market",
        "shop": "supermarket"
      }
    },
    {
      "type": "node",
      "id": 1422402902,
      "lat": 13.0252349,
      "lon": 77.6054904,
      "tags": {
        "brand": "More",
        "brand:wikidata": "Q6910891",
        "name": "More",
        "name:kn": "ಮೋರ್",
        "shop": "supermarket"
      }
    },
    {
      "type": "node",
      "id": 1709531085,
      "lat": 13.0220957,
      "lon": 77.6032439,
      "tags": {
        "amenity": "theatre",
        "name": "Pushpanjili Theatre",
        "name:kn": "ಪುಷ್ಪಾಂಜಲಿ ಚಿತ್ರಮಂದಿರ"
      }
    },
    {
      "type": "node",
      "id": 1722602478,
      "lat": 13.026256,
      "lon": 77.6062003,
      "tags": {
        "alt_name": "New Punjabi",
        "amenity": "restaurant",
        "diet:vegetarian": "only",
        "name": "Punjabi Dhaba",
        "name:kn": "ಪಂಜಾಬಿ ಧಾಬ"
      }
    },
    {
      "type": "node",
      "id": 1722621793,
      "lat": 13.0227783,
      "lon": 77.6014591,
      "tags": {
        "addr:housenumber": "080-22744402",
        "addr:postcode": "560032",
        "addr:street": "Dinnur Main Road",
        "name": "LifeLine Tender Chicken",
        "shop": "butcher",
        "website": "https://www.lifelinefeeds.com/"
      }
    },
    {
      "type": "node",
      "id": 2125941628,
      "lat": 13.0304891,
      "lon": 77.6081971,
      "tags": {
        "addr:housename": "SMS Complex",
        "addr:housenumber": "G3",
        "addr:postcode": "560032",
        "addr:street": "KHB Main Road",
        "amenity": "restaurant",
        "cuisine": "regional",
        "name": "Peacock Restaurant"
      }
    },
    {
      "type": "node",
      "id": 2151427893,
      "lat": 13.0252085,
      "lon": 77.6036776,
      "tags": {
        "name": "Honey Land Bakery",
        "shop": "bakery"
      }
    },
    {
      "type": "node",
      "id": 2210804511,
      "lat": 13.0255016,
      "lon": 77.6033615,
      "tags": {
        "amenity": "atm",
        "operator": "SBI"
      }
    },
    {
      "type": "node",
      "id": 2210804544,
      "lat": 13.0269431,
      "lon": 77.60086,
      "tags": {
        "amenity": "place_of_worship",
        "name": "Rama temple",
        "name:kn": "ರಾಮ ದೇವಸ್ಥಾನ",
        "religion": "hindu"
      }
    },
    {
      "type": "node",
      "id": 2210804565,
      "lat": 13.0247801,
      "lon": 77.6016445,
      "tags": {
        "amenity": "milk-booth"
      }
    },
    {
      "type": "node",
      "id": 2210804567,
      "lat": 13.023275,
      "lon": 77.6002829,
      "tags": {
        "name": "Blue Rose, Home Needs",
        "shop": "convenience"
      }
    },
    {
      "type": "node",
      "id": 2210806496,
      "lat": 13.0232222,
      "lon": 77.6003506,
      "tags": {
        "shop": "greengrocer"
      }
    },
    {
      "type": "node",
      "id": 2210807119,
      "lat": 13.0235333,
      "lon": 77.6000246,
      "tags": {
        "amenity": "pharmacy"
      }
    },
    {
      "type": "node",
      "id": 2214747036,
      "lat": 13.0232887,
      "lon": 77.6005444,
      "tags": {
        "amenity": "atm"
      }
    },
    {
      "type": "node",
      "id": 2214747037,
      "lat": 13.0232564,
      "lon": 77.6006133,
      "tags": {
        "amenity": "atm",
        "name": "Axis Bank ATM",
        "name:kn": "ಆಕ್ಸಿಸ್ ಬ್ಯಾಂಕ್",
        "operator": "Axis Bank"
      }
    },
    {
      "type": "node",
      "id": 2214747042,
      "lat": 13.0222291,
      "lon": 77.6004298,
      "tags": {
        "amenity": "atm",
        "operator": "ICICI"
      }
    },
    {
      "type": "node",
      "id": 2465713488,
      "lat": 13.0213985,
      "lon": 77.6005015,
      "tags": {
        "amenity": "fuel",
        "brand": "Indane Oil",
        "name": "Lakshmamma Petrol / Gas Station"
      }
    },
    {
      "type": "node",
      "id": 3363186002,
      "lat": 13.0199268,
      "lon": 77.5951979,
      "tags": {
        "amenity": "atm"
      }
    },
    {
      "type": "node",
      "id": 3591611473,
      "lat": 13.022371,
      "lon": 77.5942251,
      "tags": {
        "shop": "greengrocer"
      }
    },
    {
      "type": "node",
      "id": 3591611743,
      "lat": 13.0218513,
      "lon": 77.5962159,
      "tags": {
        "name": "Everyday Needs",
        "shop": "yes"
      }
    },
    {
      "type": "node",
      "id": 4386500090,
      "lat": 13.0240798,
      "lon": 77.6032686,
      "tags": {
        "amenity": "pharmacy",
        "name": "Maruti Medicals and Genral Stores"
      }
    },
    {
      "type": "node",
      "id": 4386500091,
      "lat": 13.0244383,
      "lon": 77.6032696,
      "tags": {
        "amenity": "clinic",
        "name": "Dental Care Center"
      }
    },
    {
      "type": "node",
      "id": 4386500092,
      "lat": 13.0244906,
      "lon": 77.6032509,
      "tags": {
        "name": "Modern Enterprises",
        "shop": "copyshop"
      }
    },
    {
      "type": "node",
      "id": 4386500093,
      "lat": 13.0244193,
      "lon": 77.6033279,
      "tags": {
        "name": "Bright Laundry",
        "shop": "laundry"
      }
    },
    {
      "type": "node",
      "id": 4386500094,
      "lat": 13.0244599,
      "lon": 77.6033228,
      "tags": {
        "name": "Nikisha Elctricals and Electronics",
        "shop": "electronics"
      }
    },
    {
      "type": "node",
      "id": 4386500096,
      "lat": 13.024502,
      "lon": 77.6033331,
      "tags": {
        "name": "RR Enterprises",
        "shop": "books"
      }
    },
    {
      "type": "node",
      "id": 4386500097,
      "lat": 13.0253206,
      "lon": 77.6035555,
      "tags": {
        "name": "Corone Fresh Spices and Dry Fruits",
        "shop": "department_store"
      }
    },
    {
      "type": "node",
      "id": 4386500098,
      "lat": 13.0253734,
      "lon": 77.60357,
      "tags": {
        "amenity": "clinic",
        "name": "AB EyeCare"
      }
    },
    {
      "type": "node",
      "id": 4386500099,
      "lat": 13.025295,
      "lon": 77.6036548,
      "tags": {
        "amenity": "cafe",
        "name": "Juba Cafe"
      }
    },
    {
      "type": "node",
      "id": 4386500100,
      "lat": 13.0253614,
      "lon": 77.6036609,
      "tags": {
        "name": "KGN Provision Store",
        "shop": "department_store"
      }
    },
    {
      "type": "node",
      "id": 4386500101,
      "lat": 13.025445,
      "lon": 77.6036945,
      "tags": {
        "amenity": "pharmacy",
        "name": "Mankind Medical and Cosmetics"
      }
    },
    {
      "type": "node",
      "id": 4386500102,
      "lat": 13.0257661,
      "lon": 77.6037904,
      "tags": {
        "name": "Dream Wear",
        "shop": "clothes"
      }
    },
    {
      "type": "node",
      "id": 4386500103,
      "lat": 13.0258196,
      "lon": 77.6038066,
      "tags": {
        "name": "Patel Novelty Stores",
        "shop": "gift"
      }
    },
    {
      "type": "node",
      "id": 4386500104,
      "lat": 13.0258377,
      "lon": 77.6038083,
      "tags": {
        "name": "Galmor And Shine Beauty Parlour",
        "shop": "cosmetics"
      }
    },
    {
      "type": "node",
      "id": 4386500105,
      "lat": 13.025883,
      "lon": 77.6038199,
      "tags": {
        "name": "Manoj Textiles",
        "shop": "clothes"
      }
    },
    {
      "type": "node",
      "id": 4386500106,
      "lat": 13.026204,
      "lon": 77.6039342,
      "tags": {
        "name": "Dreams Mobile World",
        "shop": "mobile_phone"
      }
    },
    {
      "type": "node",
      "id": 4386500107,
      "lat": 13.0262474,
      "lon": 77.6039456,
      "tags": {
        "name": "Shivam Condiments",
        "shop": "bakery"
      }
    },
    {
      "type": "node",
      "id": 4386500108,
      "lat": 13.0262805,
      "lon": 77.6039576,
      "tags": {
        "name": "Mango Bake and Shake",
        "shop": "bakery"
      }
    },
    {
      "type": "node",
      "id": 4386500110,
      "lat": 13.0265617,
      "lon": 77.6040589,
      "tags": {
        "name": "Smita Info Solutions",
        "shop": "copyshop"
      }
    },
    {
      "type": "node",
      "id": 4386500111,
      "lat": 13.0266169,
      "lon": 77.6040449,
      "tags": {
        "name": "GM Time Center Watch Repair",
        "shop": "convenience"
      }
    },
    {
      "type": "node",
      "id": 4386500112,
      "lat": 13.0268489,
      "lon": 77.6041398,
      "tags": {
        "name": "Fond",
        "shop": "mobile_phone"
      }
    },
    {
      "type": "node",
      "id": 4386500113,
      "lat": 13.0268721,
      "lon": 77.6041478,
      "tags": {
        "name": "KSRTC Travel House",
        "shop": "travel_agency"
      }
    },
    {
      "type": "node",
      "id": 4386500114,
      "lat": 13.026938,
      "lon": 77.6041637,
      "tags": {
        "amenity": "school",
        "name": "Marian Kids"
      }
    },
    {
      "type": "node",
      "id": 4386500115,
      "lat": 13.0270552,
      "lon": 77.6041687,
      "tags": {
        "name": "Deluxe Bedding and Sofa center",
        "shop": "convenience"
      }
    },
    {
      "type": "node",
      "id": 4386500116,
      "lat": 13.0271281,
      "lon": 77.6042299,
      "tags": {
        "amenity": "pharmacy",
        "name": "Sakshi Medical And General Stores"
      }
    },
    {
      "type": "node",
      "id": 4386500117,
      "lat": 13.0273712,
      "lon": 77.6043059,
      "tags": {
        "amenity": "clinic",
        "name": "Hemant Clinic"
      }
    },
    {
      "type": "node",
      "id": 4386500118,
      "lat": 13.0274345,
      "lon": 77.6042708,
      "tags": {
        "name": "Shukrutha Chicken Center",
        "shop": "butcher"
      }
    },
    {
      "type": "node",
      "id": 4386500119,
      "lat": 13.0276254,
      "lon": 77.6043712,
      "tags": {
        "amenity": "school",
        "name": "Mona Nursery, Primary and High School"
      }
    },
    {
      "type": "node",
      "id": 4386500120,
      "lat": 13.0276582,
      "lon": 77.604326,
      "tags": {
        "name": "Prem Fancy Store",
        "shop": "convenience"
      }
    },
    {
      "type": "node",
      "id": 4386500121,
      "lat": 13.0276805,
      "lon": 77.6043445,
      "tags": {
        "name": "Sri Vinayaka Hot Chips",
        "shop": "convenience"
      }
    },
    {
      "type": "node",
      "id": 4386500122,
      "lat": 13.0278433,
      "lon": 77.6043961,
      "tags": {
        "name": "Raghavendra Jewellery Woris",
        "shop": "jewelry"
      }
    },
    {
      "type": "node",
      "id": 4386500190,
      "lat": 13.0238759,
      "lon": 77.6030622,
      "tags": {
        "name": "Limra Associates",
        "shop": "copyshop"
      }
    },
    {
      "type": "node",
      "id": 4386500191,
      "lat": 13.0239803,
      "lon": 77.6031307,
      "tags": {
        "name": "Swadeshi Foods",
        "shop": "confectionery"
      }
    },
    {
      "type": "node",
      "id": 4386500193,
      "lat": 13.0244213,
      "lon": 77.6032614,
      "tags": {
        "amenity": "bank",
        "name": "Star Health"
      }
    },
    {
      "type": "node",
      "id": 4386500194,
      "lat": 13.0252198,
      "lon": 77.6034014,
      "tags": {
        "name": "Citrus Dress Materials",
        "shop": "clothes"
      }
    },
    {
      "type": "node",
      "id": 4386500195,
      "lat": 13.0252496,
      "lon": 77.6036506,
      "tags": {
        "amenity": "cafe",
        "name": "Joy IceCream"
      }
    },
    {
      "type": "node",
      "id": 4386500196,
      "lat": 13.0263546,
      "lon": 77.6039914,
      "tags": {
        "name": "Nizam Collections",
        "shop": "clothes"
      }
    },
    {
      "type": "node",
      "id": 4386500197,
      "lat": 13.0267182,
      "lon": 77.6040529,
      "tags": {
        "name": "Ganga Bookstore",
        "shop": "books"
      }
    },
    {
      "type": "node",
      "id": 4386500198,
      "lat": 13.0267584,
      "lon": 77.6040579,
      "tags": {
        "name": "Time House",
        "shop": "convenience"
      }
    },
    {
      "type": "node",
      "id": 4386500199,
      "lat": 13.026904,
      "lon": 77.6041555,
      "tags": {
        "name": "Veena Collections",
        "shop": "clothes"
      }
    },
    {
      "type": "node",
      "id": 4386500200,
      "lat": 13.0271819,
      "lon": 77.6042504,
      "tags": {
        "name": "Keishna Electricals",
        "shop": "electronics"
      }
    },
    {
      "type": "node",
      "id": 4386506491,
      "lat": 13.024064,
      "lon": 77.6031704,
      "tags": {
        "name": "Cafe Coffee Day",
        "name:kn": "ಕಫೆ ಕಾಫಿ ಡೇ",
        "shop": "convenience"
      }
    },
    {
      "type": "node",
      "id": 4386506492,
      "lat": 13.0240911,
      "lon": 77.6031919,
      "tags": {
        "name": "Manjunatha Condiments",
        "shop": "department_store"
      }
    },
    {
      "type": "node",
      "id": 4386506493,
      "lat": 13.0240899,
      "lon": 77.603228,
      "tags": {
        "amenity": "clinic",
        "name": "Maruti Clinic",
        "name:kn": "ಮಾರುತಿ ಚಿಕಿತ್ಸಾಲಯ"
      }
    },
    {
      "type": "node",
      "id": 4386506495,
      "lat": 13.0244952,
      "lon": 77.6032201,
      "tags": {
        "name": "Mallige Printers",
        "shop": "copyshop"
      }
    },
    {
      "type": "node",
      "id": 4386506496,
      "lat": 13.0248867,
      "lon": 77.6034992,
      "tags": {
        "name": "Jai Ganesh Mobile Sales and Services",
        "shop": "mobile_phone"
      }
    },
    {
      "type": "node",
      "id": 4386506497,
      "lat": 13.0249104,
      "lon": 77.6034717,
      "tags": {
        "amenity": "pharmacy",
        "name": "Mohite Medicals"
      }
    },
    {
      "type": "node",
      "id": 4386506499,
      "lat": 13.0257924,
      "lon": 77.6037965,
      "tags": {
        "name": "Anjana Stationery",
        "shop": "books"
      }
    },
    {
      "type": "node",
      "id": 4386506500,
      "lat": 13.0261242,
      "lon": 77.6039117,
      "tags": {
        "amenity": "recycling",
        "name": "Omshakti Paper Mart"
      }
    },
    {
      "type": "node",
      "id": 4386506501,
      "lat": 13.0265159,
      "lon": 77.6040547,
      "tags": {
        "name": "SR Consultant Real Estate",
        "shop": "department_store"
      }
    },
    {
      "type": "node",
      "id": 4386506502,
      "lat": 13.0266962,
      "lon": 77.6040529,
      "tags": {
        "name": "Yakshini Condiments",
        "shop": "convenience"
      }
    },
    {
      "type": "node",
      "id": 4386506503,
      "lat": 13.0267483,
      "lon": 77.6041132,
      "tags": {
        "amenity": "atm",
        "operator": "Karur Vaisya Bank"
      }
    },
    {
      "type": "node",
      "id": 4386506504,
      "lat": 13.0268576,
      "lon": 77.6041118,
      "tags": {
        "amenity": "pharmacy",
        "name": "Kushal Medical Devices"
      }
    },
    {
      "type": "node",
      "id": 4386506505,
      "lat": 13.0270352,
      "lon": 77.6041657,
      "tags": {
        "name": "Shine Telecom",
        "shop": "mobile_phone"
      }
    },
    {
      "type": "node",
      "id": 4386506506,
      "lat": 13.0275314,
      "lon": 77.6042985,
      "tags": {
        "name": "MHN Jewellers",
        "shop": "jewelry"
      }
    },
    {
      "type": "node",
      "id": 4386506507,
      "lat": 13.0275936,
      "lon": 77.6043528,
      "tags": {
        "amenity": "fast_food",
        "name": "Goli Vadapav No.1"
      }
    },
    {
      "type": "node",
      "id": 4386506508,
      "lat": 13.0276513,
      "lon": 77.6043712,
      "tags": {
        "name": "Shree Sai Appliances",
        "shop": "electronics"
      }
    },
    {
      "type": "node",
      "id": 4386506509,
      "lat": 13.0276765,
      "lon": 77.6043712,
      "tags": {
        "amenity": "restaurant",
        "name": "Chitra Darshini",
        "name:kn": "ಚಿತ್ರ ದರ್ಶಿನಿ"
      }
    },
    {
      "type": "node",
      "id": 4386506510,
      "lat": 13.0276316,
      "lon": 77.604326,
      "tags": {
        "name": "Shree Basaveswara Frame Works",
        "shop": "convenience"
      }
    },
    {
      "type": "node",
      "id": 4386506511,
      "lat": 13.027842,
      "lon": 77.6044191,
      "tags": {
        "name": "PN Tools Hardware",
        "shop": "hardware"
      }
    },
    {
      "type": "node",
      "id": 4386506512,
      "lat": 13.027778,
      "lon": 77.6043901,
      "tags": {
        "craft": "tailor",
        "name": "Sangam Ladies Tailor",
        "shop": "mobile_phone"
      }
    },
    {
      "type": "node",
      "id": 4386506589,
      "lat": 13.0231271,
      "lon": 77.6028605,
      "tags": {
        "name": "Sahi International Motors",
        "shop": "car_repair"
      }
    },
    {
      "type": "node",
      "id": 4386506590,
      "lat": 13.023763,
      "lon": 77.6029395,
      "tags": {
        "amenity": "pharmacy",
        "name": "A.K Medicals"
      }
    },
    {
      "type": "node",
      "id": 4386506591,
      "lat": 13.0246416,
      "lon": 77.603385,
      "tags": {
        "name": "Mangalore Jewellery Works",
        "shop": "jewelry"
      }
    },
    {
      "type": "node",
      "id": 4386506593,
      "lat": 13.0251982,
      "lon": 77.6034408,
      "tags": {
        "name": "Take 5",
        "shop": "electronics"
      }
    },
    {
      "type": "node",
      "id": 4386506594,
      "lat": 13.0252235,
      "lon": 77.603522,
      "tags": {
        "name": "Mithai Ghar",
        "shop": "confectionery"
      }
    },
    {
      "type": "node",
      "id": 4386506595,
      "lat": 13.025264,
      "lon": 77.6035286,
      "tags": {
        "name": "Fashion House",
        "shop": "clothes"
      }
    },
    {
      "type": "node",
      "id": 4386506596,
      "lat": 13.0252803,
      "lon": 77.6035419,
      "tags": {
        "name": "Vigbhan Men's Beauty Salon",
        "shop": "hairdresser"
      }
    },
    {
      "type": "node",
      "id": 4386506597,
      "lat": 13.0252958,
      "lon": 77.6035419,
      "tags": {
        "name": "Dharmesh Jewellers",
        "shop": "jewelry"
      }
    },
    {
      "type": "node",
      "id": 4386506598,
      "lat": 13.0265752,
      "lon": 77.6040303,
      "tags": {
        "name": "Zooland Aquatic",
        "shop": "pet"
      }
    },
    {
      "type": "node",
      "id": 4386506599,
      "lat": 13.0266474,
      "lon": 77.6040449,
      "tags": {
        "name": "Golden Choice Footwear",
        "shop": "shoes"
      }
    },
    {
      "type": "node",
      "id": 4386506600,
      "lat": 13.0266933,
      "lon": 77.6041031,
      "tags": {
        "name": "Seek n Hide Tours and Travels",
        "shop": "convenience"
      }
    },
    {
      "type": "node",
      "id": 4386506601,
      "lat": 13.0269861,
      "lon": 77.6041889,
      "tags": {
        "amenity": "atm",
        "operator": "ICICI Bank"
      }
    },
    {
      "type": "node",
      "id": 4386506602,
      "lat": 13.0275985,
      "lon": 77.6043248,
      "tags": {
        "name": "Khushi Beauty Parlour",
        "shop": "cosmetics"
      }
    },
    {
      "type": "node",
      "id": 4386506603,
      "lat": 13.0277189,
      "lon": 77.6044033,
      "tags": {
        "name": "Chaitra Pan",
        "shop": "convenience"
      }
    },
    {
      "type": "node",
      "id": 4386506604,
      "lat": 13.0277645,
      "lon": 77.604407,
      "tags": {
        "name": "KGN FootWear",
        "shop": "shoes"
      }
    },
    {
      "type": "node",
      "id": 4386506605,
      "lat": 13.0277965,
      "lon": 77.604407,
      "tags": {
        "name": "A1 Mobile Service Center",
        "shop": "mobile_phone"
      }
    },
    {
      "type": "node",
      "id": 4386506606,
      "lat": 13.0278097,
      "lon": 77.6043901,
      "tags": {
        "amenity": "atm",
        "operator": "Axis Bank"
      }
    },
    {
      "type": "node",
      "id": 4386506689,
      "lat": 13.0234261,
      "lon": 77.6028721,
      "tags": {
        "name": "Darshan Traders",
        "shop": "department_store"
      }
    },
    {
      "type": "node",
      "id": 4386506690,
      "lat": 13.0248424,
      "lon": 77.6034721,
      "tags": {
        "name": "Shakti Traders",
        "shop": "department_store"
      }
    },
    {
      "type": "node",
      "id": 4386506691,
      "lat": 13.0249944,
      "lon": 77.6035016,
      "tags": {
        "name": "Excellent Dry Cleaners",
        "shop": "laundry"
      }
    },
    {
      "type": "node",
      "id": 4386506692,
      "lat": 13.0250462,
      "lon": 77.6035174,
      "tags": {
        "name": "Sriram Hoke Appliances",
        "shop": "electronics"
      }
    },
    {
      "type": "node",
      "id": 4386506693,
      "lat": 13.0252676,
      "lon": 77.6036464,
      "tags": {
        "name": "Jingle Bells",
        "shop": "gift"
      }
    },
    {
      "type": "node",
      "id": 4386506694,
      "lat": 13.0264161,
      "lon": 77.6040116,
      "tags": {
        "amenity": "fast_food",
        "name": "HMS Fast Food"
      }
    },
    {
      "type": "node",
      "id": 4386506695,
      "lat": 13.0266014,
      "lon": 77.6040359,
      "tags": {
        "name": "Om Ganesh Juice Center",
        "shop": "convenience"
      }
    },
    {
      "type": "node",
      "id": 4386506696,
      "lat": 13.0274651,
      "lon": 77.6042813,
      "tags": {
        "name": "Durga Pan Bhandar",
        "shop": "convenience"
      }
    },
    {
      "type": "node",
      "id": 4386506697,
      "lat": 13.0275697,
      "lon": 77.6043333,
      "tags": {
        "name": "Mummy Daddy Garments",
        "shop": "clothes"
      }
    },
    {
      "type": "node",
      "id": 4386506789,
      "lat": 13.023718,
      "lon": 77.6029059,
      "tags": {
        "name": "Daya Enterprises",
        "shop": "computer"
      }
    },
    {
      "type": "node",
      "id": 4386506790,
      "lat": 13.0267774,
      "lon": 77.6040589,
      "tags": {
        "name": "Maharaja Hi Fashion",
        "shop": "clothes"
      }
    },
    {
      "type": "node",
      "id": 4386506791,
      "lat": 13.0269118,
      "lon": 77.6041118,
      "tags": {
        "name": "Bangalore Time Center",
        "shop": "convenience"
      }
    },
    {
      "type": "node",
      "id": 4386506792,
      "lat": 13.0275104,
      "lon": 77.6043235,
      "tags": {
        "amenity": "clinic",
        "name": "Anagha Polyclinic"
      }
    },
    {
      "type": "node",
      "id": 4386506793,
      "lat": 13.0275425,
      "lon": 77.6043333,
      "tags": {
        "amenity": "pharmacy",
        "name": "Anagha Pharma"
      }
    },
    {
      "type": "node",
      "id": 4386506794,
      "lat": 13.027668,
      "lon": 77.6043446,
      "tags": {
        "name": "Sleep Good Matress",
        "shop": "convenience"
      }
    },
    {
      "type": "node",
      "id": 4386506889,
      "lat": 13.0237732,
      "lon": 77.6029993,
      "tags": {
        "name": "Abhirami Tenthouse",
        "shop": "outdoor"
      }
    },
    {
      "type": "node",
      "id": 4386506890,
      "lat": 13.0238453,
      "lon": 77.6030488,
      "tags": {
        "name": "Ravi's Cyber Cafe",
        "shop": "copyshop"
      }
    },
    {
      "type": "node",
      "id": 4386506891,
      "lat": 13.0239189,
      "lon": 77.603075,
      "tags": {
        "name": "Vigbhan Salon",
        "shop": "hairdresser"
      }
    },
    {
      "type": "node",
      "id": 4386506892,
      "lat": 13.0240447,
      "lon": 77.6031596,
      "tags": {
        "name": "Vinay Bangle Store",
        "shop": "convenience"
      }
    },
    {
      "type": "node",
      "id": 4386506893,
      "lat": 13.0249337,
      "lon": 77.6034778,
      "tags": {
        "name": "Sri Manjunath Pooja Stall",
        "shop": "department_store"
      }
    },
    {
      "type": "node",
      "id": 4386506894,
      "lat": 13.02502,
      "lon": 77.6035096,
      "tags": {
        "name": "Guru",
        "shop": "department_store"
      }
    },
    {
      "type": "node",
      "id": 4386506896,
      "lat": 13.0253895,
      "lon": 77.6036609,
      "tags": {
        "name": "Sunray Enterprises",
        "shop": "mobile_phone"
      }
    },
    {
      "type": "node",
      "id": 4386506897,
      "lat": 13.0253304,
      "lon": 77.6037215,
      "tags": {
        "leisure": "fitness_centre",
        "name": "Life Care"
      }
    },
    {
      "type": "node",
      "id": 4386506899,
      "lat": 13.0269196,
      "lon": 77.6041622,
      "tags": {
        "name": "China Bazzar",
        "shop": "gift"
      }
    },
    {
      "type": "node",
      "id": 4386506900,
      "lat": 13.0272795,
      "lon": 77.6042868,
      "tags": {
        "amenity": "clinic",
        "name": "Gandhi Dental Clinic"
      }
    },
    {
      "type": "node",
      "id": 4386506901,
      "lat": 13.0273351,
      "lon": 77.6042946,
      "tags": {
        "name": "Pavithra Enterprises",
        "shop": "convenience"
      }
    },
    {
      "type": "node",
      "id": 4386506902,
      "lat": 13.0275755,
      "lon": 77.6043124,
      "tags": {
        "amenity": "cafe",
        "name": "Cool Corner"
      }
    },
    {
      "type": "node",
      "id": 4386506989,
      "lat": 13.0240899,
      "lon": 77.6032598,
      "tags": {
        "amenity": "recycling",
        "name": "Murugan Old Paper Mart"
      }
    },
    {
      "type": "node",
      "id": 4386506990,
      "lat": 13.0246642,
      "lon": 77.6033983,
      "tags": {
        "name": "Zain Communication",
        "shop": "mobile_phone"
      }
    },
    {
      "type": "node",
      "id": 4386506991,
      "lat": 13.0247965,
      "lon": 77.6034489,
      "tags": {
        "name": "Karnataka Provision Stores",
        "shop": "department_store"
      }
    },
    {
      "type": "node",
      "id": 4386506992,
      "lat": 13.0268892,
      "lon": 77.6041118,
      "tags": {
        "amenity": "fast_food",
        "name": "Five Star Chicken"
      }
    },
    {
      "type": "node",
      "id": 4386507089,
      "lat": 13.0244352,
      "lon": 77.6033228,
      "tags": {
        "name": "Ebenezer Men's and Women's Salon",
        "shop": "hairdresser"
      }
    },
    {
      "type": "node",
      "id": 4386507090,
      "lat": 13.0246144,
      "lon": 77.6033711,
      "tags": {
        "name": "Roxy Dry Cleaners",
        "shop": "laundry"
      }
    },
    {
      "type": "node",
      "id": 4386507091,
      "lat": 13.0248622,
      "lon": 77.6034844,
      "tags": {
        "name": "Padma Digital Studio",
        "shop": "photo"
      }
    },
    {
      "type": "node",
      "id": 4386507092,
      "lat": 13.0252114,
      "lon": 77.6034226,
      "tags": {
        "name": "Looks Beauty Parlour",
        "shop": "cosmetics"
      }
    },
    {
      "type": "node",
      "id": 4386507093,
      "lat": 13.0254198,
      "lon": 77.6036818,
      "tags": {
        "name": "Infa Collections",
        "shop": "gift"
      }
    },
    {
      "type": "node",
      "id": 4386507094,
      "lat": 13.025341,
      "lon": 77.6036943,
      "tags": {
        "amenity": "pharmacy",
        "name": "Rudra Medicals and General Store"
      }
    },
    {
      "type": "node",
      "id": 4386507095,
      "lat": 13.0267226,
      "lon": 77.6041132,
      "tags": {
        "amenity": "hospital",
        "name": "Vignesh Lab and Diagnostics"
      }
    },
    {
      "type": "node",
      "id": 4386507096,
      "lat": 13.0270235,
      "lon": 77.6041889,
      "tags": {
        "amenity": "pharmacy",
        "name": "Medplus",
        "name:kn": "ಮೆಡ್‍ಪ್ಲಸ್"
      }
    },
    {
      "type": "node",
      "id": 4386507097,
      "lat": 13.0269891,
      "lon": 77.6041517,
      "tags": {
        "name": "All Brands Collections",
        "shop": "shoes"
      }
    },
    {
      "type": "node",
      "id": 4386507098,
      "lat": 13.0274094,
      "lon": 77.6042695,
      "tags": {
        "name": "Mobile Hut",
        "shop": "mobile_phone"
      }
    },
    {
      "type": "node",
      "id": 4386507099,
      "lat": 13.0278285,
      "lon": 77.6044191,
      "tags": {
        "name": "DK Kova",
        "shop": "confectionery"
      }
    },
    {
      "type": "node",
      "id": 4386507389,
      "lat": 13.0248156,
      "lon": 77.6034597,
      "tags": {
        "name": "Sri Manjunatha Vegetable Stores",
        "shop": "greengrocer"
      }
    },
    {
      "type": "node",
      "id": 4386507391,
      "lat": 13.0274943,
      "lon": 77.6042931,
      "tags": {
        "name": "New Lovely Trends",
        "shop": "gift"
      }
    },
    {
      "type": "node",
      "id": 4386507689,
      "lat": 13.0271564,
      "lon": 77.6042369,
      "tags": {
        "name": "Jagathamba Bankers and Jewellers",
        "shop": "jewelry"
      }
    },
    {
      "type": "node",
      "id": 4445687662,
      "lat": 13.0314172,
      "lon": 77.6043283,
      "tags": {
        "addr:city": "Bangalore",
        "addr:housenumber": "#56/2",
        "addr:postcode": "560032",
        "addr:street": "Sulthanpalya Main Road, 1st Floor,R.T.Nagar Post",
        "amenity": "pharmacy",
        "name": "Shiva Homoeo Medicals",
        "phone": "+9199165 21079"
      }
    },
    {
      "type": "node",
      "id": 4445802548,
      "lat": 13.0292674,
      "lon": 77.6045683,
      "tags": {
        "addr:city": "Bangalore",
        "addr:housenumber": "#53",
        "addr:postcode": "560032",
        "addr:street": "Sulthanpalya Main Road, 12th Cross,Manorayana Palya,",
        "amenity": "clinic",
        "name": "Synergy Health Care",
        "phone": "080500 80120",
        "source": "http://www.bangalorehospital.co.in/"
      }
    },
    {
      "type": "node",
      "id": 4445886952,
      "lat": 13.0316481,
      "lon": 77.6023154,
      "tags": {
        "addr:city": "Bangalore",
        "addr:postcode": "560032",
        "addr:street": "Sultanpalya Main Road, Near-Bus Stand, R T Nagar",
        "amenity": "hospital",
        "name": "Sanjeevini Children & Women Clinic",
        "phone": "080 2292 4422"
      }
    },
    {
      "type": "node",
      "id": 4446306864,
      "lat": 13.02454,
      "lon": 77.5950447,
      "tags": {
        "addr:city": "Bangalore",
        "addr:housenumber": "#1",
        "addr:postcode": "560032",
        "addr:street": "Dinnur Main Road,  Dinnur Main Road, Ex Servicemen Colony,RT Nagar",
        "amenity": "pharmacy",
        "name": "Popular Medical And General",
        "phone": "08023338662",
        "source": "bangalorehospital.co.in"
      }
    },
    {
      "type": "node",
      "id": 4446970715,
      "lat": 13.0192775,
      "lon": 77.5968129,
      "tags": {
        "addr:city": "bangalore",
        "addr:housenumber": "76",
        "addr:postcode": "560032",
        "addr:street": "14th Cross Rd, Thimaiah Garden, Devara Jeevanahalli",
        "amenity": "pharmacy",
        "name": "Rajkumar Diagnostics",
        "phone": "+919538244420",
        "source": "www.justdial.com"
      }
    },
    {
      "type": "node",
      "id": 4488035144,
      "lat": 13.0235383,
      "lon": 77.6090101,
      "tags": {
        "addr:city": "Bangalore",
        "addr:housenumber": "18",
        "addr:postcode": "560032",
        "addr:street": "Dinnur Main Road,Ambedkar Medical College Road",
        "name": "Ahmeds Retail",
        "phone": "(91)-80-23656566",
        "shop": "supermarket"
      }
    },
    {
      "type": "node",
      "id": 4489693189,
      "lat": 13.0240504,
      "lon": 77.6030297,
      "tags": {
        "addr:city": "bangalore",
        "addr:housenumber": "551",
        "addr:postcode": "560032",
        "addr:street": "2nd Block,2nd Main Road, Kanaka Nagar Rt Nagar",
        "leisure": "sports_centre",
        "name": "Roots Fitness",
        "opening_hours": "9:30-22:00",
        "phone": "(91)-80-33055480",
        "sport": "gymnastics"
      }
    },
    {
      "type": "node",
      "id": 4489730800,
      "lat": 13.0241022,
      "lon": 77.5972276,
      "tags": {
        "addr:city": "bangalore",
        "addr:postcode": "560032",
        "addr:street": "3rd Floor, Dinnur Main Road, R T Nagar",
        "leisure": "sports_centre",
        "name": "Power Cuts And Curves Gym And Fitness Centre",
        "opening_hours": "06:00-12:30",
        "phone": "(91)-9731420000",
        "sport": "gymnastics",
        "website": "www.powercutsncurves.com"
      }
    },
    {
      "type": "node",
      "id": 4489826333,
      "lat": 13.0218675,
      "lon": 77.597868,
      "tags": {
        "addr:city": "Bengaluru",
        "addr:housenumber": "551",
        "addr:postcode": "560032",
        "addr:street": ", 2nd Floor, 2nd Cross, 2nd Block, R.T Nagar, Bhadrappa Layout, RT Nagar, , Karnataka",
        "leisure": "sports_centre",
        "name": "Reach Roots Fitness",
        "opening_hours": "5:30-22:00",
        "phone": "080 4128 9578",
        "website": "rootsfitness.co.in"
      }
    },
    {
      "type": "node",
      "id": 4577564292,
      "lat": 13.0164835,
      "lon": 77.6051223,
      "tags": {
        "amenity": "place_of_worship",
        "name": "Kaval Byrasandra",
        "name:en": "kavalbysandra",
        "name:kn": "ಕವಲ್ ಬೈರಸಂದ್ರ"
      }
    },
    {
      "type": "node",
      "id": 4697854891,
      "lat": 13.0264736,
      "lon": 77.599251,
      "tags": {
        "amenity": "school",
        "name": "Kingston school",
        "name:en": "Kingston school"
      }
    },
    {
      "type": "node",
      "id": 4697889489,
      "lat": 13.0263631,
      "lon": 77.5996649,
      "tags": {
        "name": "Ashok bakery",
        "name:en": "Ashok bakery",
        "shop": "bakery"
      }
    },
    {
      "type": "node",
      "id": 5329386293,
      "lat": 13.0264895,
      "lon": 77.6040339,
      "tags": {
        "highway": "bus_stop",
        "name": "Shaji Stores",
        "shop": "department_store"
      }
    },
    {
      "type": "node",
      "id": 5441831152,
      "lat": 13.0221222,
      "lon": 77.6034687,
      "tags": {
        "addr:city": "Bangalore",
        "addr:postcode": "560032",
        "addr:street": "KHB Main Road",
        "amenity": "place_of_worship",
        "name": "Ganesha Temple",
        "name:kn": "ಗಣೇಶ ದೇವಸ್ಥಾನ",
        "religion": "hindu"
      }
    },
    {
      "type": "node",
      "id": 6937890455,
      "lat": 13.0237316,
      "lon": 77.5941463,
      "tags": {
        "addr:district": "Bengaluru Urban",
        "addr:full": "No 80, P&T Colony R T Nagar",
        "addr:postcode": "560032",
        "addr:state": "Karnataka",
        "amenity": "hospital",
        "name": "Chaitanya Hospital",
        "name:kn": "ಚೈತನ್ಯ ಆಸ್ಪತ್ರೆ",
        "source": "OpenGovernmentData"
      }
    },
    {
      "type": "node",
      "id": 6937963276,
      "lat": 13.0261691,
      "lon": 77.5984029,
      "tags": {
        "addr:district": "Bengaluru Urban",
        "addr:full": "#7, 2nd Main, 7Th Cross Dinnur, Rt Nagar Post",
        "addr:postcode": "560032",
        "addr:state": "Karnataka",
        "amenity": "clinic",
        "name": "Kids Care Health Centre",
        "source": "OpenGovernmentData",
        "wheelchair": "limited"
      }
    },
    {
      "type": "node",
      "id": 6938547661,
      "lat": 13.0289685,
      "lon": 77.6045479,
      "tags": {
        "addr:district": "Bengaluru Urban",
        "addr:full": "# 125 1st Cross Bhuwaneshwarinagar Sultanpalya Main Road R T Nagar Post",
        "addr:postcode": "560032",
        "addr:state": "Karnataka",
        "amenity": "hospital",
        "name": "Ashirwad Hospital",
        "source": "OpenGovernmentData"
      }
    },
    {
      "type": "node",
      "id": 6938868535,
      "lat": 13.0241654,
      "lon": 77.6033556,
      "tags": {
        "addr:district": "Bengaluru Urban",
        "addr:full": "No. 9/8, 1st Main, Sultan Pallya, Rt Nagar Post",
        "addr:postcode": "560032",
        "addr:state": "Karnataka",
        "amenity": "clinic",
        "name": "Shanmuga Nursing Home, Bengaluru Urban",
        "source": "OpenGovernmentData"
      }
    },
    {
      "type": "node",
      "id": 6939076687,
      "lat": 13.0212406,
      "lon": 77.6070739,
      "tags": {
        "addr:district": "Bengaluru Urban",
        "addr:full": "91, Kavalbhyrasandra Dr Amc Road, Rt Nagar Post R T Nagar",
        "addr:postcode": "560032",
        "addr:state": "Karnataka",
        "amenity": "hospital",
        "name": "Manju Sree Hospital",
        "name:kn": "ಮಂಜುಶ್ರೀ ಆಸ್ಪತ್ರೆ",
        "source": "OpenGovernmentData"
      }
    },
    {
      "type": "node",
      "id": 6947287709,
      "lat": 13.0244555,
      "lon": 77.6003999,
      "tags": {
        "addr:district": "Bengaluru Urban",
        "addr:full": "No.4, 6th Cross, Ganesha Block, Dinnur Main Road",
        "addr:postcode": "560032",
        "addr:state": "Karnataka",
        "addr:subdistrict": "Ganesha Block",
        "amenity": "clinic",
        "name": "Pradnya Nethralaya",
        "operator:type": "private",
        "source": "OpenGovernmentData",
        "website": "https://www.pradnyanethralaya.com/"
      }
    },
    {
      "type": "node",
      "id": 6947430278,
      "lat": 13.0263344,
      "lon": 77.595128,
      "tags": {
        "addr:district": "Bengaluru Urban",
        "addr:full": "#200/A, Hmt Layout, Karthik Complex, Dinnur Main Road, R.T. Nagar",
        "addr:postcode": "560032",
        "addr:state": "Karnataka",
        "amenity": "hospital",
        "name": "Poornima Hospital",
        "source": "OpenGovernmentData"
      }
    },
    {
      "type": "node",
      "id": 6948590938,
      "lat": 13.0241863,
      "lon": 77.5960574,
      "tags": {
        "addr:district": "Bengaluru Urban",
        "addr:full": "No.2, Ex-Servicemen Colony, 5Th Cross, Dinnur Main Road, R.T.Nagar",
        "addr:postcode": "560032",
        "addr:state": "Karnataka",
        "amenity": "hospital",
        "name": "Premier Hospital",
        "source": "OpenGovernmentData"
      }
    },
    {
      "type": "node",
      "id": 9082429618,
      "lat": 13.0259658,
      "lon": 77.6060233,
      "tags": {
        "addr:postcode": "560032",
        "amenity": "pharmacy",
        "name": "Jan Aushadhi"
      }
    },
    {
      "type": "node",
      "id": 10293921744,
      "lat": 13.0244058,
      "lon": 77.5941852,
      "tags": {
        "diet:vegetarian": "only",
        "name": "Simpli Namdhari's",
        "organic": "only",
        "shop": "supermarket",
        "website": "https://www.simplinamdharis.com/"
      }
    },
    {
      "type": "node",
      "id": 11119061439,
      "lat": 13.0304639,
      "lon": 77.6080348,
      "tags": {
        "name": "Kaveri Jewellers",
        "shop": "jewelry"
      }
    },
    {
      "type": "node",
      "id": 11119061495,
      "lat": 13.029036,
      "lon": 77.6071212,
      "tags": {
        "brand": "DMart",
        "brand:wikidata": "Q5203271",
        "name": "DMart",
        "shop": "supermarket"
      }
    },
    {
      "type": "node",
      "id": 11119061496,
      "lat": 13.0272269,
      "lon": 77.6066805,
      "tags": {
        "amenity": "fast_food",
        "name": "Mad Eats"
      }
    },
    {
      "type": "node",
      "id": 11119061497,
      "lat": 13.0270827,
      "lon": 77.6066478,
      "tags": {
        "name": "Cake Magic",
        "shop": "bakery"
      }
    },
    {
      "type": "node",
      "id": 11119061498,
      "lat": 13.0252044,
      "lon": 77.6057928,
      "tags": {
        "name": "Ganga Bakery",
        "shop": "bakery"
      }
    },
    {
      "type": "node",
      "id": 11119061503,
      "lat": 13.0217968,
      "lon": 77.6029889,
      "tags": {
        "amenity": "bank",
        "brand": "Federal Bank",
        "brand:wikidata": "Q2044983",
        "name": "Federal Bank"
      }
    },
    {
      "type": "node",
      "id": 11119061504,
      "lat": 13.0218079,
      "lon": 77.6029578,
      "tags": {
        "brand": "Vodafone Idea",
        "brand:wikidata": "Q1656673",
        "name": "Vodafone Idea",
        "shop": "mobile_phone"
      }
    },
    {
      "type": "node",
      "id": 11119061505,
      "lat": 13.0219401,
      "lon": 77.6026255,
      "tags": {
        "amenity": "restaurant",
        "name": "Sri Udupi Grand"
      }
    },
    {
      "type": "node",
      "id": 11119061507,
      "lat": 13.026009,
      "lon": 77.6016293,
      "tags": {
        "amenity": "fast_food",
        "name": "Chintu Chit Chat Centre Bangarapet Pani Puri"
      }
    },
    {
      "type": "node",
      "id": 11148749731,
      "lat": 13.0170032,
      "lon": 77.6043782,
      "tags": {
        "amenity": "fast_food",
        "cuisine": "regional",
        "name": "Inderjeet Layout",
        "operator": "BBMP"
      }
    },
    {
      "type": "node",
      "id": 12846322963,
      "lat": 13.0292958,
      "lon": 77.6013165,
      "tags": {
        "amenity": "place_of_worship",
        "religion": "hindu"
      }
    },
    {
      "type": "way",
      "id": 45739922,
      "center": {
        "lat": 13.0184494,
        "lon": 77.595658
      },
      "tags": {
        "amenity": "school"
      }
    },
    {
      "type": "way",
      "id": 45740308,
      "center": {
        "lat": 13.0194919,
        "lon": 77.5962353
      },
      "tags": {
        "leisure": "park"
      }
    },
    {
      "type": "way",
      "id": 45740327,
      "center": {
        "lat": 13.0213685,
        "lon": 77.5970546
      },
      "tags": {
        "leisure": "park"
      }
    },
    {
      "type": "way",
      "id": 45740328,
      "center": {
        "lat": 13.0209333,
        "lon": 77.5984875
      },
      "tags": {
        "landuse": "commercial",
        "leisure": "resort",
        "name": "Patel's Inn Resort"
      }
    },
    {
      "type": "way",
      "id": 175278312,
      "center": {
        "lat": 13.0202739,
        "lon": 77.595591
      },
      "tags": {
        "amenity": "public_building",
        "building": "yes"
      }
    },
    {
      "type": "way",
      "id": 175278313,
      "center": {
        "lat": 13.0205158,
        "lon": 77.5947013
      },
      "tags": {
        "amenity": "public_building",
        "building": "yes"
      }
    },
    {
      "type": "way",
      "id": 211067633,
      "center": {
        "lat": 13.0269684,
        "lon": 77.6004156
      },
      "tags": {
        "amenity": "school",
        "name": "Vivekananda centre",
        "name:kn": "ವಿವೇಕನಂದ ಕೇಂದ್ರ"
      }
    },
    {
      "type": "way",
      "id": 278457027,
      "center": {
        "lat": 13.0223671,
        "lon": 77.5954429
      },
      "tags": {
        "leisure": "park",
        "name": "Park at RT Nagar"
      }
    },
    {
      "type": "way",
      "id": 347120887,
      "center": {
        "lat": 13.0267744,
        "lon": 77.5987021
      },
      "tags": {
        "amenity": "school",
        "building": "yes",
        "name": "Vatican High School"
      }
    },
    {
      "type": "way",
      "id": 348111568,
      "center": {
        "lat": 13.0152353,
        "lon": 77.6042113
      },
      "tags": {
        "amenity": "place_of_worship",
        "building": "yes",
        "religion": "hindu"
      }
    },
    {
      "type": "way",
      "id": 353378505,
      "center": {
        "lat": 13.0232026,
        "lon": 77.5959511
      },
      "tags": {
        "leisure": "park"
      }
    },
    {
      "type": "way",
      "id": 839044763,
      "center": {
        "lat": 13.0194822,
        "lon": 77.5946407
      },
      "tags": {
        "leisure": "park"
      }
    },
    {
      "type": "way",
      "id": 1117353463,
      "center": {
        "lat": 13.0225862,
        "lon": 77.6028469
      },
      "tags": {
        "leisure": "park"
      }
    },
    {
      "type": "way",
      "id": 1125698046,
      "center": {
        "lat": 13.0258289,
        "lon": 77.5947264
      },
      "tags": {
        "amenity": "school"
      }
    },
    {
      "type": "way",
      "id": 1198647091,
      "center": {
        "lat": 13.0293789,
        "lon": 77.60653
      },
      "tags": {
        "access": "private",
        "leisure": "swimming_pool"
      }
    },
    {
      "type": "way",
      "id": 1202598188,
      "center": {
        "lat": 13.0286366,
        "lon": 77.6083318
      },
      "tags": {
        "access": "private",
        "leisure": "park"
      }
    },
    {
      "type": "way",
      "id": 1202598190,
      "center": {
        "lat": 13.0279258,
        "lon": 77.6093161
      },
      "tags": {
        "amenity": "place_of_worship",
        "religion": "hindu"
      }
    },
    {
      "type": "way",
      "id": 1202598208,
      "center": {
        "lat": 13.0143615,
        "lon": 77.6056755
      },
      "tags": {
        "amenity": "cinema",
        "name": "Vinayaka Theater",
        "name:kn": "ವಿನಾಯಕ"
      }
    },
    {
      "type": "way",
      "id": 1385496251,
      "center": {
        "lat": 13.0283296,
        "lon": 77.6102895
      },
      "tags": {
        "amenity": "school"
      }
    },
    {
      "type": "way",
      "id": 1385583281,
      "center": {
        "lat": 13.0222556,
        "lon": 77.6081873
      },
      "tags": {
        "amenity": "fuel"
      }
    },
    {
      "type": "way",
      "id": 1386912276,
      "center": {
        "lat": 13.0220826,
        "lon": 77.6021684
      },
      "tags": {
        "amenity": "college",
        "name": "Lal Bahabur Shastri Degree College"
      }
    },
    {
      "type": "way",
      "id": 1387155424,
      "center": {
        "lat": 13.0301395,
        "lon": 77.6079288
      },
      "tags": {
        "amenity": "fuel",
        "brand": "Bharat Petroleum",
        "brand:wikidata": "Q854826",
        "operator": "Bharat Petroleum"
      }
    },
    {
      "type": "way",
      "id": 1387946479,
      "center": {
        "lat": 13.0291677,
        "lon": 77.6066994
      },
      "tags": {
        "access": "private",
        "leisure": "garden"
      }
    },
    {
      "type": "way",
      "id": 1387957381,
      "center": {
        "lat": 13.0318083,
        "lon": 77.6030804
      },
      "tags": {
        "amenity": "place_of_worship",
        "landuse": "religious",
        "name": "Sri Lakshmi Narasimha Swamy Temple",
        "religion": "hindu"
      }
    }
  ]
}