{
  "area_name": "Dr. Shivaram Karanth Layout",
  "osm_id": 10233407653,
  "osm_type": "node",
  "place_type": "suburb",
  "amenity_count": 12,
  "amenities": [
    {
      "type": "node",
      "id": 12797203893,
      "lat": 13.0963657,
      "lon": 77.5288171,
      "tags": {
        "amenity": "restaurant",
        "name": "Bella Ciao"
      }
    },
    {
      "type": "node",
      "id": 12797203894,
      "lat": 13.096802,
      "lon": 77.5299114,
      "tags": {
        "amenity": "pub",
        "name": "Tikki Village Cafe And Resto Bar"
      }
    },
    {
      "type": "way",
      "id": 215261069,
      "center": {
        "lat": 13.0962261,
        "lon": 77.5271284
      },
      "tags": {
        "amenity": "school",
        "barrier": "fence",
        "fence_type": "barbed_wire",
        "material": "steel",
        "name": "Ashoka International School"
      }
    },
    {
      "type": "way",
      "id": 1308141572,
      "center": {
        "lat": 13.1038517,
        "lon": 77.5339321
      },
      "tags": {
        "amenity": "crematorium",
        "name": "MS Palya Crematorium"
      }
    },
    {
      "type": "way",
      "id": 1382219451,
      "center": {
        "lat": 13.0947813,
        "lon": 77.5319416
      },
      "tags": {
        "amenity": "school",
        "name": "Basil Woods Nature School"
      }
    },
    {
      "type": "way",
      "id": 1382219453,
      "center": {
        "lat": 13.106975,
        "lon": 77.5261268
      },
      "tags": {
        "leisure": "park"
      }
    },
    {
      "type": "way",
      "id": 1382219454,
      "center": {
        "lat": 13.1110164,
        "lon": 77.5276705
      },
      "tags": {
        "amenity": "fuel"
      }
    },
    {
      "type": "way",
      "id": 1382219456,
      "center": {
        "lat": 13.1074317,
        "lon": 77.5358002
      },
      "tags": {
        "amenity": "events_venue",
        "landuse": "commercial",
        "name": "The Peacock Grove"
      }
    },
    {
      "type": "way",
      "id": 1382219458,
      "center": {
        "lat": 13.1105614,
        "lon": 77.5271547
      },
      "tags": {
        "amenity": "school"
      }
    },
    {
      "type": "way",
      "id": 1409396163,
      "center": {
        "lat": 13.1019105,
        "lon": 77.5213926
      },
      "tags": {
        "amenity": "place_of_worship",
        "building": "yes",
        "religion": "hindu"
      }
    },
    {
      "type": "way",
      "id": 1409396190,
      "center": {
        "lat": 13.0936435,
        "lon": 77.5290276
      },
      "tags": {
        "amenity": "school"
      }
    },
    {
      "type": "way",
      "id": 1419417161,
      "center": {
        "lat": 13.1057422,
        "lon": 77.5248883
      },
      "tags": {
        "leisure": "park"
      }
    }
  ]
}