{
  "area_name": "K.S. Nissar Ahmed Ward",
  "osm_id": 19883442,
  "osm_type": "relation",
  "place_type": "administrative",
  "amenity_count": 21,
  "amenities": [
    {
      "type": "node",
      "id": 1078188306,
      "lat": 12.9979379,
      "lon": 77.6706603,
      "tags": {
        "amenity": "fuel",
        "brand": "Bharat Petroleum",
        "brand:wikidata": "Q854826",
        "compressed_air": "yes",
        "name": "Gokula Petrol / Gas Station"
      }
    },
    {
      "type": "node",
      "id": 2618750045,
      "lat": 12.9969842,
      "lon": 77.6688447,
      "tags": {
        "amenity": "place_of_worship",
        "religion": "hindu"
      }
    },
    {
      "type": "node",
      "id": 4247041175,
      "lat": 12.9914365,
      "lon": 77.6685256,
      "tags": {
        "amenity": "place_of_worship",
        "name": "Bethal Mar Church",
        "religion": "christian"
      }
    },
    {
      "type": "node",
      "id": 4249991281,
      "lat": 12.9949687,
      "lon": 77.6659804,
      "tags": {
        "name": "Haiku Honda",
        "shop": "motorcycle"
      }
    },
    {
      "type": "node",
      "id": 4489823636,
      "lat": 12.9942151,
      "lon": 77.6662522,
      "tags": {
        "addr:city": "bangalore",
        "addr:housenumber": "100, 1st Floor, Place on Earth",
        "addr:postcode": "560016",
        "addr:street": "2nd Main Road, Pai Layout, Mahadevapura",
        "name": "Naturals Unisex Salon And Spa",
        "opening_hours": "10:00-21:00",
        "phone": "080 4113 2266",
        "shop": "beauty",
        "website": "https://naturals.in/"
      }
    },
    {
      "type": "node",
      "id": 4489920100,
      "lat": 12.9953943,
      "lon": 77.6670817,
      "tags": {
        "addr:city": "bangalore",
        "addr:housenumber": "8/2",
        "addr:postcode": "560037",
        "addr:street": "BEML Layout, Brookfield Main Road, Kundanahalli Village, BEML Layout, Brookefield",
        "name": "Naturals Unisex Salon And Spa",
        "opening_hours": "10:00-20:00",
        "phone": "080588 67780",
        "shop": "beauty",
        "website": "https://naturals.in/"
      }
    },
    {
      "type": "node",
      "id": 4886691221,
      "lat": 12.9945917,
      "lon": 77.6669317,
      "tags": {
        "amenity": "restaurant",
        "cuisine": "chinese;indian",
        "name": "Sri Krishna restaurant",
        "name:en": "Sri Krishna restaurant"
      }
    },
    {
      "type": "node",
      "id": 5281839989,
      "lat": 12.9981365,
      "lon": 77.6712356,
      "tags": {
        "amenity": "bank",
        "atm": "yes",
        "brand": "Axis Bank",
        "brand:wikidata": "Q2003549",
        "name": "Axis Bank"
      }
    },
    {
      "type": "node",
      "id": 10303904018,
      "lat": 12.9952617,
      "lon": 77.6663992,
      "tags": {
        "air_conditioning": "yes",
        "amenity": "fast_food",
        "brand": "Domino's",
        "brand:wikidata": "Q839466",
        "check_date": "2023-01-04",
        "cuisine": "pizza",
        "diet:vegetarian": "yes",
        "indoor_seating": "yes",
        "name": "Domino's",
        "name:kn": "ಡಾಮಿನೋಸ್",
        "outdoor_seating": "no",
        "smoking": "no",
        "source": "survey",
        "takeaway": "yes"
      }
    },
    {
      "type": "node",
      "id": 10703105217,
      "lat": 13.0005386,
      "lon": 77.6766013,
      "tags": {
        "addr:floor": "G",
        "amenity": "atm",
        "brand": "IndusInd Bank",
        "brand:wikidata": "Q2040323",
        "cash_in": "no",
        "check_date": "2025-01-27",
        "level": "0",
        "name": "IndusInd Bank",
        "name:kn": "ಇಂಡಸ್ಇಂಡ್",
        "opening_hours": "24/7",
        "operator": "IndusInd Bank",
        "operator:wikidata": "Q2040323",
        "source": "survey"
      }
    },
    {
      "type": "node",
      "id": 10703105218,
      "lat": 13.0005508,
      "lon": 77.6762035,
      "tags": {
        "amenity": "restaurant",
        "bar": "no",
        "check_date": "2025-11-15",
        "cuisine": "indian",
        "diet:vegetarian": "only",
        "highchair": "no",
        "name": "Bengaluru Bites",
        "outdoor_seating": "no",
        "source": "survey"
      }
    },
    {
      "type": "node",
      "id": 12551627587,
      "lat": 12.9985473,
      "lon": 77.6664255,
      "tags": {
        "leisure": "fitness_station",
        "sport": "fitness"
      }
    },
    {
      "type": "node",
      "id": 12551627588,
      "lat": 12.9985915,
      "lon": 77.6664724,
      "tags": {
        "leisure": "fitness_station",
        "sport": "fitness"
      }
    },
    {
      "type": "node",
      "id": 12787887504,
      "lat": 12.9953369,
      "lon": 77.6668819,
      "tags": {
        "amenity": "restaurant",
        "check_date": "2025-04-26",
        "indoor_seating": "yes",
        "name": "Zaatar",
        "outdoor_seating": "no"
      }
    },
    {
      "type": "node",
      "id": 12787887505,
      "lat": 12.998045,
      "lon": 77.6654423,
      "tags": {
        "amenity": "bench",
        "armrest": "yes",
        "backrest": "yes",
        "material": "granite",
        "seats": "3"
      }
    },
    {
      "type": "node",
      "id": 12787887506,
      "lat": 12.9981136,
      "lon": 77.6656155,
      "tags": {
        "amenity": "bench",
        "armrest": "yes",
        "backrest": "yes",
        "material": "granite",
        "seats": "3"
      }
    },
    {
      "type": "node",
      "id": 13305157141,
      "lat": 13.0005485,
      "lon": 77.6758356,
      "tags": {
        "amenity": "toilets",
        "check_date": "2025-11-15",
        "fee": "yes",
        "name": "Pay & Use Toilet"
      }
    },
    {
      "type": "way",
      "id": 425371165,
      "center": {
        "lat": 12.9915781,
        "lon": 77.668453
      },
      "tags": {
        "name": "Shoppers City",
        "shop": "supermarket"
      }
    },
    {
      "type": "way",
      "id": 1104358046,
      "center": {
        "lat": 13.0003441,
        "lon": 77.6754746
      },
      "tags": {
        "access": "yes",
        "amenity": "parking",
        "fee": "yes",
        "parking": "surface"
      }
    },
    {
      "type": "way",
      "id": 1233501427,
      "center": {
        "lat": 12.9973364,
        "lon": 77.6687818
      },
      "tags": {
        "amenity": "motorcycle_parking",
        "fee": "yes",
        "lit": "yes",
        "supervised": "yes"
      }
    },
    {
      "type": "way",
      "id": 1356191543,
      "center": {
        "lat": 12.9970053,
        "lon": 77.6683967
      },
      "tags": {
        "amenity": "shelter",
        "building": "yes",
        "shelter_type": "gazebo"
      }
    }
  ]
}