{
  "area_name": "Kengal Hanumanthaiah South",
  "osm_id": 19884571,
  "osm_type": "relation",
  "place_type": "administrative",
  "amenity_count": 82,
  "amenities": [
    {
      "type": "node",
      "id": 1318917183,
      "lat": 12.9040043,
      "lon": 77.5734008,
      "tags": {
        "amenity": "restaurant",
        "brand": "Pizza Hut",
        "brand:wikidata": "Q191615",
        "cuisine": "pizza",
        "name": "Pizza Hut",
        "name:kn": "ಪಿಟ್ಸ ಹಟ್"
      }
    },
    {
      "type": "node",
      "id": 1331989769,
      "lat": 12.9022616,
      "lon": 77.5827185,
      "tags": {
        "amenity": "place_of_worship",
        "name": "Ganesha Temple",
        "name:kn": "ಗಣೇಶ ದೇವಸ್ಥಾನ",
        "religion": "hindu"
      }
    },
    {
      "type": "node",
      "id": 1331989779,
      "lat": 12.9027732,
      "lon": 77.5837541,
      "tags": {
        "amenity": "restaurant",
        "cuisine": "indian",
        "name": "Incara",
        "name:kn": "ಇಂಚರ"
      }
    },
    {
      "type": "node",
      "id": 2384193093,
      "lat": 12.900724,
      "lon": 77.5869656,
      "tags": {
        "name": "Royal Supermarket",
        "shop": "supermarket"
      }
    },
    {
      "type": "node",
      "id": 2384193105,
      "lat": 12.9004538,
      "lon": 77.5859289,
      "tags": {
        "amenity": "restaurant",
        "name": "Grills and Rolls",
        "wheelchair": "no"
      }
    },
    {
      "type": "node",
      "id": 2677269699,
      "lat": 12.8979332,
      "lon": 77.5859652,
      "tags": {
        "name": "Spritz & More",
        "shop": "alcohol",
        "wheelchair": "no"
      }
    },
    {
      "type": "node",
      "id": 3016090357,
      "lat": 12.9020984,
      "lon": 77.5859455,
      "tags": {
        "amenity": "bank",
        "atm": "no",
        "brand": "Allahabad Bank",
        "brand:wikidata": "Q2018840",
        "brand:wikipedia": "en:Allahabad Bank",
        "name": "Allahabad Bank",
        "name:en": "Allahabad Bank",
        "name:kn": "ಅಲ್ಲಹಾಬಾದ್ ಬ್ಯಾಂಕ್",
        "website": "https://www.allahabadbank.in",
        "wheelchair": "no"
      }
    },
    {
      "type": "node",
      "id": 3016090361,
      "lat": 12.9007262,
      "lon": 77.5859519,
      "tags": {
        "amenity": "ice_cream",
        "brand": "Baskin-Robbins",
        "brand:wikidata": "Q584601",
        "cuisine": "ice_cream",
        "name": "Baskin-Robbins",
        "name:kn": "ಬಸ್ಕಿನ್ ರಾಬಿನ್ಸ್",
        "wheelchair": "limited"
      }
    },
    {
      "type": "node",
      "id": 3016090365,
      "lat": 12.903812,
      "lon": 77.5858613,
      "tags": {
        "amenity": "bank",
        "atm": "no",
        "brand": "IDBI Bank",
        "brand:wikidata": "Q3633485",
        "brand:wikipedia": "en:IDBI Bank",
        "name": "IDBI Bank",
        "name:en": "IDBI Bank",
        "name:kn": "ಐಡಿಬಿಐ ಬ್ಯಾಂಕ್",
        "old_name": "Industrial Development Bank of India",
        "operator": "IDBI Bank",
        "short_name": "IDBI",
        "website": "https://www.idbi.com",
        "wheelchair": "no"
      }
    },
    {
      "type": "node",
      "id": 3016090372,
      "lat": 12.9009848,
      "lon": 77.5859587,
      "tags": {
        "amenity": "atm",
        "brand": "Yes Bank",
        "brand:wikidata": "Q2040394",
        "currency:INR": "yes",
        "name": "Yes Bank",
        "name:kn": "ಯಸ್ ಬ್ಯಾಂಕ್",
        "operator": "Yes Bank",
        "operator:wikidata": "Q2040394"
      }
    },
    {
      "type": "node",
      "id": 3022113002,
      "lat": 12.8971318,
      "lon": 77.5858778,
      "tags": {
        "name": "The Big Market",
        "shop": "supermarket",
        "wheelchair": "no"
      }
    },
    {
      "type": "node",
      "id": 3048433275,
      "lat": 12.8982318,
      "lon": 77.5827474,
      "tags": {
        "name": "Sri Basaweswara Cycle Mart",
        "service:bicycle:repair": "yes",
        "service:bicycle:retail": "yes",
        "shop": "bicycle",
        "source": "voice"
      }
    },
    {
      "type": "node",
      "id": 3217683310,
      "lat": 12.9001563,
      "lon": 77.585937,
      "tags": {
        "amenity": "restaurant",
        "cuisine": "punjabi",
        "name": "Funky Punjab",
        "source": "survey",
        "wheelchair": "no"
      }
    },
    {
      "type": "node",
      "id": 3217683311,
      "lat": 12.9043815,
      "lon": 77.5858999,
      "tags": {
        "amenity": "restaurant",
        "cuisine": "indian",
        "name": "Vasantha Grand",
        "name:kn": "ಶ್ರೀಕೃಷ್ಣ ಸಾಗರ",
        "source": "survey"
      }
    },
    {
      "type": "node",
      "id": 3220549890,
      "lat": 12.9033409,
      "lon": 77.5856019,
      "tags": {
        "name": "Kidzon",
        "shop": "baby_goods",
        "source": "survey"
      }
    },
    {
      "type": "node",
      "id": 3226809437,
      "lat": 12.8999259,
      "lon": 77.5859193,
      "tags": {
        "name": "Just Kids",
        "shop": "baby_goods",
        "wheelchair": "no"
      }
    },
    {
      "type": "node",
      "id": 3226809438,
      "lat": 12.9009271,
      "lon": 77.5859552,
      "tags": {
        "addr:city": "Bangalore",
        "addr:postcode": "560078",
        "addr:street": "24th Main Road",
        "amenity": "pharmacy",
        "dispensing": "yes",
        "healthcare": "pharmacy",
        "name": "White Lotus",
        "wheelchair": "limited"
      }
    },
    {
      "type": "node",
      "id": 4321222913,
      "lat": 12.9010386,
      "lon": 77.5859577,
      "tags": {
        "addr:street": "24th Main",
        "amenity": "bank",
        "brand": "HDFC Bank",
        "brand:wikidata": "Q631047",
        "name": "HDFC Bank",
        "name:kn": "ಎಚ್ ಡಿ ಎಫ್ ಸಿ",
        "short_name": "HDFC",
        "wheelchair": "limited"
      }
    },
    {
      "type": "node",
      "id": 4321245416,
      "lat": 12.9030809,
      "lon": 77.5855786,
      "tags": {
        "addr:street": "24th Main",
        "air_conditioning": "yes",
        "amenity": "restaurant",
        "contact:website": "https://thezaitoon.com/",
        "cuisine": "arab",
        "level": "1",
        "name": "Zaitoon",
        "name:kn": "ಜಾಐಟುನ್",
        "opening_hours": "Mo-Su 11:30-23:30",
        "toilets": "yes",
        "wheelchair": "no"
      }
    },
    {
      "type": "node",
      "id": 4321245505,
      "lat": 12.9017285,
      "lon": 77.5857629,
      "tags": {
        "addr:street": "24th Main",
        "amenity": "restaurant",
        "cuisine": "indian",
        "name": "Sea Salt"
      }
    },
    {
      "type": "node",
      "id": 4447383325,
      "lat": 12.9039905,
      "lon": 77.5859569,
      "tags": {
        "addr:city": "bangalore",
        "addr:housenumber": "9",
        "addr:postcode": "560078",
        "addr:street": "24th Main Rd, KR Layout, 1st Phase, JP Nagar",
        "amenity": "hospital",
        "name": "M N Speciality Clinic",
        "name:kn": "ಎಮ್ ಎನ್ ಸ್ಪೆಶಾಲಿಟಿ ಕ್ಲಿನಿಕ್",
        "phone": "080 2653 0121"
      }
    },
    {
      "type": "node",
      "id": 4456223691,
      "lat": 12.9030471,
      "lon": 77.5851583,
      "tags": {
        "addr:housenumber": "CMS Annex 319",
        "addr:postcode": "560 078",
        "addr:street": "17th Cross Road",
        "amenity": "school",
        "email": "bschool@cms.ac.in",
        "name": "CMS Business School, Jain University",
        "name:en": "CMS Business School, Jain University",
        "name:kn": "ಸಿಎಂಎಸ್ ಬಿಸಿನೆಸ್ ಸ್ಕೂಲ್, ಜೈನ್ ವಿಶ್ವವಿದ್ಯಾಲಯ",
        "opening_hours": "Mo-Fr 09:00-17:00",
        "phone": "+91 80 4343 0400",
        "website": "http://www.bschool.cms.ac.in"
      }
    },
    {
      "type": "node",
      "id": 4463113589,
      "lat": 12.9035208,
      "lon": 77.5843442,
      "tags": {
        "amenity": "atm",
        "brand": "Canara Bank",
        "brand:en": "Canara Bank",
        "brand:hi": "केनरा बैंक",
        "brand:kn": "ಕೆನರಾ ಬ್ಯಾಂಕ್",
        "brand:pa": "ਕੇਨਰਾ ਬੈਂਕ",
        "brand:pnb": "کینرا بینک",
        "brand:ur": "کینرا بینک",
        "brand:wikidata": "Q2003777",
        "name": "Canara Bank",
        "name:en": "Canara Bank",
        "name:hi": "केनरा बैंक",
        "name:kn": "ಕೆನರಾ ಬ್ಯಾಂಕ್",
        "name:pa": "ਕੇਨਰਾ ਬੈਂਕ",
        "name:pnb": "کینرا بینک",
        "name:ur": "کینرا بینک",
        "opening_hours": "24/7",
        "operator": "Canara Bank",
        "operator:wikidata": "Q2003777"
      }
    },
    {
      "type": "node",
      "id": 4470962689,
      "lat": 12.9040892,
      "lon": 77.5847141,
      "tags": {
        "amenity": "atm",
        "brand": "Axis Bank",
        "brand:wikidata": "Q2003549",
        "name": "Axis Bank",
        "opening_hours": "24/7",
        "operator": "Axis Bank",
        "operator:wikidata": "Q2003549"
      }
    },
    {
      "type": "node",
      "id": 4488069422,
      "lat": 12.9027124,
      "lon": 77.5855115,
      "tags": {
        "addr:city": "bangalore",
        "addr:housenumber": "No-10/2, 1st Floor",
        "addr:postcode": "560078",
        "addr:street": "24th Main, Sarakki Village, J.P Nagar 6th Phase, Opp. Crystal Castle Hotel,",
        "building": "yes",
        "fee": "yes",
        "leisure": "sports_centre",
        "name": "Elite Batminton Arena",
        "opening_hours": "11:00-21:00",
        "phone": "080 4171 3131",
        "sport": "multi",
        "website": "http://thesportmall.in/"
      }
    },
    {
      "type": "node",
      "id": 4488456645,
      "lat": 12.9002999,
      "lon": 77.5860464,
      "tags": {
        "addr:city": "Bangalore",
        "addr:housenumber": "14/1",
        "addr:postcode": "560078",
        "addr:street": "23rd Main Rd, Nagaraja Garden, J P Nagar Phase 5, JP Nagar",
        "leisure": "sports_centre",
        "name": "WE Fitness, Health and Wellness Center",
        "opening_hours": "5:30-22:00",
        "phone": "080 8805 33338",
        "sport": "gymnastics",
        "website": "https://wefithealth.com/",
        "wheelchair": "limited"
      }
    },
    {
      "type": "node",
      "id": 4787585823,
      "lat": 12.9006918,
      "lon": 77.5868781,
      "tags": {
        "addr:street": "18th Cross Road",
        "amenity": "fast_food",
        "cuisine": "chinese;indian",
        "name": "ಶ್ರೀ ಕೃಷ್ಣ ದರ್ಶಿನಿ",
        "name:en": "Sri Krishna Darshini",
        "name:kn": "ಶ್ರೀ ಕೃಷ್ಣ ದರ್ಶಿನಿ",
        "opening_hours": "Mo-Su 08:00-22:00"
      }
    },
    {
      "type": "node",
      "id": 6072894936,
      "lat": 12.9008702,
      "lon": 77.587901,
      "tags": {
        "addr:street": "18th Cross Road",
        "amenity": "atm",
        "brand": "Canara Bank",
        "brand:en": "Canara Bank",
        "brand:hi": "केनरा बैंक",
        "brand:kn": "ಕೆನರಾ ಬ್ಯಾಂಕ್",
        "brand:pa": "ਕੇਨਰਾ ਬੈਂਕ",
        "brand:pnb": "کینرا بینک",
        "brand:ur": "کینرا بینک",
        "brand:wikidata": "Q2003777",
        "name": "Canara Bank",
        "name:en": "Canara Bank",
        "name:hi": "केनरा बैंक",
        "name:kn": "ಕೆನರಾ ಬ್ಯಾಂಕ್",
        "name:pa": "ਕੇਨਰਾ ਬੈਂਕ",
        "name:pnb": "کینرا بینک",
        "name:ur": "کینرا بینک",
        "opening_hours": "24/7",
        "operator": "Canara Bank",
        "operator:wikidata": "Q2003777"
      }
    },
    {
      "type": "node",
      "id": 6072907744,
      "lat": 12.9007694,
      "lon": 77.5872749,
      "tags": {
        "addr:city": "Bangalore",
        "addr:postcode": "560078",
        "addr:street": "18th cross road",
        "amenity": "restaurant",
        "name": "Kakal Kai Ruchi"
      }
    },
    {
      "type": "node",
      "id": 6073524584,
      "lat": 12.9006451,
      "lon": 77.5866036,
      "tags": {
        "addr:street": "23rd main, Ramana Road, Ayodhya Nagar",
        "amenity": "pharmacy",
        "healthcare": "pharmacy",
        "name": "Sri Lakshmi Medicals"
      }
    },
    {
      "type": "node",
      "id": 6073529014,
      "lat": 12.900671,
      "lon": 77.5866393,
      "tags": {
        "addr:street": "23rd main, Ramanna road, JP nagar, 5th phase",
        "amenity": "clinic",
        "healthcare": "clinic",
        "name": "Sri Balaji Speciality Clinic & Diagnostic Center"
      }
    },
    {
      "type": "node",
      "id": 6073587023,
      "lat": 12.9006755,
      "lon": 77.5872566,
      "tags": {
        "addr:street": "22nd B Main, Ramanna Road, JP Nagar 5th Phase",
        "amenity": "clinic",
        "healthcare": "clinic",
        "name": "JP Nagar Clinic"
      }
    },
    {
      "type": "node",
      "id": 6073775977,
      "lat": 12.9004635,
      "lon": 77.5857728,
      "tags": {
        "addr:city": "Bangalore",
        "addr:postcode": "560078",
        "addr:street": "24th Main Road",
        "amenity": "cafe",
        "cuisine": "tea;sandwich;chicken;regional",
        "internet_access": "no",
        "name": "Paani kum Chai",
        "smoking": "no",
        "wheelchair": "no"
      }
    },
    {
      "type": "node",
      "id": 6074032575,
      "lat": 12.9001446,
      "lon": 77.5859196,
      "tags": {
        "addr:street": "24th Main, JP Nagar, 5th phase",
        "amenity": "cafe",
        "name": "Once In Nature (Organic Cafe)"
      }
    },
    {
      "type": "node",
      "id": 6075065398,
      "lat": 12.9005012,
      "lon": 77.5859088,
      "tags": {
        "addr:street": "24th main, JP Nagar, 5th Phase",
        "amenity": "pharmacy",
        "brand": "MedPlus",
        "brand:wikidata": "Q65684234",
        "healthcare": "pharmacy",
        "name": "MedPlus",
        "name:kn": "ಮೆಡ್‍ಪ್ಲಸ್"
      }
    },
    {
      "type": "node",
      "id": 6075096734,
      "lat": 12.9006994,
      "lon": 77.5872673,
      "tags": {
        "addr:city": "Bangalore",
        "addr:postcode": "560078",
        "addr:street": "22nd B Main Road",
        "amenity": "pharmacy",
        "dispensing": "yes",
        "healthcare": "pharmacy",
        "name": "Prem Pharmacy"
      }
    },
    {
      "type": "node",
      "id": 6075096735,
      "lat": 12.9007003,
      "lon": 77.58729,
      "tags": {
        "addr:city": "Bangalore",
        "addr:postcode": "560078",
        "addr:street": "18th Cross Road",
        "name": "LJ Iyengars Bakery",
        "opening_hours": "Mo-Fr 10:00-23:00",
        "shop": "bakery"
      }
    },
    {
      "type": "node",
      "id": 6079457673,
      "lat": 12.9001036,
      "lon": 77.585916,
      "tags": {
        "addr:city": "Bangalore",
        "addr:postcode": "560078",
        "addr:street": "24th Main Road",
        "amenity": "restaurant",
        "name": "Hotel Sankaranarayana Tiffanes",
        "wheelchair": "no"
      }
    },
    {
      "type": "node",
      "id": 6081211670,
      "lat": 12.8999597,
      "lon": 77.5856543,
      "tags": {
        "amenity": "school",
        "name": "Tiny Angels English Primary School",
        "wheelchair": "limited"
      }
    },
    {
      "type": "node",
      "id": 6082612990,
      "lat": 12.8998226,
      "lon": 77.5859426,
      "tags": {
        "addr:street": "24th main road, 5th phase, JP Nagar",
        "amenity": "clinic",
        "healthcare": "clinic",
        "name": "Sahasrara Neurosciences Clinic",
        "wheelchair": "no"
      }
    },
    {
      "type": "node",
      "id": 6082618914,
      "lat": 12.8998179,
      "lon": 77.5859162,
      "tags": {
        "addr:street": "24th main road, 5th Phase, JP Nagar",
        "name": "Adam & Eve's Unisex Salon",
        "shop": "beauty"
      }
    },
    {
      "type": "node",
      "id": 6082627939,
      "lat": 12.899352,
      "lon": 77.5859233,
      "tags": {
        "addr:street": "24th main road, 5th phase, JP Nagar",
        "name": "Bright Go Nuts",
        "shop": "chocolate"
      }
    },
    {
      "type": "node",
      "id": 6082646035,
      "lat": 12.8995515,
      "lon": 77.5859527,
      "tags": {
        "addr:street": "24th main road, 5th phase, JP Nagar",
        "name": "Velvet Studio",
        "shop": "massage"
      }
    },
    {
      "type": "node",
      "id": 6082648286,
      "lat": 12.8994481,
      "lon": 77.5859306,
      "tags": {
        "addr:street": "24th main road, 5th phase, JP Nagar",
        "amenity": "ice_cream",
        "name": "Roll Over"
      }
    },
    {
      "type": "node",
      "id": 6082778308,
      "lat": 12.9001386,
      "lon": 77.5859319,
      "tags": {
        "addr:city": "Bangalore",
        "addr:postcode": "560078",
        "addr:street": "24th Main Road",
        "name": "Arogya Organic",
        "organic": "only",
        "shop": "supermarket"
      }
    },
    {
      "type": "node",
      "id": 6082778309,
      "lat": 12.9007289,
      "lon": 77.5874648,
      "tags": {
        "addr:city": "Bangalore",
        "addr:postcode": "560078",
        "addr:street": "18th Cross Road, JP Nagar, 5th Phase",
        "amenity": "dentist",
        "healthcare": "dentist",
        "name": "Smile Dental"
      }
    },
    {
      "type": "node",
      "id": 6338071472,
      "lat": 12.9020427,
      "lon": 77.5857467,
      "tags": {
        "amenity": "restaurant",
        "name": "Empire Restaurant",
        "name:kn": "ಎಂಪೈರ್",
        "wheelchair": "no"
      }
    },
    {
      "type": "node",
      "id": 6338071473,
      "lat": 12.9017016,
      "lon": 77.5857953,
      "tags": {
        "amenity": "pharmacy",
        "healthcare": "pharmacy",
        "name": "Bengaluru Drug House Pharmacy",
        "wheelchair": "no"
      }
    },
    {
      "type": "node",
      "id": 6338071474,
      "lat": 12.899703,
      "lon": 77.5859281,
      "tags": {
        "amenity": "fast_food",
        "name": "Kolkata Famous Kati Roll",
        "wheelchair": "no"
      }
    },
    {
      "type": "node",
      "id": 6338071475,
      "lat": 12.8994281,
      "lon": 77.5858873,
      "tags": {
        "amenity": "fast_food",
        "name": "Chaatimes"
      }
    },
    {
      "type": "node",
      "id": 6338071922,
      "lat": 12.9032342,
      "lon": 77.5856124,
      "tags": {
        "name": "SLV Flowers",
        "shop": "florist"
      }
    },
    {
      "type": "node",
      "id": 6338071923,
      "lat": 12.9021091,
      "lon": 77.5857727,
      "tags": {
        "amenity": "fast_food",
        "name": "Cheesiano Pizza"
      }
    },
    {
      "type": "node",
      "id": 6338071924,
      "lat": 12.9018724,
      "lon": 77.5859502,
      "tags": {
        "amenity": "ice_cream",
        "name": "Polar Bear",
        "wheelchair": "yes"
      }
    },
    {
      "type": "node",
      "id": 6338071925,
      "lat": 12.9013144,
      "lon": 77.585703,
      "tags": {
        "amenity": "fuel",
        "name": "HiDrive Auto LPG",
        "wheelchair": "yes"
      }
    },
    {
      "type": "node",
      "id": 6338071926,
      "lat": 12.8996119,
      "lon": 77.5859158,
      "tags": {
        "brand": "Lenskart",
        "brand:wikidata": "Q17068753",
        "name": "Lenskart.com",
        "shop": "optician"
      }
    },
    {
      "type": "node",
      "id": 6341376490,
      "lat": 12.8973677,
      "lon": 77.5858738,
      "tags": {
        "addr:street": "JP Nagar 6th Phase, JP Nagar",
        "amenity": "restaurant",
        "name": "Kakal Kai Ruchi",
        "name:kn": "ಕಾಕಲ್ ಕೈ ರುಚಿ",
        "name:ta": "கக்கல் கை ருச்சி",
        "wheelchair": "limited"
      }
    },
    {
      "type": "node",
      "id": 6531907477,
      "lat": 12.9032482,
      "lon": 77.5787159,
      "tags": {
        "addr:place": "Jaraganahalli",
        "amenity": "school",
        "isced:level": "3",
        "name": "Thrishool School J P Nagar, Jaragana Halli 1",
        "name:kn": "ತ್ರಿಶೂಲ್ ಶಾಲೆ ಜೆ.ಪಿ. ನಗರ,ಜರಗನ ಹಳ್ಳಿ",
        "operator": "Private Un-Aided",
        "school": "Higher Secondary"
      }
    },
    {
      "type": "node",
      "id": 6531963628,
      "lat": 12.9040441,
      "lon": 77.574382,
      "tags": {
        "addr:place": "Jaraganahalli",
        "amenity": "school",
        "isced:level": "3",
        "name": "Shreyas School Jaraganahalli, Jaragana Halli 1",
        "name:kn": "ಶ್ರೇಯಸ್ ಶಾಲೆ ಜರಗನ ಹಳ್ಳಿ",
        "operator": "Private Un-Aided",
        "school": "Higher Secondary"
      }
    },
    {
      "type": "node",
      "id": 6536296413,
      "lat": 12.9004587,
      "lon": 77.5851709,
      "tags": {
        "addr:place": "Jaraganahalli",
        "amenity": "school",
        "isced:level": "3",
        "name": "Image School J P Nagar, Jaraganahalli 2",
        "name:kn": "ಇಮೇಜ್ ಶಾಲೆ ಜೆ.ಪಿ.ನಗರ,ಜರಗನ ಹಳ್ಳಿ",
        "operator": "Private Un-Aided",
        "school": "Higher Secondary"
      }
    },
    {
      "type": "node",
      "id": 10647620828,
      "lat": 12.9059616,
      "lon": 77.5734858,
      "tags": {
        "amenity": "atm",
        "check_date": "2023-02-11",
        "operator": "RBL"
      }
    },
    {
      "type": "node",
      "id": 10685071178,
      "lat": 12.9019561,
      "lon": 77.5857322,
      "tags": {
        "diet:vegetarian": "only",
        "name": "Simpli Namdhari's",
        "organic": "only",
        "shop": "supermarket",
        "website": "https://www.simplinamdharis.com/",
        "wheelchair": "no"
      }
    },
    {
      "type": "node",
      "id": 11015446614,
      "lat": 12.9046821,
      "lon": 77.5819794,
      "tags": {
        "access": "private",
        "amenity": "parking_entrance",
        "parking": "underground"
      }
    },
    {
      "type": "node",
      "id": 11303774165,
      "lat": 12.9062077,
      "lon": 77.5754154,
      "tags": {
        "amenity": "bank",
        "branch": "JP Nagar",
        "brand": "Bank of India",
        "brand:wikidata": "Q2004439",
        "name": "Bank of India",
        "name:kn": "ಬ್ಯಾಂಕ್ ಅಫ್ ಇಂಡಿಯ"
      }
    },
    {
      "type": "node",
      "id": 12033502400,
      "lat": 12.8978992,
      "lon": 77.5859308,
      "tags": {
        "addr:street": "24th Main Road, JP Nagar 6th Phase, Puttenahalli, Bengaluru",
        "amenity": "fast_food",
        "description": "A Nepali street vendor offering Veg & Non-Veg Momos",
        "name": "Kathmandu Momos"
      }
    },
    {
      "type": "node",
      "id": 12161544267,
      "lat": 12.9030499,
      "lon": 77.5859107,
      "tags": {
        "amenity": "restaurant",
        "brand": "Restaurante Popular",
        "level": "0",
        "name": "Samskruthi Sathkara",
        "wheelchair": "limited"
      }
    },
    {
      "type": "node",
      "id": 12522542151,
      "lat": 12.8975646,
      "lon": 77.5858239,
      "tags": {
        "addr:city": "Bangalore",
        "addr:housenumber": "44/45",
        "addr:postcode": "560078",
        "addr:street": "24th Main Rd, Ramaiah Garden, JP Nagar 7th Phase, J. P. Nagar",
        "name": "Sana Super Mart",
        "shop": "supermarket",
        "wheelchair": "limited"
      }
    },
    {
      "type": "node",
      "id": 12862846461,
      "lat": 12.9020393,
      "lon": 77.5856761,
      "tags": {
        "amenity": "fast_food",
        "cuisine": "burger",
        "delivery": "yes",
        "name": "Easy Bites by Empire",
        "takeaway": "yes"
      }
    },
    {
      "type": "node",
      "id": 12969591119,
      "lat": 12.9063123,
      "lon": 77.5746485,
      "tags": {
        "name": "PGM Party Shop",
        "shop": "party"
      }
    },
    {
      "type": "node",
      "id": 13131134797,
      "lat": 12.8979821,
      "lon": 77.5859322,
      "tags": {
        "amenity": "fast_food",
        "cuisine": "indian",
        "name": "Babu Vada Pav"
      }
    },
    {
      "type": "node",
      "id": 13168786893,
      "lat": 12.9010005,
      "lon": 77.5857148,
      "tags": {
        "amenity": "restaurant",
        "bar": "yes",
        "contact:instagram": "jewel.sizzle",
        "name": "Jewel Sizzle",
        "website": "https://www.jewelsizzle.in/",
        "wheelchair": "no"
      }
    },
    {
      "type": "node",
      "id": 13288585472,
      "lat": 12.8980466,
      "lon": 77.585608,
      "tags": {
        "amenity": "fast_food",
        "delivery": "only",
        "name": "Kreid Ko",
        "takeaway": "only"
      }
    },
    {
      "type": "way",
      "id": 334633597,
      "center": {
        "lat": 12.9023029,
        "lon": 77.5825752
      },
      "tags": {
        "addr:city": "Bengaluru",
        "addr:housenumber": "132",
        "addr:postcode": "560078",
        "addr:street": "Puttenahalli Rd, KR Layout, JP Nagar Phase 6, J. P. Nagar",
        "amenity": "place_of_worship",
        "landuse": "religious",
        "name": "Shri Ganesha Devasthana Mattu Saibaba Devasthana",
        "religion": "hindu"
      }
    },
    {
      "type": "way",
      "id": 646422860,
      "center": {
        "lat": 12.9002738,
        "lon": 77.586036
      },
      "tags": {
        "addr:city": "Bangalore",
        "addr:postcode": "560078",
        "addr:street": "18th Cross Road",
        "building": "yes",
        "leisure": "fitness_centre",
        "name": "We Fitness and Health Center"
      }
    },
    {
      "type": "way",
      "id": 646663790,
      "center": {
        "lat": 12.8999451,
        "lon": 77.5855117
      },
      "tags": {
        "addr:city": "Bangalore",
        "addr:postcode": "560078",
        "addr:street": "24th Main Road",
        "amenity": "school",
        "name": "Royal High School"
      }
    },
    {
      "type": "way",
      "id": 677277511,
      "center": {
        "lat": 12.897561,
        "lon": 77.5857742
      },
      "tags": {
        "addr:city": "Bangalore",
        "addr:district": "24th Main Rd, next to Sobha Tulip Apartments, Ramaiah Garden, JP Nagar 7th Phase, J. P. Nagar, Bengaluru, Karnataka",
        "addr:postcode": "560078",
        "addr:street": "24th Main Road",
        "building": "yes",
        "name": "E.N.Rao Plaza",
        "shop": "supermarket"
      }
    },
    {
      "type": "way",
      "id": 1270788423,
      "center": {
        "lat": 12.8983062,
        "lon": 77.5778787
      },
      "tags": {
        "leisure": "park"
      }
    },
    {
      "type": "way",
      "id": 1361893659,
      "center": {
        "lat": 12.9037586,
        "lon": 77.5807186
      },
      "tags": {
        "amenity": "theatre",
        "landuse": "commercial",
        "name": "Siddhalingeswara Theatre",
        "name:kn": "ಸಿದ್ದಲಿಂಗೇಶ್ವರ ತಿಯಟರ್"
      }
    },
    {
      "type": "way",
      "id": 1361893660,
      "center": {
        "lat": 12.9038236,
        "lon": 77.5804227
      },
      "tags": {
        "addr:street": "33 Main Road",
        "amenity": "theatre",
        "landuse": "commercial",
        "name": "Siddheswara Theatre",
        "name:kn": "ಸಿದ್ದೇಶ್ವರ"
      }
    },
    {
      "type": "way",
      "id": 1361893706,
      "center": {
        "lat": 12.9058915,
        "lon": 77.5749932
      },
      "tags": {
        "access": "private",
        "leisure": "swimming_pool"
      }
    },
    {
      "type": "way",
      "id": 1361929851,
      "center": {
        "lat": 12.9053078,
        "lon": 77.5824875
      },
      "tags": {
        "leisure": "pitch",
        "name": "\\",
        "sport": "tennis"
      }
    },
    {
      "type": "way",
      "id": 1426267762,
      "center": {
        "lat": 12.9020464,
        "lon": 77.5788303
      },
      "tags": {
        "amenity": "place_of_worship",
        "building": "yes",
        "religion": "hindu"
      }
    },
    {
      "type": "way",
      "id": 1426267766,
      "center": {
        "lat": 12.9018876,
        "lon": 77.5810495
      },
      "tags": {
        "amenity": "theatre",
        "name": "Amphitheatre",
        "theatre:type": "amphi"
      }
    }
  ]
}