{
  "area_name": "Kowdenahalli",
  "osm_id": 2633822842,
  "osm_type": "node",
  "place_type": "neighbourhood",
  "amenity_count": 53,
  "amenities": [
    {
      "type": "node",
      "id": 1473194556,
      "lat": 13.0201794,
      "lon": 77.6745195,
      "tags": {
        "amenity": "restaurant",
        "diet:vegetarian": "only",
        "name": "Hotel Sinchana",
        "name:kn": "ಹೋಟೆಲ್ ಸಿಂಚನ"
      }
    },
    {
      "type": "node",
      "id": 1725279699,
      "lat": 13.0214412,
      "lon": 77.6780929,
      "tags": {
        "shop": "supermarket"
      }
    },
    {
      "type": "node",
      "id": 1761866934,
      "lat": 13.0207033,
      "lon": 77.6760593,
      "tags": {
        "amenity": "hospital",
        "name": "Koshys Hospital"
      }
    },
    {
      "type": "node",
      "id": 2632420484,
      "lat": 13.0192702,
      "lon": 77.6813572,
      "tags": {
        "amenity": "place_of_worship",
        "name": "Shani Mahatma Temple",
        "name:kn": "ಶನಿ ಮಹಾತ್ಮ ದೇವಸ್ಥಾನ",
        "religion": "hindu"
      }
    },
    {
      "type": "node",
      "id": 4420768790,
      "lat": 13.0127272,
      "lon": 77.6771709,
      "tags": {
        "amenity": "place_of_worship",
        "name": "Shanimahatma Temple",
        "name:en": "Shanimahatma Temple",
        "name:kn": "ಶನಿ ಮಹಾತ್ಮ ದೇವಸ್ಥಾನ",
        "religion": "hindu"
      }
    },
    {
      "type": "node",
      "id": 4422320591,
      "lat": 13.0207532,
      "lon": 77.6841848,
      "tags": {
        "addr:street": "Akshay Nagar",
        "amenity": "bank",
        "brand:wikidata": "Q367008",
        "brand:wikipedia": "en:Oriental Bank of Commerce",
        "name": "Oriental Bank of Commerce",
        "name:en": "Oriental Bank of Commerce",
        "short_name": "OBC",
        "website": "https://www.obcindia.co.in"
      }
    },
    {
      "type": "node",
      "id": 4422382490,
      "lat": 13.020674,
      "lon": 77.6861834,
      "tags": {
        "addr:street": "Thambuchettypalya Main Road",
        "amenity": "bank",
        "brand": "State Bank of India",
        "brand:wikidata": "Q1340361",
        "brand:wikipedia": "en:State Bank of India",
        "name": "State Bank of India",
        "name:kn": "ಭಾರತೀಯ ಸ್ಟೇಟ್ ಬ್ಯಾಂಕ್",
        "short_name": "SBI",
        "website": "https://www.sbi.co.in"
      }
    },
    {
      "type": "node",
      "id": 4422390089,
      "lat": 13.020749,
      "lon": 77.6768991,
      "tags": {
        "addr:street": "Thambuchettypalya Main Road",
        "amenity": "restaurant",
        "name": "Hong Kong Noodles",
        "name:en": "Hong Kong Noodles"
      }
    },
    {
      "type": "node",
      "id": 4422481690,
      "lat": 13.0194845,
      "lon": 77.6782953,
      "tags": {
        "name": "More",
        "name:hi": "More",
        "shop": "supermarket"
      }
    },
    {
      "type": "node",
      "id": 4445151589,
      "lat": 13.0197971,
      "lon": 77.6782178,
      "tags": {
        "addr:city": "Bangalore",
        "addr:housenumber": "No.534",
        "addr:postcode": "560037",
        "addr:street": "Kalkere Main road, 1st Cross, B Block, Aecs Layout, Kundalahalli",
        "amenity": "pharmacy",
        "name": "Indian Medicals",
        "phone": "+919448481490"
      }
    },
    {
      "type": "node",
      "id": 4488596289,
      "lat": 13.0160177,
      "lon": 77.6844246,
      "tags": {
        "addr:city": "Bangalore",
        "addr:housenumber": "4",
        "addr:postcode": "560016",
        "addr:street": "Shanthi Layout Main road,Akshya Nagar",
        "name": "Home Magic Mini Bazar",
        "phone": "(91)-80-25666655",
        "shop": "supermarket"
      }
    },
    {
      "type": "node",
      "id": 4489264498,
      "lat": 13.0216092,
      "lon": 77.6875751,
      "tags": {
        "addr:city": "bangalore",
        "addr:housenumber": "#2",
        "addr:postcode": "560016",
        "addr:street": "Haji layout.TCPalya Main Road, ramamurthy nagar,",
        "name": "Sportexx",
        "opening_hours": "10:00-21:00",
        "phone": "+919902700551",
        "shop": "sports",
        "website": "sportexx.in"
      }
    },
    {
      "type": "node",
      "id": 4489771934,
      "lat": 13.0200635,
      "lon": 77.6741205,
      "tags": {
        "addr:city": "bangalore",
        "addr:housenumber": "9",
        "addr:postcode": "560016",
        "addr:street": "Ramamurthi Nagar Main Road",
        "name": "Hair Do Salon And Spa",
        "opening_hours": "09:00-21:30",
        "phone": "076763 55553",
        "shop": "beauty"
      }
    },
    {
      "type": "node",
      "id": 5019270023,
      "lat": 13.0197834,
      "lon": 77.673589,
      "tags": {
        "amenity": "bank",
        "name:en": "HDFC BANK"
      }
    },
    {
      "type": "node",
      "id": 5019270024,
      "lat": 13.0197152,
      "lon": 77.6734719,
      "tags": {
        "amenity": "atm",
        "opening_hours": "24/7",
        "operator": "HDFC"
      }
    },
    {
      "type": "node",
      "id": 5762040046,
      "lat": 13.0112732,
      "lon": 77.6805284,
      "tags": {
        "name": "Tyre Shop",
        "shop": "car_repair"
      }
    },
    {
      "type": "node",
      "id": 6255888429,
      "lat": 13.0205711,
      "lon": 77.6837448,
      "tags": {
        "name": "Ideal Supermarket",
        "payment:cash": "yes",
        "payment:debit_cards": "yes",
        "payment:telephone_cards": "yes",
        "shop": "supermarket",
        "wheelchair": "no"
      }
    },
    {
      "type": "node",
      "id": 6938651815,
      "lat": 13.0204141,
      "lon": 77.6735102,
      "tags": {
        "addr:district": "Bengaluru Urban",
        "addr:full": "Raghavendra Circle, Near Navajyothi Public School, T.C. Palya Main Road, Ramamurthynagar",
        "addr:postcode": "560016",
        "addr:state": "Karnataka",
        "amenity": "clinic",
        "name": "Amma Poly Clinic and Materinity Home",
        "source": "OpenGovernmentData"
      }
    },
    {
      "type": "node",
      "id": 6947662475,
      "lat": 13.0180664,
      "lon": 77.6831812,
      "tags": {
        "addr:district": "Bengaluru Urban",
        "addr:full": "Shanthi Layout Main Road, Ramamurthy Nagar",
        "addr:postcode": "560016",
        "addr:state": "Karnataka",
        "amenity": "clinic",
        "name": "Sri Balaji Polyclinic and Diagnostic Centr",
        "source": "OpenGovernmentData"
      }
    },
    {
      "type": "node",
      "id": 6950124287,
      "lat": 13.0113204,
      "lon": 77.6771966,
      "tags": {
        "addr:district": "Bengaluru Urban",
        "addr:full": "No. 101, Tc Palya Road,Raghavendra Nagar,Ram Murthy Nagar Extension",
        "addr:postcode": "560016",
        "addr:state": "Karnataka",
        "addr:street": "Opposite to bus stop",
        "amenity": "hospital",
        "name": "Little Flower Hospital",
        "source": "OpenGovernmentData"
      }
    },
    {
      "type": "node",
      "id": 6991344193,
      "lat": 13.0114374,
      "lon": 77.6756897,
      "tags": {
        "amenity": "post_office",
        "name": "Ramamurthy Nagar Post Office"
      }
    },
    {
      "type": "node",
      "id": 6991466205,
      "lat": 13.0114374,
      "lon": 77.6795654,
      "tags": {
        "addr:street": "12, A Main Road",
        "amenity": "bank",
        "brand": "HDFC Bank",
        "brand:wikidata": "Q631047",
        "name": "HDFC Bank",
        "name:kn": "ಎಚ್ ಡಿ ಎಫ್ ಸಿ",
        "opening_hours": "Mo-Sa 10:00-16:00",
        "short_name": "HDFC"
      }
    },
    {
      "type": "node",
      "id": 6991479751,
      "lat": 13.0154371,
      "lon": 77.678566,
      "tags": {
        "addr:street": "No. 54/E, Angada Heights, Kalkere Main Road",
        "amenity": "bank",
        "name": "Vijaya Bank",
        "name:kn": "ವಿಜಯ ಬ್ಯಾಂಕ್",
        "opening_hours": "Mo-Fr 10:00-15:30"
      }
    },
    {
      "type": "node",
      "id": 6991490038,
      "lat": 13.0114374,
      "lon": 77.6768112,
      "tags": {
        "addr:street": "Narayanappa Building, Ramamurthy Nagar Main Road",
        "amenity": "bank",
        "brand": "UCO Bank",
        "brand:wikidata": "Q2005310",
        "name": "UCO Bank",
        "name:kn": "ಯೂಕೊ ಬ್ಯಾಂಕ್",
        "opening_hours": "Mo-Fr 09:30-15:30"
      }
    },
    {
      "type": "node",
      "id": 6991500025,
      "lat": 13.0123129,
      "lon": 77.6793137,
      "tags": {
        "addr:street": "Ramamurthy Nagar",
        "amenity": "college",
        "name": "St. Anne's Pre-University College For Girls",
        "opening_hours": "Mo-Sa 08:30-16:00"
      }
    },
    {
      "type": "node",
      "id": 7572131865,
      "lat": 13.0281472,
      "lon": 77.67947,
      "tags": {
        "addr:district": "Bengaluru Urban",
        "addr:full": "Ramamurthy Nagar, Bengaluru",
        "addr:postcode": "560043",
        "addr:state": "Karnataka",
        "amenity": "dentist",
        "name": "Healthy smiles dental clinic",
        "source": "Local Knowledge"
      }
    },
    {
      "type": "node",
      "id": 7572131902,
      "lat": 13.028101,
      "lon": 77.6812547,
      "tags": {
        "addr:district": "Bengaluru Urban",
        "addr:full": "NRI Layout, Bengaluru",
        "addr:postcode": "560016",
        "addr:state": "Karnataka",
        "amenity": "clinic",
        "name": "Niswaras Homeopathy Clinic",
        "source": "Local Knowledge"
      }
    },
    {
      "type": "node",
      "id": 7931315365,
      "lat": 13.0116487,
      "lon": 77.6780147,
      "tags": {
        "name": "Doroavani Medicals",
        "shop": "medical_supply"
      }
    },
    {
      "type": "node",
      "id": 12104265640,
      "lat": 13.020439,
      "lon": 77.6755304,
      "tags": {
        "addr:floor": "G",
        "check_date": "2024-08-11",
        "level": "0",
        "name": "Amma's Pastries",
        "shop": "bakery"
      }
    },
    {
      "type": "way",
      "id": 202273587,
      "center": {
        "lat": 13.014572,
        "lon": 77.6826324
      },
      "tags": {
        "amenity": "marketplace",
        "name": "Sunday Market"
      }
    },
    {
      "type": "way",
      "id": 257750530,
      "center": {
        "lat": 13.0191138,
        "lon": 77.6799925
      },
      "tags": {
        "addr:city": "Bangalore",
        "addr:housenumber": "#78/1",
        "addr:postcode": "560016",
        "addr:street": "Kowdenahalli, Dooravani nagar (P)",
        "amenity": "place_of_worship",
        "building": "yes",
        "denomination": "sunni",
        "name": "Makkha Masjid Trust",
        "religion": "muslim"
      }
    },
    {
      "type": "way",
      "id": 257750531,
      "center": {
        "lat": 13.0163705,
        "lon": 77.6809787
      },
      "tags": {
        "amenity": "school",
        "name": "Christ the King School",
        "name:kn": "ಕ್ರಿಸ್ತರಾಜ ಶಾಲೆ"
      }
    },
    {
      "type": "way",
      "id": 257750537,
      "center": {
        "lat": 13.019098,
        "lon": 77.6815011
      },
      "tags": {
        "amenity": "school",
        "name": "Kowdenahalli Government School",
        "name:kn": "ಕೌದೇನಹಳ್ಳಿ ಸರ್ಕಾರಿ ಶಾಲೆ"
      }
    },
    {
      "type": "way",
      "id": 1322091224,
      "center": {
        "lat": 13.0215887,
        "lon": 77.6787745
      },
      "tags": {
        "amenity": "fuel",
        "brand": "Shell",
        "brand:wikidata": "Q110716465",
        "name": "Shell",
        "name:kn": "ಶೆಲ್",
        "operator": "Shell",
        "wheelchair": "yes"
      }
    },
    {
      "type": "way",
      "id": 1410389161,
      "center": {
        "lat": 13.0102981,
        "lon": 77.6811167
      },
      "tags": {
        "amenity": "fuel",
        "brand": "GAIL",
        "name": "GAIL Gas",
        "operator": "GAIL",
        "self_service": "no"
      }
    },
    {
      "type": "way",
      "id": 1410389220,
      "center": {
        "lat": 13.0208874,
        "lon": 77.6852618
      },
      "tags": {
        "amenity": "fuel"
      }
    },
    {
      "type": "way",
      "id": 1410389398,
      "center": {
        "lat": 13.0183324,
        "lon": 77.6780086
      },
      "tags": {
        "amenity": "fuel",
        "name": "Bharat Petroleum",
        "name:kn": "ಭಾರತ್ ಪೆಟ್ರೋಲಿಯಂ"
      }
    },
    {
      "type": "way",
      "id": 1410389516,
      "center": {
        "lat": 13.0241587,
        "lon": 77.6867509
      },
      "tags": {
        "amenity": "school"
      }
    },
    {
      "type": "way",
      "id": 1411371945,
      "center": {
        "lat": 13.0135506,
        "lon": 77.6728989
      },
      "tags": {
        "amenity": "place_of_worship",
        "landuse": "religious",
        "religion": "hindu"
      }
    },
    {
      "type": "way",
      "id": 1411381121,
      "center": {
        "lat": 13.0163474,
        "lon": 77.6723145
      },
      "tags": {
        "access": "private",
        "leisure": "playground"
      }
    },
    {
      "type": "way",
      "id": 1411408712,
      "center": {
        "lat": 13.0197161,
        "lon": 77.6733173
      },
      "tags": {
        "amenity": "school",
        "name": "Chaitanya E-Techno School"
      }
    },
    {
      "type": "way",
      "id": 1411461369,
      "center": {
        "lat": 13.019036,
        "lon": 77.674054
      },
      "tags": {
        "amenity": "events_venue",
        "landuse": "commercial",
        "name": "Lotus Convention Centre"
      }
    },
    {
      "type": "way",
      "id": 1411461467,
      "center": {
        "lat": 13.0174005,
        "lon": 77.6727898
      },
      "tags": {
        "access": "private",
        "leisure": "swimming_pool"
      }
    },
    {
      "type": "way",
      "id": 1412415472,
      "center": {
        "lat": 13.0114605,
        "lon": 77.682349
      },
      "tags": {
        "amenity": "school",
        "name": "Government Higher Primary School"
      }
    },
    {
      "type": "way",
      "id": 1412415473,
      "center": {
        "lat": 13.0146735,
        "lon": 77.684606
      },
      "tags": {
        "leisure": "park"
      }
    },
    {
      "type": "way",
      "id": 1412415497,
      "center": {
        "lat": 13.0150864,
        "lon": 77.6850626
      },
      "tags": {
        "amenity": "school",
        "name": "BNR Memorial School"
      }
    },
    {
      "type": "way",
      "id": 1412416162,
      "center": {
        "lat": 13.0154468,
        "lon": 77.6857644
      },
      "tags": {
        "leisure": "playground"
      }
    },
    {
      "type": "way",
      "id": 1413065963,
      "center": {
        "lat": 13.0118876,
        "lon": 77.6795045
      },
      "tags": {
        "amenity": "place_of_worship",
        "denomination": "catholic",
        "name": "Holy Family Church",
        "religion": "christian"
      }
    },
    {
      "type": "way",
      "id": 1413065964,
      "center": {
        "lat": 13.01249,
        "lon": 77.6797587
      },
      "tags": {
        "addr:street": "1st Main Road, Manjunatha Layout",
        "amenity": "school",
        "name": "St. Anthony's Primary, Middle and Girls High School",
        "opening_hours": "Mo-Fr 09:00-15:30; Sa 09:00-12:30"
      }
    },
    {
      "type": "way",
      "id": 1414843305,
      "center": {
        "lat": 13.0276262,
        "lon": 77.6783264
      },
      "tags": {
        "leisure": "swimming_pool"
      }
    },
    {
      "type": "way",
      "id": 1415585387,
      "center": {
        "lat": 13.0238407,
        "lon": 77.6873624
      },
      "tags": {
        "leisure": "pitch"
      }
    },
    {
      "type": "way",
      "id": 1421302393,
      "center": {
        "lat": 13.0267472,
        "lon": 77.6813442
      },
      "tags": {
        "access": "private",
        "leisure": "swimming_pool"
      }
    },
    {
      "type": "way",
      "id": 1425205590,
      "center": {
        "lat": 13.0243673,
        "lon": 77.6771499
      },
      "tags": {
        "access": "private",
        "leisure": "swimming_pool"
      }
    }
  ]
}