{
  "area_name": "Modi Garden",
  "osm_id": 11148749743,
  "osm_type": "node",
  "place_type": "neighbourhood",
  "amenity_count": 99,
  "amenities": [
    {
      "type": "node",
      "id": 1422401765,
      "lat": 13.0231839,
      "lon": 77.6004176,
      "tags": {
        "addr:street": "Dinnur Main Road",
        "name": "Super Market",
        "shop": "supermarket"
      }
    },
    {
      "type": "node",
      "id": 1709531085,
      "lat": 13.0220957,
      "lon": 77.6032439,
      "tags": {
        "amenity": "theatre",
        "name": "Pushpanjili Theatre",
        "name:kn": "ಪುಷ್ಪಾಂಜಲಿ ಚಿತ್ರಮಂದಿರ"
      }
    },
    {
      "type": "node",
      "id": 1722621793,
      "lat": 13.0227783,
      "lon": 77.6014591,
      "tags": {
        "addr:housenumber": "080-22744402",
        "addr:postcode": "560032",
        "addr:street": "Dinnur Main Road",
        "name": "LifeLine Tender Chicken",
        "shop": "butcher",
        "website": "https://www.lifelinefeeds.com/"
      }
    },
    {
      "type": "node",
      "id": 2151427893,
      "lat": 13.0252085,
      "lon": 77.6036776,
      "tags": {
        "name": "Honey Land Bakery",
        "shop": "bakery"
      }
    },
    {
      "type": "node",
      "id": 2210804565,
      "lat": 13.0247801,
      "lon": 77.6016445,
      "tags": {
        "amenity": "milk-booth"
      }
    },
    {
      "type": "node",
      "id": 2210804567,
      "lat": 13.023275,
      "lon": 77.6002829,
      "tags": {
        "name": "Blue Rose, Home Needs",
        "shop": "convenience"
      }
    },
    {
      "type": "node",
      "id": 2210806496,
      "lat": 13.0232222,
      "lon": 77.6003506,
      "tags": {
        "shop": "greengrocer"
      }
    },
    {
      "type": "node",
      "id": 2210807119,
      "lat": 13.0235333,
      "lon": 77.6000246,
      "tags": {
        "amenity": "pharmacy"
      }
    },
    {
      "type": "node",
      "id": 2214747036,
      "lat": 13.0232887,
      "lon": 77.6005444,
      "tags": {
        "amenity": "atm"
      }
    },
    {
      "type": "node",
      "id": 2214747037,
      "lat": 13.0232564,
      "lon": 77.6006133,
      "tags": {
        "amenity": "atm",
        "name": "Axis Bank ATM",
        "name:kn": "ಆಕ್ಸಿಸ್ ಬ್ಯಾಂಕ್",
        "operator": "Axis Bank"
      }
    },
    {
      "type": "node",
      "id": 2214747042,
      "lat": 13.0222291,
      "lon": 77.6004298,
      "tags": {
        "amenity": "atm",
        "operator": "ICICI"
      }
    },
    {
      "type": "node",
      "id": 2465713488,
      "lat": 13.0213985,
      "lon": 77.6005015,
      "tags": {
        "amenity": "fuel",
        "brand": "Indane Oil",
        "name": "Lakshmamma Petrol / Gas Station"
      }
    },
    {
      "type": "node",
      "id": 3363186002,
      "lat": 13.0199268,
      "lon": 77.5951979,
      "tags": {
        "amenity": "atm"
      }
    },
    {
      "type": "node",
      "id": 3591611743,
      "lat": 13.0218513,
      "lon": 77.5962159,
      "tags": {
        "name": "Everyday Needs",
        "shop": "yes"
      }
    },
    {
      "type": "node",
      "id": 4386500090,
      "lat": 13.0240798,
      "lon": 77.6032686,
      "tags": {
        "amenity": "pharmacy",
        "name": "Maruti Medicals and Genral Stores"
      }
    },
    {
      "type": "node",
      "id": 4386500091,
      "lat": 13.0244383,
      "lon": 77.6032696,
      "tags": {
        "amenity": "clinic",
        "name": "Dental Care Center"
      }
    },
    {
      "type": "node",
      "id": 4386500092,
      "lat": 13.0244906,
      "lon": 77.6032509,
      "tags": {
        "name": "Modern Enterprises",
        "shop": "copyshop"
      }
    },
    {
      "type": "node",
      "id": 4386500093,
      "lat": 13.0244193,
      "lon": 77.6033279,
      "tags": {
        "name": "Bright Laundry",
        "shop": "laundry"
      }
    },
    {
      "type": "node",
      "id": 4386500094,
      "lat": 13.0244599,
      "lon": 77.6033228,
      "tags": {
        "name": "Nikisha Elctricals and Electronics",
        "shop": "electronics"
      }
    },
    {
      "type": "node",
      "id": 4386500096,
      "lat": 13.024502,
      "lon": 77.6033331,
      "tags": {
        "name": "RR Enterprises",
        "shop": "books"
      }
    },
    {
      "type": "node",
      "id": 4386500097,
      "lat": 13.0253206,
      "lon": 77.6035555,
      "tags": {
        "name": "Corone Fresh Spices and Dry Fruits",
        "shop": "department_store"
      }
    },
    {
      "type": "node",
      "id": 4386500098,
      "lat": 13.0253734,
      "lon": 77.60357,
      "tags": {
        "amenity": "clinic",
        "name": "AB EyeCare"
      }
    },
    {
      "type": "node",
      "id": 4386500099,
      "lat": 13.025295,
      "lon": 77.6036548,
      "tags": {
        "amenity": "cafe",
        "name": "Juba Cafe"
      }
    },
    {
      "type": "node",
      "id": 4386500100,
      "lat": 13.0253614,
      "lon": 77.6036609,
      "tags": {
        "name": "KGN Provision Store",
        "shop": "department_store"
      }
    },
    {
      "type": "node",
      "id": 4386500190,
      "lat": 13.0238759,
      "lon": 77.6030622,
      "tags": {
        "name": "Limra Associates",
        "shop": "copyshop"
      }
    },
    {
      "type": "node",
      "id": 4386500191,
      "lat": 13.0239803,
      "lon": 77.6031307,
      "tags": {
        "name": "Swadeshi Foods",
        "shop": "confectionery"
      }
    },
    {
      "type": "node",
      "id": 4386500193,
      "lat": 13.0244213,
      "lon": 77.6032614,
      "tags": {
        "amenity": "bank",
        "name": "Star Health"
      }
    },
    {
      "type": "node",
      "id": 4386500194,
      "lat": 13.0252198,
      "lon": 77.6034014,
      "tags": {
        "name": "Citrus Dress Materials",
        "shop": "clothes"
      }
    },
    {
      "type": "node",
      "id": 4386500195,
      "lat": 13.0252496,
      "lon": 77.6036506,
      "tags": {
        "amenity": "cafe",
        "name": "Joy IceCream"
      }
    },
    {
      "type": "node",
      "id": 4386506491,
      "lat": 13.024064,
      "lon": 77.6031704,
      "tags": {
        "name": "Cafe Coffee Day",
        "name:kn": "ಕಫೆ ಕಾಫಿ ಡೇ",
        "shop": "convenience"
      }
    },
    {
      "type": "node",
      "id": 4386506492,
      "lat": 13.0240911,
      "lon": 77.6031919,
      "tags": {
        "name": "Manjunatha Condiments",
        "shop": "department_store"
      }
    },
    {
      "type": "node",
      "id": 4386506493,
      "lat": 13.0240899,
      "lon": 77.603228,
      "tags": {
        "amenity": "clinic",
        "name": "Maruti Clinic",
        "name:kn": "ಮಾರುತಿ ಚಿಕಿತ್ಸಾಲಯ"
      }
    },
    {
      "type": "node",
      "id": 4386506495,
      "lat": 13.0244952,
      "lon": 77.6032201,
      "tags": {
        "name": "Mallige Printers",
        "shop": "copyshop"
      }
    },
    {
      "type": "node",
      "id": 4386506496,
      "lat": 13.0248867,
      "lon": 77.6034992,
      "tags": {
        "name": "Jai Ganesh Mobile Sales and Services",
        "shop": "mobile_phone"
      }
    },
    {
      "type": "node",
      "id": 4386506497,
      "lat": 13.0249104,
      "lon": 77.6034717,
      "tags": {
        "amenity": "pharmacy",
        "name": "Mohite Medicals"
      }
    },
    {
      "type": "node",
      "id": 4386506589,
      "lat": 13.0231271,
      "lon": 77.6028605,
      "tags": {
        "name": "Sahi International Motors",
        "shop": "car_repair"
      }
    },
    {
      "type": "node",
      "id": 4386506590,
      "lat": 13.023763,
      "lon": 77.6029395,
      "tags": {
        "amenity": "pharmacy",
        "name": "A.K Medicals"
      }
    },
    {
      "type": "node",
      "id": 4386506591,
      "lat": 13.0246416,
      "lon": 77.603385,
      "tags": {
        "name": "Mangalore Jewellery Works",
        "shop": "jewelry"
      }
    },
    {
      "type": "node",
      "id": 4386506593,
      "lat": 13.0251982,
      "lon": 77.6034408,
      "tags": {
        "name": "Take 5",
        "shop": "electronics"
      }
    },
    {
      "type": "node",
      "id": 4386506594,
      "lat": 13.0252235,
      "lon": 77.603522,
      "tags": {
        "name": "Mithai Ghar",
        "shop": "confectionery"
      }
    },
    {
      "type": "node",
      "id": 4386506595,
      "lat": 13.025264,
      "lon": 77.6035286,
      "tags": {
        "name": "Fashion House",
        "shop": "clothes"
      }
    },
    {
      "type": "node",
      "id": 4386506596,
      "lat": 13.0252803,
      "lon": 77.6035419,
      "tags": {
        "name": "Vigbhan Men's Beauty Salon",
        "shop": "hairdresser"
      }
    },
    {
      "type": "node",
      "id": 4386506597,
      "lat": 13.0252958,
      "lon": 77.6035419,
      "tags": {
        "name": "Dharmesh Jewellers",
        "shop": "jewelry"
      }
    },
    {
      "type": "node",
      "id": 4386506689,
      "lat": 13.0234261,
      "lon": 77.6028721,
      "tags": {
        "name": "Darshan Traders",
        "shop": "department_store"
      }
    },
    {
      "type": "node",
      "id": 4386506690,
      "lat": 13.0248424,
      "lon": 77.6034721,
      "tags": {
        "name": "Shakti Traders",
        "shop": "department_store"
      }
    },
    {
      "type": "node",
      "id": 4386506691,
      "lat": 13.0249944,
      "lon": 77.6035016,
      "tags": {
        "name": "Excellent Dry Cleaners",
        "shop": "laundry"
      }
    },
    {
      "type": "node",
      "id": 4386506692,
      "lat": 13.0250462,
      "lon": 77.6035174,
      "tags": {
        "name": "Sriram Hoke Appliances",
        "shop": "electronics"
      }
    },
    {
      "type": "node",
      "id": 4386506693,
      "lat": 13.0252676,
      "lon": 77.6036464,
      "tags": {
        "name": "Jingle Bells",
        "shop": "gift"
      }
    },
    {
      "type": "node",
      "id": 4386506789,
      "lat": 13.023718,
      "lon": 77.6029059,
      "tags": {
        "name": "Daya Enterprises",
        "shop": "computer"
      }
    },
    {
      "type": "node",
      "id": 4386506889,
      "lat": 13.0237732,
      "lon": 77.6029993,
      "tags": {
        "name": "Abhirami Tenthouse",
        "shop": "outdoor"
      }
    },
    {
      "type": "node",
      "id": 4386506890,
      "lat": 13.0238453,
      "lon": 77.6030488,
      "tags": {
        "name": "Ravi's Cyber Cafe",
        "shop": "copyshop"
      }
    },
    {
      "type": "node",
      "id": 4386506891,
      "lat": 13.0239189,
      "lon": 77.603075,
      "tags": {
        "name": "Vigbhan Salon",
        "shop": "hairdresser"
      }
    },
    {
      "type": "node",
      "id": 4386506892,
      "lat": 13.0240447,
      "lon": 77.6031596,
      "tags": {
        "name": "Vinay Bangle Store",
        "shop": "convenience"
      }
    },
    {
      "type": "node",
      "id": 4386506893,
      "lat": 13.0249337,
      "lon": 77.6034778,
      "tags": {
        "name": "Sri Manjunath Pooja Stall",
        "shop": "department_store"
      }
    },
    {
      "type": "node",
      "id": 4386506894,
      "lat": 13.02502,
      "lon": 77.6035096,
      "tags": {
        "name": "Guru",
        "shop": "department_store"
      }
    },
    {
      "type": "node",
      "id": 4386506896,
      "lat": 13.0253895,
      "lon": 77.6036609,
      "tags": {
        "name": "Sunray Enterprises",
        "shop": "mobile_phone"
      }
    },
    {
      "type": "node",
      "id": 4386506897,
      "lat": 13.0253304,
      "lon": 77.6037215,
      "tags": {
        "leisure": "fitness_centre",
        "name": "Life Care"
      }
    },
    {
      "type": "node",
      "id": 4386506989,
      "lat": 13.0240899,
      "lon": 77.6032598,
      "tags": {
        "amenity": "recycling",
        "name": "Murugan Old Paper Mart"
      }
    },
    {
      "type": "node",
      "id": 4386506990,
      "lat": 13.0246642,
      "lon": 77.6033983,
      "tags": {
        "name": "Zain Communication",
        "shop": "mobile_phone"
      }
    },
    {
      "type": "node",
      "id": 4386506991,
      "lat": 13.0247965,
      "lon": 77.6034489,
      "tags": {
        "name": "Karnataka Provision Stores",
        "shop": "department_store"
      }
    },
    {
      "type": "node",
      "id": 4386507089,
      "lat": 13.0244352,
      "lon": 77.6033228,
      "tags": {
        "name": "Ebenezer Men's and Women's Salon",
        "shop": "hairdresser"
      }
    },
    {
      "type": "node",
      "id": 4386507090,
      "lat": 13.0246144,
      "lon": 77.6033711,
      "tags": {
        "name": "Roxy Dry Cleaners",
        "shop": "laundry"
      }
    },
    {
      "type": "node",
      "id": 4386507091,
      "lat": 13.0248622,
      "lon": 77.6034844,
      "tags": {
        "name": "Padma Digital Studio",
        "shop": "photo"
      }
    },
    {
      "type": "node",
      "id": 4386507092,
      "lat": 13.0252114,
      "lon": 77.6034226,
      "tags": {
        "name": "Looks Beauty Parlour",
        "shop": "cosmetics"
      }
    },
    {
      "type": "node",
      "id": 4386507093,
      "lat": 13.0254198,
      "lon": 77.6036818,
      "tags": {
        "name": "Infa Collections",
        "shop": "gift"
      }
    },
    {
      "type": "node",
      "id": 4386507094,
      "lat": 13.025341,
      "lon": 77.6036943,
      "tags": {
        "amenity": "pharmacy",
        "name": "Rudra Medicals and General Store"
      }
    },
    {
      "type": "node",
      "id": 4386507389,
      "lat": 13.0248156,
      "lon": 77.6034597,
      "tags": {
        "name": "Sri Manjunatha Vegetable Stores",
        "shop": "greengrocer"
      }
    },
    {
      "type": "node",
      "id": 4446970715,
      "lat": 13.0192775,
      "lon": 77.5968129,
      "tags": {
        "addr:city": "bangalore",
        "addr:housenumber": "76",
        "addr:postcode": "560032",
        "addr:street": "14th Cross Rd, Thimaiah Garden, Devara Jeevanahalli",
        "amenity": "pharmacy",
        "name": "Rajkumar Diagnostics",
        "phone": "+919538244420",
        "source": "www.justdial.com"
      }
    },
    {
      "type": "node",
      "id": 4489095061,
      "lat": 13.0168374,
      "lon": 77.5952157,
      "tags": {
        "addr:city": "bangalore",
        "addr:housenumber": "1/5",
        "addr:postcode": "560032",
        "addr:street": "B/H Nilgiris Next Copn Scholl, Opposite Anjeya Temple, 1st Main, 1st Cross, R T Nagar, R T Nagar, Bhadrappa Layout, RT Nagar",
        "name": "Vinayaka Sports World",
        "opening_hours": "10:00-21:00",
        "phone": "098453 58652",
        "shop": "sports"
      }
    },
    {
      "type": "node",
      "id": 4489693189,
      "lat": 13.0240504,
      "lon": 77.6030297,
      "tags": {
        "addr:city": "bangalore",
        "addr:housenumber": "551",
        "addr:postcode": "560032",
        "addr:street": "2nd Block,2nd Main Road, Kanaka Nagar Rt Nagar",
        "leisure": "sports_centre",
        "name": "Roots Fitness",
        "opening_hours": "9:30-22:00",
        "phone": "(91)-80-33055480",
        "sport": "gymnastics"
      }
    },
    {
      "type": "node",
      "id": 4489826333,
      "lat": 13.0218675,
      "lon": 77.597868,
      "tags": {
        "addr:city": "Bengaluru",
        "addr:housenumber": "551",
        "addr:postcode": "560032",
        "addr:street": ", 2nd Floor, 2nd Cross, 2nd Block, R.T Nagar, Bhadrappa Layout, RT Nagar, , Karnataka",
        "leisure": "sports_centre",
        "name": "Reach Roots Fitness",
        "opening_hours": "5:30-22:00",
        "phone": "080 4128 9578",
        "website": "rootsfitness.co.in"
      }
    },
    {
      "type": "node",
      "id": 4577564292,
      "lat": 13.0164835,
      "lon": 77.6051223,
      "tags": {
        "amenity": "place_of_worship",
        "name": "Kaval Byrasandra",
        "name:en": "kavalbysandra",
        "name:kn": "ಕವಲ್ ಬೈರಸಂದ್ರ"
      }
    },
    {
      "type": "node",
      "id": 5441831152,
      "lat": 13.0221222,
      "lon": 77.6034687,
      "tags": {
        "addr:city": "Bangalore",
        "addr:postcode": "560032",
        "addr:street": "KHB Main Road",
        "amenity": "place_of_worship",
        "name": "Ganesha Temple",
        "name:kn": "ಗಣೇಶ ದೇವಸ್ಥಾನ",
        "religion": "hindu"
      }
    },
    {
      "type": "node",
      "id": 6938868535,
      "lat": 13.0241654,
      "lon": 77.6033556,
      "tags": {
        "addr:district": "Bengaluru Urban",
        "addr:full": "No. 9/8, 1st Main, Sultan Pallya, Rt Nagar Post",
        "addr:postcode": "560032",
        "addr:state": "Karnataka",
        "amenity": "clinic",
        "name": "Shanmuga Nursing Home, Bengaluru Urban",
        "source": "OpenGovernmentData"
      }
    },
    {
      "type": "node",
      "id": 6939076687,
      "lat": 13.0212406,
      "lon": 77.6070739,
      "tags": {
        "addr:district": "Bengaluru Urban",
        "addr:full": "91, Kavalbhyrasandra Dr Amc Road, Rt Nagar Post R T Nagar",
        "addr:postcode": "560032",
        "addr:state": "Karnataka",
        "amenity": "hospital",
        "name": "Manju Sree Hospital",
        "name:kn": "ಮಂಜುಶ್ರೀ ಆಸ್ಪತ್ರೆ",
        "source": "OpenGovernmentData"
      }
    },
    {
      "type": "node",
      "id": 6945075435,
      "lat": 13.015884,
      "lon": 77.5973475,
      "tags": {
        "addr:district": "Bengaluru Urban",
        "addr:full": "No 29, 9Th Cross Adi Kabir Ashram Road,H.D Devegowda Road",
        "addr:postcode": "560037",
        "addr:state": "Karnataka",
        "amenity": "hospital",
        "name": "V Care Hospital",
        "source": "OpenGovernmentData"
      }
    },
    {
      "type": "node",
      "id": 6947287709,
      "lat": 13.0244555,
      "lon": 77.6003999,
      "tags": {
        "addr:district": "Bengaluru Urban",
        "addr:full": "No.4, 6th Cross, Ganesha Block, Dinnur Main Road",
        "addr:postcode": "560032",
        "addr:state": "Karnataka",
        "addr:subdistrict": "Ganesha Block",
        "amenity": "clinic",
        "name": "Pradnya Nethralaya",
        "operator:type": "private",
        "source": "OpenGovernmentData",
        "website": "https://www.pradnyanethralaya.com/"
      }
    },
    {
      "type": "node",
      "id": 11119061503,
      "lat": 13.0217968,
      "lon": 77.6029889,
      "tags": {
        "amenity": "bank",
        "brand": "Federal Bank",
        "brand:wikidata": "Q2044983",
        "name": "Federal Bank"
      }
    },
    {
      "type": "node",
      "id": 11119061504,
      "lat": 13.0218079,
      "lon": 77.6029578,
      "tags": {
        "brand": "Vodafone Idea",
        "brand:wikidata": "Q1656673",
        "name": "Vodafone Idea",
        "shop": "mobile_phone"
      }
    },
    {
      "type": "node",
      "id": 11119061505,
      "lat": 13.0219401,
      "lon": 77.6026255,
      "tags": {
        "amenity": "restaurant",
        "name": "Sri Udupi Grand"
      }
    },
    {
      "type": "node",
      "id": 11148749731,
      "lat": 13.0170032,
      "lon": 77.6043782,
      "tags": {
        "amenity": "fast_food",
        "cuisine": "regional",
        "name": "Inderjeet Layout",
        "operator": "BBMP"
      }
    },
    {
      "type": "way",
      "id": 45739922,
      "center": {
        "lat": 13.0184494,
        "lon": 77.595658
      },
      "tags": {
        "amenity": "school"
      }
    },
    {
      "type": "way",
      "id": 45740308,
      "center": {
        "lat": 13.0194919,
        "lon": 77.5962353
      },
      "tags": {
        "leisure": "park"
      }
    },
    {
      "type": "way",
      "id": 45740327,
      "center": {
        "lat": 13.0213685,
        "lon": 77.5970546
      },
      "tags": {
        "leisure": "park"
      }
    },
    {
      "type": "way",
      "id": 45740328,
      "center": {
        "lat": 13.0209333,
        "lon": 77.5984875
      },
      "tags": {
        "landuse": "commercial",
        "leisure": "resort",
        "name": "Patel's Inn Resort"
      }
    },
    {
      "type": "way",
      "id": 133488225,
      "center": {
        "lat": 13.0131503,
        "lon": 77.5937948
      },
      "tags": {
        "amenity": "cinema",
        "name": "Radhakrishna Theatre",
        "name:kn": "ರಾಧಾಕೃಷ್ಣ ಚಿತ್ರಮಂದಿರ"
      }
    },
    {
      "type": "way",
      "id": 175278312,
      "center": {
        "lat": 13.0202739,
        "lon": 77.595591
      },
      "tags": {
        "amenity": "public_building",
        "building": "yes"
      }
    },
    {
      "type": "way",
      "id": 175278313,
      "center": {
        "lat": 13.0205158,
        "lon": 77.5947013
      },
      "tags": {
        "amenity": "public_building",
        "building": "yes"
      }
    },
    {
      "type": "way",
      "id": 278457027,
      "center": {
        "lat": 13.0223671,
        "lon": 77.5954429
      },
      "tags": {
        "leisure": "park",
        "name": "Park at RT Nagar"
      }
    },
    {
      "type": "way",
      "id": 348111568,
      "center": {
        "lat": 13.0152353,
        "lon": 77.6042113
      },
      "tags": {
        "amenity": "place_of_worship",
        "building": "yes",
        "religion": "hindu"
      }
    },
    {
      "type": "way",
      "id": 353378505,
      "center": {
        "lat": 13.0232026,
        "lon": 77.5959511
      },
      "tags": {
        "leisure": "park"
      }
    },
    {
      "type": "way",
      "id": 839044763,
      "center": {
        "lat": 13.0194822,
        "lon": 77.5946407
      },
      "tags": {
        "leisure": "park"
      }
    },
    {
      "type": "way",
      "id": 994820814,
      "center": {
        "lat": 13.0099473,
        "lon": 77.5994061
      },
      "tags": {
        "leisure": "pitch",
        "sport": "basketball"
      }
    },
    {
      "type": "way",
      "id": 1023657480,
      "center": {
        "lat": 13.0141331,
        "lon": 77.5938747
      },
      "tags": {
        "amenity": "place_of_worship",
        "religion": "hindu"
      }
    },
    {
      "type": "way",
      "id": 1023657481,
      "center": {
        "lat": 13.0123443,
        "lon": 77.5946694
      },
      "tags": {
        "amenity": "school"
      }
    },
    {
      "type": "way",
      "id": 1117353463,
      "center": {
        "lat": 13.0225862,
        "lon": 77.6028469
      },
      "tags": {
        "leisure": "park"
      }
    },
    {
      "type": "way",
      "id": 1202598208,
      "center": {
        "lat": 13.0143615,
        "lon": 77.6056755
      },
      "tags": {
        "amenity": "cinema",
        "name": "Vinayaka Theater",
        "name:kn": "ವಿನಾಯಕ"
      }
    },
    {
      "type": "way",
      "id": 1385583281,
      "center": {
        "lat": 13.0222556,
        "lon": 77.6081873
      },
      "tags": {
        "amenity": "fuel"
      }
    },
    {
      "type": "way",
      "id": 1386912276,
      "center": {
        "lat": 13.0220826,
        "lon": 77.6021684
      },
      "tags": {
        "amenity": "college",
        "name": "Lal Bahabur Shastri Degree College"
      }
    }
  ]
}