{
  "area_name": "Nrupathunga Nagar",
  "osm_id": 2066488017,
  "osm_type": "node",
  "place_type": "neighbourhood",
  "amenity_count": 238,
  "amenities": [
    {
      "type": "node",
      "id": 1877193413,
      "lat": 12.8903823,
      "lon": 77.5819754,
      "tags": {
        "name": "Everfine Super Market",
        "shop": "supermarket",
        "source": "Bing, local knowledge"
      }
    },
    {
      "type": "node",
      "id": 1877209119,
      "lat": 12.8880679,
      "lon": 77.5810131,
      "tags": {
        "amenity": "school",
        "name": "Capitol Public School",
        "source": "Bing, local knowledge"
      }
    },
    {
      "type": "node",
      "id": 1877233424,
      "lat": 12.8872149,
      "lon": 77.5817813,
      "tags": {
        "check_date": "2023-09-19",
        "name": "Smart Bazaar",
        "payment:mastercard": "yes",
        "payment:visa": "yes",
        "shop": "supermarket",
        "source": "Bing, local knowledge",
        "wheelchair": "yes"
      }
    },
    {
      "type": "node",
      "id": 1922035929,
      "lat": 12.8773766,
      "lon": 77.5806683,
      "tags": {
        "amenity": "post_office",
        "name": "JP Nagar 8th Phase 560076",
        "operator": "India Post",
        "source": "Bing, Local knowledge"
      }
    },
    {
      "type": "node",
      "id": 1922045869,
      "lat": 12.8908298,
      "lon": 77.5819384,
      "tags": {
        "name": "Melukote Iyengar's Bakery",
        "shop": "bakery"
      }
    },
    {
      "type": "node",
      "id": 1923264401,
      "lat": 12.8832766,
      "lon": 77.5829876,
      "tags": {
        "amenity": "doctors",
        "healthcare": "doctor",
        "name": "Meenakshi ENT Speciality Centre",
        "note": "ENT - Otolaryngology"
      }
    },
    {
      "type": "node",
      "id": 1923914071,
      "lat": 12.8909409,
      "lon": 77.5819291,
      "tags": {
        "name": "Classic Corner",
        "shop": "greengrocer"
      }
    },
    {
      "type": "node",
      "id": 1923914647,
      "lat": 12.8896649,
      "lon": 77.5817024,
      "tags": {
        "name": "Liquor Mart",
        "shop": "alcohol"
      }
    },
    {
      "type": "node",
      "id": 1923915481,
      "lat": 12.8894723,
      "lon": 77.5820065,
      "tags": {
        "amenity": "bank",
        "atm": "yes",
        "brand": "Andhra Bank",
        "brand:wikidata": "Q2003476",
        "brand:wikipedia": "en:Andhra Bank",
        "name": "Andhra Bank",
        "name:en": "Andhra Bank",
        "name:kn": "ಆಂಧ್ರ ಬ್ಯಾಂಕ್",
        "operator": "Andhra Bank",
        "website": "https://www.andhrabank.in"
      }
    },
    {
      "type": "node",
      "id": 1923915482,
      "lat": 12.8891563,
      "lon": 77.5820091,
      "tags": {
        "amenity": "bank",
        "atm": "yes",
        "brand": "State Bank of India",
        "brand:wikidata": "Q1340361",
        "brand:wikipedia": "en:State Bank of India",
        "name": "State Bank of India",
        "name:kn": "ಭಾರತೀಯ ಸ್ಟೇಟ್ ಬ್ಯಾಂಕ್",
        "short_name": "SBI",
        "website": "https://www.sbi.co.in"
      }
    },
    {
      "type": "node",
      "id": 1923916887,
      "lat": 12.8885876,
      "lon": 77.5820492,
      "tags": {
        "amenity": "doctors",
        "healthcare": "doctor",
        "name": "Kids Care Clinic"
      }
    },
    {
      "type": "node",
      "id": 1925650223,
      "lat": 12.8891417,
      "lon": 77.57816,
      "tags": {
        "leisure": "playground",
        "name": "Children's play area"
      }
    },
    {
      "type": "node",
      "id": 1925655676,
      "lat": 12.8902358,
      "lon": 77.581971,
      "tags": {
        "brand": "Bata",
        "brand:wikidata": "Q688082",
        "name": "Bata",
        "name:kn": "ಬಾಟಾ",
        "shop": "shoes"
      }
    },
    {
      "type": "node",
      "id": 1925679765,
      "lat": 12.8883173,
      "lon": 77.5816761,
      "tags": {
        "name": "Nandini Milk Products",
        "shop": "kiosk"
      }
    },
    {
      "type": "node",
      "id": 1932421590,
      "lat": 12.8868474,
      "lon": 77.5819283,
      "tags": {
        "amenity": "bank",
        "atm": "yes",
        "brand": "Axis Bank",
        "brand:wikidata": "Q2003549",
        "brand:wikipedia": "en:Axis Bank",
        "name": "Axis Bank",
        "name:en": "Axis Bank",
        "name:kn": "ಆಕ್ಸಿಸ್ ಬ್ಯಾಂಕ್",
        "operator": "Axis Bank",
        "website": "https://www.axisbank.com"
      }
    },
    {
      "type": "node",
      "id": 1932422774,
      "lat": 12.8865339,
      "lon": 77.5819949,
      "tags": {
        "addr:housenumber": "32",
        "addr:street": "Kothanoor Main road",
        "amenity": "restaurant",
        "cuisine": "indian",
        "name": "Kabab Mehal"
      }
    },
    {
      "type": "node",
      "id": 1949425620,
      "lat": 12.8900804,
      "lon": 77.581659,
      "tags": {
        "name": "Adishwar",
        "name:kn": "ಅದಿಶ್ವರ್",
        "shop": "electronics"
      }
    },
    {
      "type": "node",
      "id": 1949425628,
      "lat": 12.8889909,
      "lon": 77.5817111,
      "tags": {
        "name": "Pai International",
        "shop": "electronics"
      }
    },
    {
      "type": "node",
      "id": 1950848715,
      "lat": 12.8844534,
      "lon": 77.5825987,
      "tags": {
        "amenity": "bank",
        "atm": "yes",
        "brand": "HDFC Bank",
        "brand:wikidata": "Q631047",
        "brand:wikipedia": "en:HDFC Bank",
        "name": "HDFC Bank",
        "name:kn": "ಎಚ್ ಡಿ ಎಫ್ ಸಿ",
        "operator": "HDFC Bank",
        "short_name": "HDFC",
        "website": "https://www.hdfcbank.com"
      }
    },
    {
      "type": "node",
      "id": 1951220184,
      "lat": 12.8908929,
      "lon": 77.5819348,
      "tags": {
        "amenity": "restaurant",
        "cuisine": "indian",
        "name": "SLV",
        "name:kn": "ಎಸ್ಎಲ್‌ವಿ"
      }
    },
    {
      "type": "node",
      "id": 1952895255,
      "lat": 12.8875651,
      "lon": 77.5820643,
      "tags": {
        "name": "Sangeetha",
        "name:kn": "ಸಂಗೀತ",
        "shop": "mobile_phone"
      }
    },
    {
      "type": "node",
      "id": 1952896921,
      "lat": 12.8872845,
      "lon": 77.5821065,
      "tags": {
        "addr:floor": "G",
        "amenity": "restaurant",
        "check_date": "2023-09-19",
        "cuisine": "indian",
        "diet:vegetarian": "yes",
        "name": "Kakal Kai Ruchi",
        "name:kn": "ಕಾಕಲ್ ಕೈ ರುಚಿ"
      }
    },
    {
      "type": "node",
      "id": 1952902143,
      "lat": 12.8855512,
      "lon": 77.5823969,
      "tags": {
        "amenity": "dentist",
        "healthcare": "dentist",
        "name": "Narayana Hrudayalaya Dental Clinic",
        "name:kn": "ನಾರಾಯಣ ಹೃದಯಾಲಯ ದಂತ ಆಸ್ಪತ್ರೆ"
      }
    },
    {
      "type": "node",
      "id": 1952910418,
      "lat": 12.8823536,
      "lon": 77.5835185,
      "tags": {
        "amenity": "bank",
        "atm": "yes",
        "brand": "Corporation Bank",
        "brand:wikidata": "Q2003387",
        "brand:wikipedia": "en:Corporation Bank",
        "name": "Corporation Bank",
        "name:en": "Corporation Bank",
        "name:kn": "ಕಾರ್ಪರೇಷನ್ ಬ್ಯಾಂಕ್",
        "website": "https://corpbank.com/"
      }
    },
    {
      "type": "node",
      "id": 2002207196,
      "lat": 12.8874469,
      "lon": 77.5824258,
      "tags": {
        "name": "Page World India",
        "shop": "books"
      }
    },
    {
      "type": "node",
      "id": 2002686385,
      "lat": 12.8807554,
      "lon": 77.5841671,
      "tags": {
        "addr:district": "Bengaluru Urban",
        "addr:full": "Kothanur Dinne Main Road,Sapthagiri Layout,OppositeFabricana Factory,J.P.Ngar,8Th Phase",
        "addr:postcode": "560078",
        "addr:state": "Karnataka",
        "amenity": "hospital",
        "name": "T.R.Hospital",
        "source": "OpenGovernmentData"
      }
    },
    {
      "type": "node",
      "id": 2002703954,
      "lat": 12.8849462,
      "lon": 77.5818317,
      "tags": {
        "amenity": "college",
        "name": "Capitol College of Nursing"
      }
    },
    {
      "type": "node",
      "id": 2010727464,
      "lat": 12.8906906,
      "lon": 77.5799648,
      "tags": {
        "amenity": "place_of_worship",
        "name": "Dr. P. Vivekananda layout mini temple"
      }
    },
    {
      "type": "node",
      "id": 2012122119,
      "lat": 12.891484,
      "lon": 77.5816961,
      "tags": {
        "amenity": "hospital",
        "emergency": "yes",
        "healthcare": "hospital",
        "name": "Rainbow Clinic and Diagnostic Laboratory"
      }
    },
    {
      "type": "node",
      "id": 2012546405,
      "lat": 12.886025,
      "lon": 77.5856544,
      "tags": {
        "addr:place": "Kothanur",
        "amenity": "school",
        "isced:level": "3",
        "name": "Cambridge School Kothanur",
        "name:kn": "ಕೇಂಬ್ರಿಜ್ ಶಾಲೆ,ಕೊತ್ತನೂರ್",
        "operator": "Private Un-Aided",
        "school": "Higher Secondary"
      }
    },
    {
      "type": "node",
      "id": 2012618832,
      "lat": 12.8852909,
      "lon": 77.5876008,
      "tags": {
        "amenity": "place_of_worship",
        "name": "Sri Gowri Shankara Temple",
        "name:kn": "ಗೌರೀ ಶಂಕರ ದೇವಸ್ಥಾನ",
        "religion": "hindu"
      }
    },
    {
      "type": "node",
      "id": 2015225682,
      "lat": 12.8871258,
      "lon": 77.5821622,
      "tags": {
        "name": "Popular Mutton Stall",
        "shop": "butcher"
      }
    },
    {
      "type": "node",
      "id": 2020107613,
      "lat": 12.8836176,
      "lon": 77.5821892,
      "tags": {
        "amenity": "kindergarten",
        "name": "Edify Kids"
      }
    },
    {
      "type": "node",
      "id": 2021574669,
      "lat": 12.8904007,
      "lon": 77.5824633,
      "tags": {
        "amenity": "bank",
        "atm": "yes",
        "brand": "ICICI Bank",
        "brand:wikidata": "Q1653258",
        "name": "ICICI Bank",
        "name:en": "ICICI Bank",
        "name:kn": "ಐಸಿಐಸಿಐ ಬ್ಯಾಂಕು",
        "operator": "ICICI Bank",
        "short_name": "ICICI",
        "website": "https://www.icicibank.com"
      }
    },
    {
      "type": "node",
      "id": 2032027189,
      "lat": 12.8815935,
      "lon": 77.5835331,
      "tags": {
        "name": "Green Mart",
        "shop": "supermarket"
      }
    },
    {
      "type": "node",
      "id": 2032027880,
      "lat": 12.8850998,
      "lon": 77.5823163,
      "tags": {
        "amenity": "atm",
        "brand": "ICICI Bank",
        "brand:wikidata": "Q1653258",
        "name": "ICICI Bank",
        "operator": "ICICI Bank",
        "operator:wikidata": "Q1653258",
        "short_name": "ICICI"
      }
    },
    {
      "type": "node",
      "id": 2032034937,
      "lat": 12.8860743,
      "lon": 77.5821092,
      "tags": {
        "amenity": "atm",
        "brand": "Kotak Mahindra Bank",
        "brand:wikidata": "Q2040404",
        "name": "Kotak Mahindra Bank",
        "name:kn": "ಕೋಟಕ್ ಮಹಿಂದ್ರ ಬ್ಯಾಂಕ್",
        "operator": "Kotak Mahindra Bank",
        "operator:wikidata": "Q2040404"
      }
    },
    {
      "type": "node",
      "id": 2032038518,
      "lat": 12.8896231,
      "lon": 77.5823913,
      "tags": {
        "amenity": "kindergarten",
        "name": "Aura Montessori House of Children"
      }
    },
    {
      "type": "node",
      "id": 2032039489,
      "lat": 12.890184,
      "lon": 77.5823622,
      "tags": {
        "amenity": "bank",
        "brand": "UCO Bank",
        "brand:wikidata": "Q2005310",
        "brand:wikipedia": "en:UCO Bank",
        "name": "UCO Bank",
        "name:en": "UCO Bank",
        "name:kn": "ಯೂಕೊ ಬ್ಯಾಂಕ್",
        "old_name": "United Commercial Bank",
        "website": "https://www.ucobank.com"
      }
    },
    {
      "type": "node",
      "id": 2034338169,
      "lat": 12.8842357,
      "lon": 77.5826768,
      "tags": {
        "amenity": "bank",
        "atm": "yes",
        "brand": "Syndicate Bank",
        "brand:wikidata": "Q2004088",
        "name": "Syndicate Bank",
        "name:en": "Syndicate Bank",
        "name:kn": "ಸಿಂಡಿಕೇಟ್ ಬ್ಯಾಂಕ್",
        "website": "https://www.syndicatebank.in"
      }
    },
    {
      "type": "node",
      "id": 2034339048,
      "lat": 12.8874364,
      "lon": 77.5820602,
      "tags": {
        "name": "Optic Mall",
        "shop": "optician"
      }
    },
    {
      "type": "node",
      "id": 2063169232,
      "lat": 12.8887979,
      "lon": 77.5793878,
      "tags": {
        "amenity": "place_of_worship",
        "name": "Shri Varadanjaneya Swamy Temple",
        "name:kn": "ವಾರದ ಅಂಜನೆಯ ದೇವಸ್ಥಾನ",
        "religion": "hindu"
      }
    },
    {
      "type": "node",
      "id": 2066536098,
      "lat": 12.8835246,
      "lon": 77.5831316,
      "tags": {
        "amenity": "atm",
        "brand": "Indian Bank",
        "brand:wikidata": "Q2003789",
        "name": "Indian Bank",
        "operator": "Indian Bank",
        "operator:wikidata": "Q2003789"
      }
    },
    {
      "type": "node",
      "id": 2123769731,
      "lat": 12.8883745,
      "lon": 77.5820587,
      "tags": {
        "amenity": "restaurant",
        "cuisine": "chinese;thai",
        "name": "Beiging Bites"
      }
    },
    {
      "type": "node",
      "id": 2123769736,
      "lat": 12.8883943,
      "lon": 77.5820546,
      "tags": {
        "name": "Kanti Sweets",
        "shop": "bakery"
      }
    },
    {
      "type": "node",
      "id": 2123773761,
      "lat": 12.891182,
      "lon": 77.5816478,
      "tags": {
        "addr:city": "Bangalore",
        "addr:housenumber": "536, VBV Plaza",
        "addr:postcode": "560068",
        "addr:street": "Puttenahalli Main Road",
        "amenity": "fast_food",
        "brand": "Papa John's",
        "brand:wikidata": "Q2759586",
        "cuisine": "pizza",
        "delivery": "yes",
        "name": "Papa John's",
        "opening_hours": "11:00 - 23:00",
        "phone": "080 41463111",
        "takeaway": "yes",
        "website": "https://www.papajohnspizza.in"
      }
    },
    {
      "type": "node",
      "id": 2151943537,
      "lat": 12.8850121,
      "lon": 77.5863075,
      "tags": {
        "name": "Bosch Service",
        "operator": "Sri Sai Automotives",
        "shop": "car_repair"
      }
    },
    {
      "type": "node",
      "id": 2173392419,
      "lat": 12.8803576,
      "lon": 77.5796579,
      "tags": {
        "addr:housenumber": "#24-39",
        "addr:postcode": "560078",
        "addr:street": "7th Main Road",
        "amenity": "school",
        "email": "communications.oisjp@orchids.edu.in",
        "name": "Bangalore Scottish School",
        "name:en": "Orchids The International School, JP Nagar",
        "opening_hours": "Mo-Su 09:00-18:30",
        "operator": "Orchids International School",
        "phone": "9513731352",
        "source": "GPS",
        "website": "https://www.orchidsinternationalschool.com/bangalore-branches/jp-nagar/"
      }
    },
    {
      "type": "node",
      "id": 2175121051,
      "lat": 12.8881605,
      "lon": 77.5820229,
      "tags": {
        "amenity": "bank",
        "atm": "yes",
        "brand": "Karnataka Bank",
        "brand:wikidata": "Q2042632",
        "name": "Karnataka Bank",
        "name:kn": "ಕರ್ನಾಟಕ ಬ್ಯಾಂಕ್",
        "operator": "Karnataka Bank",
        "source": "GPS"
      }
    },
    {
      "type": "node",
      "id": 2215727573,
      "lat": 12.8893056,
      "lon": 77.5817421,
      "tags": {
        "amenity": "fast_food",
        "brand": "Domino's",
        "brand:ks": "ڈومینوز",
        "brand:pa": "ਡੋਮੀਨੋਜ਼",
        "brand:ur": "ڈومینوز",
        "brand:wikidata": "Q839466",
        "brand:wikipedia": "en:Domino's Pizza",
        "cuisine": "pizza",
        "name": "Domino's",
        "name:kn": "ಡಾಮಿನೋಸ್",
        "name:ks": "ڈومینوز",
        "name:pa": "ਡੋਮੀਨੋਜ਼",
        "name:ur": "ڈومینوز",
        "takeaway": "yes"
      }
    },
    {
      "type": "node",
      "id": 2512834837,
      "lat": 12.8894895,
      "lon": 77.5820031,
      "tags": {
        "name": "Evergreen Fruit and Vegetable Super Market",
        "shop": "greengrocer"
      }
    },
    {
      "type": "node",
      "id": 2512834838,
      "lat": 12.8901353,
      "lon": 77.5819686,
      "tags": {
        "name": "Instring",
        "shop": "clothes"
      }
    },
    {
      "type": "node",
      "id": 2512834840,
      "lat": 12.8896247,
      "lon": 77.5817501,
      "tags": {
        "name": "Vesture",
        "shop": "clothes"
      }
    },
    {
      "type": "node",
      "id": 2512836521,
      "lat": 12.8907146,
      "lon": 77.58194,
      "tags": {
        "amenity": "atm",
        "brand": "Andhra Bank",
        "brand:wikidata": "Q2003476",
        "name": "Andhra Bank",
        "operator": "Andhra Bank",
        "operator:wikidata": "Q2003476"
      }
    },
    {
      "type": "node",
      "id": 2512839901,
      "lat": 12.8906819,
      "lon": 77.5819411,
      "tags": {
        "amenity": "pharmacy",
        "dispensing": "yes",
        "healthcare": "pharmacy",
        "name": "Sri Laxmi Medicals"
      }
    },
    {
      "type": "node",
      "id": 2514116208,
      "lat": 12.8894521,
      "lon": 77.5820294,
      "tags": {
        "brand": "Thomas Cook",
        "brand:wikidata": "Q2141800",
        "name": "Thomas Cook",
        "name:kn": "ತೋಮಸ್ ಕುಕ್",
        "shop": "travel_agency"
      }
    },
    {
      "type": "node",
      "id": 2621049953,
      "lat": 12.8875244,
      "lon": 77.582032,
      "tags": {
        "name": "FSquare",
        "second_hand": "no",
        "shop": "clothes"
      }
    },
    {
      "type": "node",
      "id": 2621049954,
      "lat": 12.887085,
      "lon": 77.5819484,
      "tags": {
        "addr:street": "Kothnur Main Road",
        "name": "Lakshmi Scotch Yard",
        "shop": "alcohol"
      }
    },
    {
      "type": "node",
      "id": 2621049955,
      "lat": 12.8861649,
      "lon": 77.5822896,
      "tags": {
        "amenity": "fast_food",
        "cuisine": "indian",
        "name": "Nandi Bidadi Thatte Idli"
      }
    },
    {
      "type": "node",
      "id": 2621193739,
      "lat": 12.8913374,
      "lon": 77.5819211,
      "tags": {
        "amenity": "post_box",
        "operator": "India Post",
        "operator:wikidata": "Q3519720"
      }
    },
    {
      "type": "node",
      "id": 2621204390,
      "lat": 12.8834083,
      "lon": 77.5831677,
      "tags": {
        "amenity": "post_box",
        "operator": "India Post",
        "operator:wikidata": "Q3519720"
      }
    },
    {
      "type": "node",
      "id": 2638240793,
      "lat": 12.8902044,
      "lon": 77.5819669,
      "tags": {
        "name": "Everfine Vegetable and Fruit",
        "shop": "greengrocer"
      }
    },
    {
      "type": "node",
      "id": 2638241596,
      "lat": 12.8884857,
      "lon": 77.5820539,
      "tags": {
        "name": "Eden Fresh Fruits and Vegetables",
        "shop": "greengrocer"
      }
    },
    {
      "type": "node",
      "id": 2686938278,
      "lat": 12.8889981,
      "lon": 77.5820296,
      "tags": {
        "addr:city": "Bangalore",
        "addr:housenumber": "No.13",
        "addr:postcode": "560078",
        "addr:street": "Kothnur Main Road, J P Nagar, 7th Phase, Landmark - near Brigade Millennium Signal",
        "name": "First Baby Store",
        "opening_hours": "Mo-Su 10:00-21:00",
        "phone": "080 4127 3999",
        "shop": "baby_goods",
        "website": "https://firstbabystore.com/"
      }
    },
    {
      "type": "node",
      "id": 2686938279,
      "lat": 12.8890439,
      "lon": 77.582025,
      "tags": {
        "brand": "Liberty",
        "brand:wikidata": "Q6541947",
        "name": "Liberty Exclusive Showroom",
        "name:kn": "ಲಿಬರ್ಟಿ",
        "shop": "shoes"
      }
    },
    {
      "type": "node",
      "id": 2803277501,
      "lat": 12.8851987,
      "lon": 77.582368,
      "tags": {
        "name": "Mangalore Store",
        "shop": "bakery"
      }
    },
    {
      "type": "node",
      "id": 2852234189,
      "lat": 12.882713,
      "lon": 77.5864966,
      "tags": {
        "amenity": "place_of_worship",
        "name": "Sai Baba Temple",
        "name:kn": "ಸಾಯಿಬಾಬಾ ದೇವಸ್ಥಾನ"
      }
    },
    {
      "type": "node",
      "id": 2855634916,
      "lat": 12.8847019,
      "lon": 77.5917498,
      "tags": {
        "amenity": "school",
        "name": "Aradhana Academy"
      }
    },
    {
      "type": "node",
      "id": 2855634917,
      "lat": 12.8829285,
      "lon": 77.5833726,
      "tags": {
        "amenity": "pharmacy",
        "brand": "Apollo Pharmacy",
        "brand:wikidata": "Q62562612",
        "healthcare": "pharmacy",
        "name": "Apollo Pharmacy",
        "name:kn": "ಅಪೋಲೋ ಫಾರ್ಮಸಿ"
      }
    },
    {
      "type": "node",
      "id": 2857747050,
      "lat": 12.8832508,
      "lon": 77.5830061,
      "tags": {
        "name": "Bangalore Horticulture Fruits & Vegetable Center",
        "shop": "greengrocer"
      }
    },
    {
      "type": "node",
      "id": 2857747051,
      "lat": 12.883368,
      "lon": 77.5829816,
      "tags": {
        "amenity": "pharmacy",
        "dispensing": "yes",
        "healthcare": "pharmacy",
        "name": "Laxmi Medicals"
      }
    },
    {
      "type": "node",
      "id": 2857747052,
      "lat": 12.883362,
      "lon": 77.5831729,
      "tags": {
        "name": "Uth Fashions",
        "shop": "clothes"
      }
    },
    {
      "type": "node",
      "id": 2866032635,
      "lat": 12.8837154,
      "lon": 77.5830453,
      "tags": {
        "name": "Ganapathi Electronics",
        "shop": "radiotechnics"
      }
    },
    {
      "type": "node",
      "id": 2866032636,
      "lat": 12.8767642,
      "lon": 77.5840493,
      "tags": {
        "name": "Thirumala Flour Mill",
        "shop": "flour_mill"
      }
    },
    {
      "type": "node",
      "id": 2866051040,
      "lat": 12.8885573,
      "lon": 77.5820556,
      "tags": {
        "name": "Toy Zone",
        "shop": "toys"
      }
    },
    {
      "type": "node",
      "id": 2878070152,
      "lat": 12.8832467,
      "lon": 77.5832523,
      "tags": {
        "name": "Just Bake",
        "name:kn": "ಜಸ್ಟ್ ಬೇಕ್",
        "shop": "bakery",
        "source": "GPS"
      }
    },
    {
      "type": "node",
      "id": 2926296079,
      "lat": 12.8778945,
      "lon": 77.5836549,
      "tags": {
        "amenity": "place_of_worship",
        "name": "Ganesha Temple",
        "name:kn": "ಗಣೇಶ ದೇವಸ್ಥಾನ",
        "religion": "hindu"
      }
    },
    {
      "type": "node",
      "id": 2929308646,
      "lat": 12.8834858,
      "lon": 77.5831375,
      "tags": {
        "name": "Mukesh Food Corner",
        "shop": "grocery",
        "source": "survey"
      }
    },
    {
      "type": "node",
      "id": 2951208679,
      "lat": 12.8913095,
      "lon": 77.5816605,
      "tags": {
        "name": "Blak",
        "shop": "shoes"
      }
    },
    {
      "type": "node",
      "id": 2951208680,
      "lat": 12.891268,
      "lon": 77.5816626,
      "tags": {
        "amenity": "restaurant",
        "cuisine": "chinese;indian",
        "name": "Clay Oven Restaurant"
      }
    },
    {
      "type": "node",
      "id": 2951208681,
      "lat": 12.8911526,
      "lon": 77.5816598,
      "tags": {
        "name": "Health & Glow",
        "shop": "cosmetics"
      }
    },
    {
      "type": "node",
      "id": 2951208682,
      "lat": 12.8914002,
      "lon": 77.5816698,
      "tags": {
        "name": "Raymonds",
        "shop": "clothes"
      }
    },
    {
      "type": "node",
      "id": 2954412606,
      "lat": 12.8910593,
      "lon": 77.5816806,
      "tags": {
        "amenity": "bank",
        "atm": "yes",
        "brand": "Canara Bank",
        "brand:en": "Canara Bank",
        "brand:hi": "केनरा बैंक",
        "brand:kn": "ಕೆನರಾ ಬ್ಯಾಂಕ್",
        "brand:pa": "ਕੇਨਰਾ ਬੈਂਕ",
        "brand:pnb": "کینرا بینک",
        "brand:ur": "کینرا بینک",
        "brand:wikidata": "Q2003777",
        "brand:wikipedia": "en:Canara Bank",
        "brand:wikipedia:pa": "ਕੇਨਰਾ ਬੈਂਕ",
        "name": "Canara Bank",
        "name:en": "Canara Bank",
        "name:hi": "केनरा बैंक",
        "name:kn": "ಕೆನರಾ ಬ್ಯಾಂಕ್",
        "name:pa": "ਕੇਨਰਾ ਬੈਂਕ",
        "name:pnb": "کینرا بینک",
        "name:ur": "کینرا بینک",
        "website": "https://www.canarabank.com/"
      }
    },
    {
      "type": "node",
      "id": 2954412608,
      "lat": 12.887818,
      "lon": 77.5820311,
      "tags": {
        "name": "Cool Junction",
        "note": "Shop selling fresh fruit juice",
        "shop": "fruit_juice"
      }
    },
    {
      "type": "node",
      "id": 2954412609,
      "lat": 12.8886124,
      "lon": 77.5776022,
      "tags": {
        "amenity": "doctors",
        "healthcare": "doctor",
        "name": "Dr. Naline Jayaraj",
        "note": "pediatrician"
      }
    },
    {
      "type": "node",
      "id": 2954412611,
      "lat": 12.8849403,
      "lon": 77.5826306,
      "tags": {
        "amenity": "parking",
        "name": "Ennar Diagnostics & Healthcare",
        "note": "Health diagnostic tests",
        "operator": "Myles"
      }
    },
    {
      "type": "node",
      "id": 2954412612,
      "lat": 12.8867178,
      "lon": 77.581977,
      "tags": {
        "name": "Feet Fashion",
        "shop": "shoes"
      }
    },
    {
      "type": "node",
      "id": 2954412614,
      "lat": 12.8909616,
      "lon": 77.5816833,
      "tags": {
        "name": "Fresh Greens & Grains",
        "shop": "greengrocer"
      }
    },
    {
      "type": "node",
      "id": 2954412615,
      "lat": 12.8875853,
      "lon": 77.5820926,
      "tags": {
        "name": "G K Vale",
        "note": "Studio, photo prints, cameras",
        "shop": "photo"
      }
    },
    {
      "type": "node",
      "id": 2954412617,
      "lat": 12.8886473,
      "lon": 77.5820373,
      "tags": {
        "name": "Karthik Fashions",
        "shop": "clothes"
      }
    },
    {
      "type": "node",
      "id": 2954412618,
      "lat": 12.8911686,
      "lon": 77.5816939,
      "tags": {
        "name": "Malabar Gifts",
        "shop": "gift"
      }
    },
    {
      "type": "node",
      "id": 2954412620,
      "lat": 12.8893554,
      "lon": 77.5817524,
      "tags": {
        "name": "Megamart",
        "shop": "clothes"
      }
    },
    {
      "type": "node",
      "id": 2954412621,
      "lat": 12.8911005,
      "lon": 77.5816814,
      "tags": {
        "name": "Miss World",
        "shop": "clothes"
      }
    },
    {
      "type": "node",
      "id": 2954412623,
      "lat": 12.8886352,
      "lon": 77.5820313,
      "tags": {
        "name": "Niharika Collections",
        "shop": "clothes"
      }
    },
    {
      "type": "node",
      "id": 2954412624,
      "lat": 12.8855103,
      "lon": 77.5824089,
      "tags": {
        "name": "PP Fashion",
        "shop": "clothes"
      }
    },
    {
      "type": "node",
      "id": 2954412625,
      "lat": 12.8857556,
      "lon": 77.5823701,
      "tags": {
        "amenity": "kindergarten",
        "name": "Podar Jumbo Kids"
      }
    },
    {
      "type": "node",
      "id": 2954412627,
      "lat": 12.8848337,
      "lon": 77.5826781,
      "tags": {
        "name": "Rally Helmet Palace",
        "note": "Shop selling helmets for motorbikes",
        "shop": "helmets"
      }
    },
    {
      "type": "node",
      "id": 2954412630,
      "lat": 12.8848113,
      "lon": 77.5826946,
      "tags": {
        "amenity": "fast_food",
        "cuisine": "biriyani",
        "name": "Star Biriyani Ambur"
      }
    },
    {
      "type": "node",
      "id": 2954412631,
      "lat": 12.8886588,
      "lon": 77.5821115,
      "tags": {
        "internet_access": "yes",
        "name": "VG Computers",
        "shop": "copyshop"
      }
    },
    {
      "type": "node",
      "id": 2954412632,
      "lat": 12.8910795,
      "lon": 77.5816822,
      "tags": {
        "name": "YLG",
        "shop": "beauty"
      }
    },
    {
      "type": "node",
      "id": 2954417233,
      "lat": 12.8856427,
      "lon": 77.5821812,
      "tags": {
        "shop": "tyres"
      }
    },
    {
      "type": "node",
      "id": 2954417234,
      "lat": 12.8904626,
      "lon": 77.5816995,
      "tags": {
        "name": "Tamara",
        "shop": "fashion_accessories"
      }
    },
    {
      "type": "node",
      "id": 2954417235,
      "lat": 12.8905611,
      "lon": 77.5817123,
      "tags": {
        "brand": "Exide",
        "name": "Sree Prashanthi Enterprises",
        "note": "Rechargeable automotive & UPS batteries",
        "shop": "rechargeable_battery",
        "source": "voice"
      }
    },
    {
      "type": "node",
      "id": 2954417236,
      "lat": 12.8917424,
      "lon": 77.5817749,
      "tags": {
        "name": "Hot Chips",
        "note": "Deep fried snacks",
        "shop": "snacks"
      }
    },
    {
      "type": "node",
      "id": 2958334184,
      "lat": 12.8841397,
      "lon": 77.5827195,
      "tags": {
        "amenity": "kindergarten",
        "name": "Bachpan"
      }
    },
    {
      "type": "node",
      "id": 2958334185,
      "lat": 12.8846567,
      "lon": 77.5827576,
      "tags": {
        "name": "Excellent Mutton & Chicken Stall",
        "shop": "butcher"
      }
    },
    {
      "type": "node",
      "id": 2958334186,
      "lat": 12.8829195,
      "lon": 77.5831564,
      "tags": {
        "name": "Farm House Fruits & Vegetables",
        "shop": "greengrocer"
      }
    },
    {
      "type": "node",
      "id": 2958334188,
      "lat": 12.8879862,
      "lon": 77.5820232,
      "tags": {
        "name": "People",
        "shop": "clothes"
      }
    },
    {
      "type": "node",
      "id": 2958334189,
      "lat": 12.882941,
      "lon": 77.5831498,
      "tags": {
        "brand": "Titan",
        "name": "Time N Vision",
        "shop": "watches"
      }
    },
    {
      "type": "node",
      "id": 2958334191,
      "lat": 12.8830986,
      "lon": 77.5830924,
      "tags": {
        "name": "Varsha Enterprises Garden Shop",
        "shop": "garden_centre"
      }
    },
    {
      "type": "node",
      "id": 2958334192,
      "lat": 12.8831984,
      "lon": 77.5830283,
      "tags": {
        "amenity": "pharmacy",
        "dispensing": "yes",
        "healthcare": "pharmacy",
        "name": "Vinayaka Medical & General Stores"
      }
    },
    {
      "type": "node",
      "id": 2958334194,
      "lat": 12.8868724,
      "lon": 77.5821857,
      "tags": {
        "name": "xdrax",
        "shop": "shoes"
      }
    },
    {
      "type": "node",
      "id": 2961509490,
      "lat": 12.8835046,
      "lon": 77.5829231,
      "tags": {
        "name": "Ashok Jewellers",
        "shop": "jewelry",
        "source": "survey"
      }
    },
    {
      "type": "node",
      "id": 2961509491,
      "lat": 12.883636,
      "lon": 77.5828813,
      "tags": {
        "name": "Hasana Iyengar's Bakery",
        "shop": "bakery",
        "source": "survey"
      }
    },
    {
      "type": "node",
      "id": 2961509492,
      "lat": 12.8835569,
      "lon": 77.5829075,
      "tags": {
        "name": "Jagadamba Home Appliances",
        "note": "Home Appliances",
        "shop": "electronics",
        "source": "survey"
      }
    },
    {
      "type": "node",
      "id": 2961509493,
      "lat": 12.88345,
      "lon": 77.5829414,
      "tags": {
        "name": "Krishna Stationery & Sports",
        "shop": "stationery",
        "source": "survey"
      }
    },
    {
      "type": "node",
      "id": 2961509494,
      "lat": 12.8833962,
      "lon": 77.5829675,
      "tags": {
        "name": "Laxmi Fashions",
        "shop": "clothes",
        "source": "survey"
      }
    },
    {
      "type": "node",
      "id": 2961509495,
      "lat": 12.883422,
      "lon": 77.5829527,
      "tags": {
        "name": "Sangeetha Electricals & Electronics",
        "shop": "radiotechnics",
        "source": "survey"
      }
    },
    {
      "type": "node",
      "id": 2961509496,
      "lat": 12.8836101,
      "lon": 77.5828978,
      "tags": {
        "name": "Sree Jadamba Fancy & Gift Gallery",
        "shop": "gift",
        "source": "survey"
      }
    },
    {
      "type": "node",
      "id": 2964414615,
      "lat": 12.8902229,
      "lon": 77.5819872,
      "tags": {
        "name": "Royal Style Salon & Spa",
        "note": "Unisex Salon",
        "shop": "beauty"
      }
    },
    {
      "type": "node",
      "id": 2964414616,
      "lat": 12.8906339,
      "lon": 77.5819363,
      "tags": {
        "name": "S N Times",
        "note": "Shop selling watches",
        "shop": "watches",
        "source": "survey"
      }
    },
    {
      "type": "node",
      "id": 2964414617,
      "lat": 12.8907955,
      "lon": 77.5819391,
      "tags": {
        "name": "S V Provision Store",
        "shop": "convenience"
      }
    },
    {
      "type": "node",
      "id": 2964414619,
      "lat": 12.8883436,
      "lon": 77.5820577,
      "tags": {
        "name": "Sri Gajedndra Juice Center",
        "note": "Fresh fruit juice",
        "shop": "fruit_juice",
        "source": "survey"
      }
    },
    {
      "type": "node",
      "id": 2984082852,
      "lat": 12.8885561,
      "lon": 77.5790692,
      "tags": {
        "amenity": "kindergarten",
        "name": "Roots Montessori"
      }
    },
    {
      "type": "node",
      "id": 3016090358,
      "lat": 12.8888998,
      "lon": 77.5791519,
      "tags": {
        "amenity": "arts_centre",
        "name": "Arty Facets"
      }
    },
    {
      "type": "node",
      "id": 3016090367,
      "lat": 12.8887777,
      "lon": 77.5791574,
      "tags": {
        "amenity": "kindergarten",
        "name": "Little Elly"
      }
    },
    {
      "type": "node",
      "id": 3016090368,
      "lat": 12.8899461,
      "lon": 77.5789701,
      "tags": {
        "amenity": "arts_centre",
        "name": "Magic Hive",
        "note": "Art classes for children"
      }
    },
    {
      "type": "node",
      "id": 3034550567,
      "lat": 12.888391,
      "lon": 77.5821194,
      "tags": {
        "amenity": "car_wash",
        "name": "M R Car Wash"
      }
    },
    {
      "type": "node",
      "id": 3034550568,
      "lat": 12.8892751,
      "lon": 77.5817576,
      "tags": {
        "name": "MAC Unisex Salon",
        "shop": "hairdresser",
        "unisex": "yes"
      }
    },
    {
      "type": "node",
      "id": 3212034803,
      "lat": 12.8872703,
      "lon": 77.5817854,
      "tags": {
        "amenity": "college",
        "name": "Amaravathy PU College"
      }
    },
    {
      "type": "node",
      "id": 3378187573,
      "lat": 12.8907997,
      "lon": 77.5817018,
      "tags": {
        "name": "Compete",
        "shop": "clothes"
      }
    },
    {
      "type": "node",
      "id": 3378187574,
      "lat": 12.8903606,
      "lon": 77.582483,
      "tags": {
        "amenity": "clinic",
        "healthcare": "clinic",
        "name": "Dr. Mradula's Skin Clinic"
      }
    },
    {
      "type": "node",
      "id": 3592694281,
      "lat": 12.882975,
      "lon": 77.5833574,
      "tags": {
        "name": "N V R Tyres",
        "shop": "tyres",
        "source": "GPS"
      }
    },
    {
      "type": "node",
      "id": 3769905375,
      "lat": 12.8865522,
      "lon": 77.5822712,
      "tags": {
        "name": "Classic Men's Parlour",
        "shop": "hairdresser"
      }
    },
    {
      "type": "node",
      "id": 3769908094,
      "lat": 12.8905953,
      "lon": 77.582004,
      "tags": {
        "name": "S P Enterprises",
        "shop": "copyshop"
      }
    },
    {
      "type": "node",
      "id": 4186993789,
      "lat": 12.8833623,
      "lon": 77.5897411,
      "tags": {
        "amenity": "pharmacy",
        "brand": "Apollo Pharmacy",
        "brand:wikidata": "Q62562612",
        "healthcare": "pharmacy",
        "name": "Apollo Pharmacy",
        "name:kn": "ಅಪೋಲೋ ಫಾರ್ಮಸಿ"
      }
    },
    {
      "type": "node",
      "id": 4187001433,
      "lat": 12.8824167,
      "lon": 77.5839245,
      "tags": {
        "amenity": "atm",
        "brand": "State Bank of India",
        "brand:wikidata": "Q1340361",
        "name": "State Bank of India",
        "name:kn": "ಭಾರತೀಯ ಸ್ಟೇಟ್ ಬ್ಯಾಂಕ್",
        "operator": "State Bank of India",
        "operator:wikidata": "Q1340361",
        "short_name": "SBI"
      }
    },
    {
      "type": "node",
      "id": 4187001576,
      "lat": 12.8824311,
      "lon": 77.5838923,
      "tags": {
        "amenity": "bank",
        "brand": "State Bank of India",
        "brand:wikidata": "Q1340361",
        "brand:wikipedia": "en:State Bank of India",
        "name": "State Bank of India",
        "name:kn": "ಭಾರತೀಯ ಸ್ಟೇಟ್ ಬ್ಯಾಂಕ್",
        "short_name": "SBI"
      }
    },
    {
      "type": "node",
      "id": 4255628589,
      "lat": 12.8823914,
      "lon": 77.5834957,
      "tags": {
        "amenity": "atm",
        "brand": "Corporation Bank",
        "brand:wikidata": "Q2003387",
        "name": "Corporation Bank",
        "name:kn": "ಕಾರ್ಪರೇಷನ್ ಬ್ಯಾಂಕ್",
        "opening_hours": "24/7",
        "operator": "Corporation Bank",
        "operator:wikidata": "Q2003387"
      }
    },
    {
      "type": "node",
      "id": 4274757591,
      "lat": 12.8826056,
      "lon": 77.5834699,
      "tags": {
        "addr:street": "Kothnur Main Road",
        "amenity": "restaurant",
        "cuisine": "chinese;thai",
        "name": "Delicacy"
      }
    },
    {
      "type": "node",
      "id": 4274764090,
      "lat": 12.8867108,
      "lon": 77.5821914,
      "tags": {
        "addr:street": "Kothnur Main Road",
        "amenity": "fast_food",
        "cuisine": "indian;local",
        "name": "Goli Vadapav"
      }
    },
    {
      "type": "node",
      "id": 4277617894,
      "lat": 12.8867949,
      "lon": 77.5820014,
      "tags": {
        "amenity": "atm",
        "brand": "Axis Bank",
        "brand:wikidata": "Q2003549",
        "name": "Axis Bank",
        "name:kn": "ಆಕ್ಸಿಸ್ ಬ್ಯಾಂಕ್",
        "opening_hours": "24/7",
        "operator": "Axis Bank",
        "operator:wikidata": "Q2003549"
      }
    },
    {
      "type": "node",
      "id": 4277617895,
      "lat": 12.8873668,
      "lon": 77.5821022,
      "tags": {
        "addr:street": "Kothnur Main Road",
        "name": "Lovely Fashion",
        "shop": "clothes"
      }
    },
    {
      "type": "node",
      "id": 4277617990,
      "lat": 12.8866632,
      "lon": 77.5822067,
      "tags": {
        "addr:street": "Kothnur Main Road",
        "amenity": "fast_food",
        "name": "Momo Jojo"
      }
    },
    {
      "type": "node",
      "id": 4279411690,
      "lat": 12.8827588,
      "lon": 77.5848287,
      "tags": {
        "amenity": "kindergarten",
        "name": "Parilok"
      }
    },
    {
      "type": "node",
      "id": 4279512290,
      "lat": 12.8862164,
      "lon": 77.5822787,
      "tags": {
        "name": "Fast Track",
        "shop": "car_parts"
      }
    },
    {
      "type": "node",
      "id": 4279512889,
      "lat": 12.8819897,
      "lon": 77.5825547,
      "tags": {
        "addr:postcode": "560078",
        "addr:street": "2nd Main Road",
        "amenity": "school",
        "name": "Little Aryans"
      }
    },
    {
      "type": "node",
      "id": 4279536689,
      "lat": 12.8862711,
      "lon": 77.5822631,
      "tags": {
        "addr:street": "Kothnur Main Road",
        "name": "Delhi Sweets",
        "shop": "confectionery"
      }
    },
    {
      "type": "node",
      "id": 4302885789,
      "lat": 12.8866506,
      "lon": 77.5822279,
      "tags": {
        "addr:street": "Kothnur Main Road",
        "amenity": "restaurant",
        "cuisine": "indian",
        "name": "Athithi Gruha",
        "name:kn": "ಅತಿಥಿ ಗೃಹ"
      }
    },
    {
      "type": "node",
      "id": 4319002290,
      "lat": 12.88809,
      "lon": 77.5802594,
      "tags": {
        "addr:floor": "1;G",
        "addr:street": "5th Main Road",
        "amenity": "bank",
        "atm": "yes",
        "brand": "State Bank of India",
        "brand:wikidata": "Q1340361",
        "brand:wikipedia": "en:State Bank of India",
        "check_date": "2023-09-20",
        "description": "Puttenahalli Branch",
        "internet_access": "no",
        "name": "State Bank of India",
        "name:kn": "ಭಾರತೀಯ ಸ್ಟೇಟ್ ಬ್ಯಾಂಕ್",
        "opening_hours": "Mo-Sa 10:00-16:00",
        "short_name": "SBI",
        "website": "https://www.sbi.co.in",
        "wheelchair": "yes"
      }
    },
    {
      "type": "node",
      "id": 4333622801,
      "lat": 12.8766877,
      "lon": 77.584049,
      "tags": {
        "name": "Sri Basaveshwara Cycle Mart",
        "service:bicycle:pump": "yes",
        "service:bicycle:repair": "yes",
        "shop": "bicycle"
      }
    },
    {
      "type": "node",
      "id": 4447319197,
      "lat": 12.8864701,
      "lon": 77.5867609,
      "tags": {
        "addr:city": "bangalore",
        "addr:housenumber": "94/95",
        "addr:postcode": "560078",
        "addr:street": "shop no 9, wilson garden society, opp.RBI layout, kothanur main road, j.p nagar 7th phase,",
        "amenity": "pharmacy",
        "healthcare": "pharmacy",
        "name": "Shree Lakshmi Medicals",
        "phone": "+9198454 32766"
      }
    },
    {
      "type": "node",
      "id": 4447380525,
      "lat": 12.8888667,
      "lon": 77.5820897,
      "tags": {
        "addr:city": "Bangalore",
        "addr:housenumber": "13/A",
        "addr:postcode": "560078",
        "addr:street": "Wilson Garden Housing Society,, Kothnur Village Main Rd, JP Nagar 7th Phase",
        "name": "Vita Plus Clinic",
        "phone": "080 4094 4115",
        "shop": "medical_supply",
        "source": "justdial"
      }
    },
    {
      "type": "node",
      "id": 4456744390,
      "lat": 12.8852473,
      "lon": 77.575691,
      "tags": {
        "amenity": "place_of_worship",
        "name": "Temple",
        "name:en": "Temple",
        "name:kn": "ದೇವಸ್ಥಾನ"
      }
    },
    {
      "type": "node",
      "id": 4463107591,
      "lat": 12.8830723,
      "lon": 77.5755888,
      "tags": {
        "amenity": "atm",
        "brand": "Karnataka Bank",
        "brand:wikidata": "Q2042632",
        "opening_hours": "24/7",
        "operator": "Karnataka Bank",
        "operator:wikidata": "Q2042632"
      }
    },
    {
      "type": "node",
      "id": 4489770254,
      "lat": 12.8834111,
      "lon": 77.5902344,
      "tags": {
        "addr:city": "bangalore",
        "addr:postcode": "560076",
        "addr:street": "Santhinikethan Layout, 80ft road, Opp. Mahindra Service Center, Arakere,, Bannergatta Road, Vysya Bank Colony, Shantiniketan Layout,",
        "leisure": "sports_centre",
        "name": "Mizpah Fitness",
        "opening_hours": "5:00-23:00",
        "phone": "9880312338",
        "sport": "gymnastics",
        "website": "mizpahfitness.com"
      }
    },
    {
      "type": "node",
      "id": 4489776093,
      "lat": 12.8866699,
      "lon": 77.5819859,
      "tags": {
        "addr:housenumber": "NO.31",
        "addr:street": "KOTHANUR MAIN ROAD, NEXT TO BIG BAZAAR, RBI LAYOUT, JP NAGAR, 7TH PHASE, RBI East Layout, JP Nagar 7th Phase, JP Nagar,",
        "leisure": "sports_centre",
        "name": "Snap Fitness",
        "phone": "8041314822",
        "sport": "gymnasium",
        "website": "snapfitnessindia.com"
      }
    },
    {
      "type": "node",
      "id": 6348900704,
      "lat": 12.8764315,
      "lon": 77.5786186,
      "tags": {
        "addr:place": "Kothanur",
        "amenity": "school",
        "isced:level": "2",
        "name": "GHPS Kothanur",
        "name:kn": "ಸರ್ಕಾರಿ ಹಿರಿಯ ಪ್ರಾಥಮಿಕ ಶಾಲೆ ಕೊತ್ತನೂರ್",
        "operator": "Department of Education",
        "school": "primary"
      }
    },
    {
      "type": "node",
      "id": 6400468408,
      "lat": 12.8851154,
      "lon": 77.5917402,
      "tags": {
        "addr:place": "Arakere",
        "amenity": "school",
        "isced:level": "3",
        "name": "Aradhana KHPS Arakere",
        "name:kn": "ಆರಾಧನ ಕನ್ನಡ ಹಿರಿಯ ಪ್ರಾಥಮಿಕ ಶಾಲೆ ಅರಕೆರೆ",
        "operator": "Private Un-Aided",
        "school": "Higher Secondary"
      }
    },
    {
      "type": "node",
      "id": 6406118217,
      "lat": 12.884934,
      "lon": 77.5906518,
      "tags": {
        "addr:place": "Arakere",
        "amenity": "school",
        "isced:level": "1",
        "name": "Shine Eng School, Arakere",
        "name:kn": "ಶೈನ್ ಆಂಗ್ಲ ಶಾಲೆ, ಅರಕೆರೆ",
        "operator": "Private Un-Aided",
        "school": "primary"
      }
    },
    {
      "type": "node",
      "id": 6406180475,
      "lat": 12.8846325,
      "lon": 77.5920843,
      "tags": {
        "addr:place": "Arakere",
        "amenity": "school",
        "isced:level": "3",
        "name": "Aradhana EHPS Arakere, Arakere",
        "name:kn": "ಆರಾಧನ ಆಂಗ್ಲ ಹಿರಿಯ ಪ್ರಾಥಮಿಕ ಶಾಲೆ ಅರಕೆರೆ",
        "operator": "Private Un-Aided",
        "school": "Higher secondary"
      }
    },
    {
      "type": "node",
      "id": 6536353060,
      "lat": 12.8773193,
      "lon": 77.5834526,
      "tags": {
        "addr:place": "Kothanur",
        "amenity": "school",
        "isced:level": "3",
        "name": "The Little Angels School, Kothanur",
        "name:kn": "ಲಿಟಲ್ ಏಂಜಲ್ ಶಾಲೆ,ಕೊತ್ತನೂರು",
        "operator": "Private Un-Aided",
        "school": "Higher Secondary"
      }
    },
    {
      "type": "node",
      "id": 6536359408,
      "lat": 12.881709,
      "lon": 77.5759556,
      "tags": {
        "addr:place": "Kothanur",
        "amenity": "school",
        "isced:level": "3",
        "name": "Sri Maruthi Edu Trust School Kothanur",
        "name:kn": "ಶ್ರೀ ಮಾರುತಿ ಕೊತ್ತನೂರು ಎಜುಕೇಶನ್ ಟ್ರಸ್ಟ್ ಕೊತ್ತನೂರು",
        "operator": "Private Un-Aided",
        "school": "Higher Secondary"
      }
    },
    {
      "type": "node",
      "id": 6536381254,
      "lat": 12.8755011,
      "lon": 77.5806222,
      "tags": {
        "addr:place": "Kothanur",
        "amenity": "school",
        "isced:level": "2",
        "name": "A E T School Sree Annapoornesh, Kothanur",
        "name:kn": "ಎ.ಇ.ಟಿ. ಶಾಲೆ ಶ್ರೀ ಅನ್ನಪೂರ್ಣೇಶ್,ಕೊತ್ತನೂರು",
        "operator": "Private Un-Aided",
        "school": "Higher primary"
      }
    },
    {
      "type": "node",
      "id": 6536384146,
      "lat": 12.8825158,
      "lon": 77.5758676,
      "tags": {
        "addr:place": "Kothanur",
        "amenity": "school",
        "isced:level": "3",
        "name": "Glissy Public School, Kothanur",
        "name:kn": "ಗ್ಲಿಸಿ ಪಬ್ಲಿಕ್ ಶಾಲೆ,ಕೊತ್ತನೂರು",
        "operator": "Private Un-Aided",
        "school": "Higher Secondary"
      }
    },
    {
      "type": "node",
      "id": 6536386707,
      "lat": 12.8833878,
      "lon": 77.5837275,
      "tags": {
        "addr:place": "Kothanur",
        "amenity": "school",
        "isced:level": "3",
        "name": "Lady Wellington School, Kothanur",
        "name:kn": "ಲೇಡಿ ವೆಲ್ಲಿಂಗ್ಟನ್ ಶಾಲೆ, ಕೊತ್ತನೂರು",
        "operator": "Private Un-Aided",
        "school": "Higher Secondary"
      }
    },
    {
      "type": "node",
      "id": 6536406541,
      "lat": 12.8787866,
      "lon": 77.5777581,
      "tags": {
        "addr:place": "Kothanur",
        "amenity": "school",
        "isced:level": "3",
        "name": "Jnanavikas HPS, Kothanur",
        "name:kn": "ಜ್ಞಾನ ವಿಕಾಸ್ ಹಿರಿಯ ಪ್ರಾಥಮಿಕ ಶಾಲೆ, ಕೊತ್ತನೂರು",
        "operator": "Private Un-Aided",
        "school": "Higher Secondary"
      }
    },
    {
      "type": "node",
      "id": 6536612869,
      "lat": 12.8779934,
      "lon": 77.5846361,
      "tags": {
        "addr:place": "Kothanur",
        "amenity": "school",
        "isced:level": "2",
        "name": "Clever Land Kottanuru Dinne, Kothanur",
        "name:kn": "ಕ್ಲವೆರ್ ಲ್ಯಾಂಡ್ ದಿಣ್ಣೆ ಕೊತ್ತನೂರು",
        "operator": "Private Un-Aided",
        "school": "Higher Primary"
      }
    },
    {
      "type": "node",
      "id": 7633350176,
      "lat": 12.8856424,
      "lon": 77.5825719,
      "tags": {
        "name": "j.p.nagar pet shop",
        "opening_hours:covid19": "off",
        "operator:type": "private",
        "shop": "pet"
      }
    },
    {
      "type": "node",
      "id": 7633350177,
      "lat": 12.8856424,
      "lon": 77.5825349,
      "tags": {
        "name": "The Pets",
        "shop": "pet"
      }
    },
    {
      "type": "node",
      "id": 9810391517,
      "lat": 12.8833908,
      "lon": 77.589419,
      "tags": {
        "name": "Avni Milk Parlour - Nandini milk",
        "shop": "dairy",
        "survey:date": "2022-06-11"
      }
    },
    {
      "type": "node",
      "id": 11005961466,
      "lat": 12.8799104,
      "lon": 77.5840531,
      "tags": {
        "amenity": "fuel",
        "brand": "Bharat Petroleum",
        "name": "Cauvery Petro Services",
        "source": "GPS"
      }
    },
    {
      "type": "node",
      "id": 11201585563,
      "lat": 12.8882593,
      "lon": 77.5820636,
      "tags": {
        "check_date": "2023-09-19",
        "name": "Sunshine Dry Cleaners",
        "opening_hours": "10:00-21:00",
        "payment:cash": "yes",
        "payment:mastercard": "yes",
        "payment:upi": "yes",
        "payment:visa": "yes",
        "phone": "+91 80 4866 3227",
        "shop": "dry_cleaning"
      }
    },
    {
      "type": "node",
      "id": 11201648143,
      "lat": 12.8872931,
      "lon": 77.5821444,
      "tags": {
        "addr:floor": "1",
        "amenity": "restaurant",
        "check_date": "2023-09-19",
        "diet:vegetarian": "yes",
        "name": "Danapani",
        "payment:mastercard": "yes",
        "payment:visa": "yes",
        "wheelchair": "no"
      }
    },
    {
      "type": "node",
      "id": 11205380683,
      "lat": 12.8872081,
      "lon": 77.5818638,
      "tags": {
        "addr:floor": "3",
        "check_date": "2023-09-20",
        "leisure": "fitness_centre",
        "name": "iconic FITNESS",
        "opening_hours": "24/7",
        "payment:mastercard": "yes",
        "payment:visa": "yes",
        "phone": "+91 70263 22322",
        "website": "https://iconicfitnessindia.com"
      }
    },
    {
      "type": "node",
      "id": 11205380684,
      "lat": 12.8873978,
      "lon": 77.5818993,
      "tags": {
        "access": "yes",
        "addr:floor": "G",
        "amenity": "toilets",
        "check_date": "2023-09-20"
      }
    },
    {
      "type": "node",
      "id": 11205380685,
      "lat": 12.8880434,
      "lon": 77.5816502,
      "tags": {
        "amenity": "doctors",
        "check_date": "2023-09-20",
        "healthcare": "doctor",
        "healthcare:speciality": "ophthalmology",
        "name": "Lions Eye Hospital",
        "opening_hours": "Mo-Sa 09:30-19:30"
      }
    },
    {
      "type": "node",
      "id": 11205380686,
      "lat": 12.888287,
      "lon": 77.5795047,
      "tags": {
        "amenity": "pharmacy",
        "check_date": "2023-09-20",
        "healthcare": "pharmacy",
        "name": "Hoysala Medical Stores"
      }
    },
    {
      "type": "node",
      "id": 11212204420,
      "lat": 12.8869169,
      "lon": 77.5821685,
      "tags": {
        "check_date": "2023-09-22",
        "name": "The Cake Shop",
        "opening_hours": "10:00-22:00",
        "payment:upi": "yes",
        "shop": "pastry"
      }
    },
    {
      "type": "node",
      "id": 11255169451,
      "lat": 12.8896074,
      "lon": 77.5824523,
      "tags": {
        "check_date": "2023-10-11",
        "name": "Ojas Nisarga",
        "organic": "only",
        "phone": "+91 94498 48632",
        "shop": "supermarket"
      }
    },
    {
      "type": "node",
      "id": 11261890103,
      "lat": 12.8914742,
      "lon": 77.5816905,
      "tags": {
        "check_date": "2023-10-14",
        "name": "Organic Mandya",
        "organic": "only",
        "payment:cash": "yes",
        "payment:mastercard": "yes",
        "payment:upi": "yes",
        "payment:visa": "yes",
        "shop": "supermarket"
      }
    },
    {
      "type": "node",
      "id": 11261890104,
      "lat": 12.8914809,
      "lon": 77.5816776,
      "tags": {
        "check_date": "2023-10-14",
        "name": "Washing Hut",
        "phone": "+91 95383 35522",
        "shop": "laundry"
      }
    },
    {
      "type": "node",
      "id": 11261890105,
      "lat": 12.8882497,
      "lon": 77.577855,
      "tags": {
        "check_date": "2023-10-14",
        "name": "Garden Fresh Mart",
        "payment:cash": "yes",
        "payment:mastercard": "yes",
        "payment:upi": "yes",
        "payment:visa": "yes",
        "shop": "supermarket"
      }
    },
    {
      "type": "node",
      "id": 11341600710,
      "lat": 12.8895786,
      "lon": 77.5790231,
      "tags": {
        "check_date": "2023-11-11",
        "leisure": "fitness_centre",
        "name": "Rajyoga Meditation Center",
        "sport": "yoga"
      }
    },
    {
      "type": "node",
      "id": 11799677682,
      "lat": 12.8919593,
      "lon": 77.5834972,
      "tags": {
        "access": "permissive",
        "amenity": "parking_entrance",
        "parking": "underground"
      }
    },
    {
      "type": "node",
      "id": 11799677685,
      "lat": 12.8917881,
      "lon": 77.583915,
      "tags": {
        "amenity": "cafe",
        "name": "Third Wave Coffee Roasters",
        "wheelchair": "limited"
      }
    },
    {
      "type": "node",
      "id": 12050662770,
      "lat": 12.8834298,
      "lon": 77.5900572,
      "tags": {
        "name": "Shri Manjunatha Dry Cleaners",
        "opening_hours": "Mo-Su 09:00-21:00",
        "shop": "dry_cleaning"
      }
    },
    {
      "type": "node",
      "id": 12050662771,
      "lat": 12.8833534,
      "lon": 77.5895439,
      "tags": {
        "name": "Choose Fresh",
        "opening_hours": "Mo-Su 07:30-21:00",
        "shop": "greengrocer"
      }
    },
    {
      "type": "node",
      "id": 12050670369,
      "lat": 12.8834353,
      "lon": 77.5900912,
      "tags": {
        "check_date:opening_hours": "2025-08-11",
        "name": "Vinayaka Condiments",
        "opening_hours": "Mo-Su 08:00-21:00",
        "shop": "bakery"
      }
    },
    {
      "type": "node",
      "id": 12050672269,
      "lat": 12.8837447,
      "lon": 77.5910008,
      "tags": {
        "amenity": "atm",
        "opening_hours": "24/7",
        "operator": "Bank of Baroda"
      }
    },
    {
      "type": "node",
      "id": 12050688469,
      "lat": 12.8833809,
      "lon": 77.5893564,
      "tags": {
        "name": "Om3",
        "shop": "hairdresser"
      }
    },
    {
      "type": "node",
      "id": 12050701169,
      "lat": 12.8846746,
      "lon": 77.5912603,
      "tags": {
        "amenity": "restaurant",
        "cuisine": "indian",
        "name": "Soya Chaap Restaurant",
        "opening_hours": "Mo-Su 12:00-23:00"
      }
    },
    {
      "type": "node",
      "id": 12064909669,
      "lat": 12.8818035,
      "lon": 77.5835092,
      "tags": {
        "amenity": "pharmacy",
        "name": "Pradhan Mantri Jan Aushadhi Kendra",
        "opening_hours": "Mo-Sa 10:30-13:30, 17:30-20:30"
      }
    },
    {
      "type": "node",
      "id": 12068511169,
      "lat": 12.8828903,
      "lon": 77.5858366,
      "tags": {
        "amenity": "pharmacy",
        "name": "Madhura Medicals"
      }
    },
    {
      "type": "node",
      "id": 12069343369,
      "lat": 12.8770699,
      "lon": 77.5840137,
      "tags": {
        "amenity": "place_of_worship",
        "name": "Shanieshwara Temple",
        "name:kn": "ಶನೀಶ್ವರ ದೇವಸ್ಥಾನ"
      }
    },
    {
      "type": "node",
      "id": 12069343569,
      "lat": 12.8870224,
      "lon": 77.5819791,
      "tags": {
        "amenity": "cafe",
        "name": "Coffee Stories"
      }
    },
    {
      "type": "node",
      "id": 12553339185,
      "lat": 12.8880311,
      "lon": 77.5821301,
      "tags": {
        "addr:city": "Bengaluru",
        "addr:district": "Bengaluru Urban",
        "addr:full": "4th floor #18,Site 99/2A,Puttenhalli, Kothnur Main Rd, RBI Layout, JP Nagar 7th Phase",
        "addr:postcode": "560078",
        "addr:street": "Kothnur Main Road",
        "name": "Ziva spa JP Nagar",
        "opening_hours": "Mo-Su 10:00-21:00",
        "operator": "Mr. Bibin",
        "phone": "09110263455",
        "shop": "beauty",
        "website": "https://zivaspa.in/"
      }
    },
    {
      "type": "node",
      "id": 12631801632,
      "lat": 12.8895956,
      "lon": 77.5817507,
      "tags": {
        "addr:city": "Bengaluru",
        "addr:district": "Bengaluru Urban",
        "addr:housenumber": "473",
        "addr:postcode": "560078",
        "addr:street": "Kothnur Main Road, Second Floor, Swathi Towers, Near Dominos Pizza and Bank of Baroda",
        "amenity": "restaurant",
        "cuisine": "south_indian",
        "delivery": "yes",
        "diet:pure_veg": "yes",
        "name": "The Kadubu Canteen",
        "opening_hours": "We-Mo 07:00-11:00",
        "phone": "+919840084449",
        "takeaway": "only",
        "website": "https://kadubucanteen.in"
      }
    },
    {
      "type": "node",
      "id": 12941891201,
      "lat": 12.8803607,
      "lon": 77.5796688,
      "tags": {
        "addr:postcode": "560076",
        "amenity": "school",
        "name": "Orchids The International School"
      }
    },
    {
      "type": "way",
      "id": 177266968,
      "center": {
        "lat": 12.8889766,
        "lon": 77.5784217
      },
      "tags": {
        "leisure": "park",
        "name": "BBMP Park",
        "name:kn": "ಬೃ. ಬೆ. ಮ. ಪಾ. ಉದ್ಯಾನವನ",
        "operator": "ಬೃಹತ್ ಬೆಂಗಳೂರು ಮಹಾನಗರ ಪಾಲಿಕೆ",
        "operator:en": "Bruhat Bengaluru Mahanagara Palike",
        "operator:ka": "ಬೃಹತ್ ಬೆಂಗಳೂರು ಮಹಾನಗರ ಪಾಲಿಕೆ",
        "operator:short": "BBMP",
        "operator:type": "government",
        "operator:wikidata": "Q4978693",
        "source": "Bing, local knowledge"
      }
    },
    {
      "type": "way",
      "id": 182218210,
      "center": {
        "lat": 12.88884,
        "lon": 77.5807644
      },
      "tags": {
        "landuse": "recreation_ground",
        "leisure": "pitch",
        "name": "RBI Layout Grounds"
      }
    },
    {
      "type": "way",
      "id": 182221986,
      "center": {
        "lat": 12.8880561,
        "lon": 77.5805909
      },
      "tags": {
        "leisure": "park"
      }
    },
    {
      "type": "way",
      "id": 184457975,
      "center": {
        "lat": 12.8909522,
        "lon": 77.5802609
      },
      "tags": {
        "leisure": "park"
      }
    },
    {
      "type": "way",
      "id": 184966375,
      "center": {
        "lat": 12.8870769,
        "lon": 77.5816341
      },
      "tags": {
        "leisure": "park"
      }
    },
    {
      "type": "way",
      "id": 191101727,
      "center": {
        "lat": 12.8835032,
        "lon": 77.5838983
      },
      "tags": {
        "amenity": "school",
        "building": "yes",
        "name": "Lady Wellington High School"
      }
    },
    {
      "type": "way",
      "id": 191574181,
      "center": {
        "lat": 12.8883127,
        "lon": 77.5835148
      },
      "tags": {
        "leisure": "park"
      }
    },
    {
      "type": "way",
      "id": 198161707,
      "center": {
        "lat": 12.8817151,
        "lon": 77.5758856
      },
      "tags": {
        "amenity": "school",
        "building": "yes",
        "name": "Sri Maruthi Primary & High School",
        "name:kn": "ಶ್ರೀ ಮಾರುತಿ ಶಾಲೆ"
      }
    },
    {
      "type": "way",
      "id": 314367623,
      "center": {
        "lat": 12.8877137,
        "lon": 77.5784927
      },
      "tags": {
        "addr:city": "Bengaluru",
        "addr:housename": "Augusta Club, Brigade Gardenia",
        "addr:place": "Brigade Gardania",
        "addr:postcode": "560078",
        "amenity": "public_building",
        "building": "yes",
        "name": "Augusta Club"
      }
    },
    {
      "type": "way",
      "id": 314368699,
      "center": {
        "lat": 12.8860335,
        "lon": 77.5789084
      },
      "tags": {
        "leisure": "playground"
      }
    },
    {
      "type": "way",
      "id": 314368700,
      "center": {
        "lat": 12.8878405,
        "lon": 77.578451
      },
      "tags": {
        "leisure": "park",
        "name": "Trees"
      }
    },
    {
      "type": "way",
      "id": 314368701,
      "center": {
        "lat": 12.8875921,
        "lon": 77.5784283
      },
      "tags": {
        "access": "private",
        "covered": "no",
        "leisure": "swimming_pool",
        "name": "Pool, Augusta Club",
        "sport": "swimming"
      }
    },
    {
      "type": "way",
      "id": 314368702,
      "center": {
        "lat": 12.8874841,
        "lon": 77.5779472
      },
      "tags": {
        "leisure": "park",
        "name": "Trees"
      }
    },
    {
      "type": "way",
      "id": 314368703,
      "center": {
        "lat": 12.8867528,
        "lon": 77.578667
      },
      "tags": {
        "leisure": "park",
        "name": "Trees"
      }
    },
    {
      "type": "way",
      "id": 314368704,
      "center": {
        "lat": 12.8859304,
        "lon": 77.5790196
      },
      "tags": {
        "leisure": "park"
      }
    },
    {
      "type": "way",
      "id": 348096775,
      "center": {
        "lat": 12.8864258,
        "lon": 77.5817222
      },
      "tags": {
        "amenity": "public_building",
        "building": "yes",
        "name": "BBMP Office",
        "name:kn": "ಬೃ. ಬೆಂ. ಮ. ಪಾ. ಕಛೇರಿ",
        "office": "government"
      }
    },
    {
      "type": "way",
      "id": 348097264,
      "center": {
        "lat": 12.8864253,
        "lon": 77.5815271
      },
      "tags": {
        "amenity": "public_building",
        "building": "yes",
        "name": "Bangalore One",
        "name:kn": "ಬೆಂಗಳೂರು ಓನ್"
      }
    },
    {
      "type": "way",
      "id": 362882089,
      "center": {
        "lat": 12.889091,
        "lon": 77.5904551
      },
      "tags": {
        "leisure": "park",
        "name": "South City Park"
      }
    },
    {
      "type": "way",
      "id": 439843203,
      "center": {
        "lat": 12.891643,
        "lon": 77.5843737
      },
      "tags": {
        "leisure": "park",
        "wheelchair": "limited"
      }
    },
    {
      "type": "way",
      "id": 439843207,
      "center": {
        "lat": 12.8917097,
        "lon": 77.5835354
      },
      "tags": {
        "amenity": "theatre",
        "check_date": "2024-04-06",
        "name": "Centre for Indian Music Experience",
        "theatre:genre": "musical",
        "wheelchair": "yes"
      }
    },
    {
      "type": "way",
      "id": 439843209,
      "center": {
        "lat": 12.8915907,
        "lon": 77.5851783
      },
      "tags": {
        "amenity": "events_venue",
        "check_date": "2023-04-08",
        "landuse": "commercial",
        "name": "MLR Convention Centre",
        "wheelchair": "limited"
      }
    },
    {
      "type": "way",
      "id": 627943197,
      "center": {
        "lat": 12.8797554,
        "lon": 77.5887342
      },
      "tags": {
        "leisure": "park"
      }
    },
    {
      "type": "way",
      "id": 627943198,
      "center": {
        "lat": 12.8797637,
        "lon": 77.5888246
      },
      "tags": {
        "leisure": "swimming_pool"
      }
    },
    {
      "type": "way",
      "id": 628021994,
      "center": {
        "lat": 12.8873472,
        "lon": 77.5896896
      },
      "tags": {
        "leisure": "swimming_pool"
      }
    },
    {
      "type": "way",
      "id": 628021995,
      "center": {
        "lat": 12.8883991,
        "lon": 77.590244
      },
      "tags": {
        "leisure": "pitch",
        "sport": "badminton"
      }
    },
    {
      "type": "way",
      "id": 628021996,
      "center": {
        "lat": 12.8884495,
        "lon": 77.5900197
      },
      "tags": {
        "leisure": "pitch",
        "sport": "badminton"
      }
    },
    {
      "type": "way",
      "id": 678333101,
      "center": {
        "lat": 12.884787,
        "lon": 77.5920495
      },
      "tags": {
        "amenity": "school",
        "name": "Aradhana Academy"
      }
    },
    {
      "type": "way",
      "id": 699270596,
      "center": {
        "lat": 12.8904843,
        "lon": 77.5859984
      },
      "tags": {
        "amenity": "parking"
      }
    },
    {
      "type": "way",
      "id": 699270597,
      "center": {
        "lat": 12.8910018,
        "lon": 77.585307
      },
      "tags": {
        "amenity": "events_venue",
        "landuse": "commercial",
        "name": "Samskruthi Brindavan Convention Centre",
        "website": "https://samskruthibrindavan.com/"
      }
    },
    {
      "type": "way",
      "id": 1242749610,
      "center": {
        "lat": 12.8781997,
        "lon": 77.5857334
      },
      "tags": {
        "amenity": "school",
        "name": "Skalvi International School",
        "opening_hours": "Mo-Sa 08:00-16:00"
      }
    },
    {
      "type": "way",
      "id": 1328835858,
      "center": {
        "lat": 12.8737977,
        "lon": 77.5797985
      },
      "tags": {
        "leisure": "park"
      }
    },
    {
      "type": "way",
      "id": 1391367684,
      "center": {
        "lat": 12.8808818,
        "lon": 77.5901699
      },
      "tags": {
        "amenity": "social_facility",
        "name": "Snehasadan Orphanage",
        "social_facility": "shelter"
      }
    },
    {
      "type": "way",
      "id": 1391367685,
      "center": {
        "lat": 12.8804042,
        "lon": 77.5894824
      },
      "tags": {
        "amenity": "college",
        "name": "Universal College of Nursing"
      }
    },
    {
      "type": "way",
      "id": 1424925237,
      "center": {
        "lat": 12.8822826,
        "lon": 77.5866774
      },
      "tags": {
        "leisure": "park"
      }
    },
    {
      "type": "way",
      "id": 1424925238,
      "center": {
        "lat": 12.880314,
        "lon": 77.5862475
      },
      "tags": {
        "leisure": "park"
      }
    },
    {
      "type": "way",
      "id": 1424925240,
      "center": {
        "lat": 12.8817331,
        "lon": 77.5865771
      },
      "tags": {
        "leisure": "pitch",
        "sport": "tennis"
      }
    },
    {
      "type": "way",
      "id": 1424925243,
      "center": {
        "lat": 12.8809873,
        "lon": 77.587724
      },
      "tags": {
        "leisure": "garden"
      }
    },
    {
      "type": "way",
      "id": 1424925244,
      "center": {
        "lat": 12.8808157,
        "lon": 77.5872087
      },
      "tags": {
        "leisure": "park"
      }
    },
    {
      "type": "way",
      "id": 1424925245,
      "center": {
        "lat": 12.8797518,
        "lon": 77.5880366
      },
      "tags": {
        "leisure": "pitch",
        "sport": "tennis"
      }
    }
  ]
}