{
  "area_name": "Shankarapuram",
  "osm_id": 11182347131,
  "osm_type": "node",
  "place_type": "neighbourhood",
  "amenity_count": 537,
  "amenities": [
    {
      "type": "node",
      "id": 517874448,
      "lat": 12.9514719,
      "lon": 77.5774905,
      "tags": {
        "amenity": "fast_food",
        "name": "Rajasthani Parotha Point"
      }
    },
    {
      "type": "node",
      "id": 517874452,
      "lat": 12.9510029,
      "lon": 77.5776381,
      "tags": {
        "amenity": "fast_food",
        "name": "Arya Vysya Refreshments"
      }
    },
    {
      "type": "node",
      "id": 517874453,
      "lat": 12.9506894,
      "lon": 77.5786753,
      "tags": {
        "amenity": "restaurant"
      }
    },
    {
      "type": "node",
      "id": 517874458,
      "lat": 12.9505258,
      "lon": 77.5785913,
      "tags": {
        "amenity": "restaurant"
      }
    },
    {
      "type": "node",
      "id": 517874459,
      "lat": 12.9507057,
      "lon": 77.5784906,
      "tags": {
        "amenity": "restaurant"
      }
    },
    {
      "type": "node",
      "id": 517874462,
      "lat": 12.9510696,
      "lon": 77.5775371,
      "tags": {
        "name": "Mumbai Badam & Lassi Center",
        "shop": "beverages"
      }
    },
    {
      "type": "node",
      "id": 517874463,
      "lat": 12.9512912,
      "lon": 77.5774906,
      "tags": {
        "amenity": "fast_food"
      }
    },
    {
      "type": "node",
      "id": 517874468,
      "lat": 12.9532525,
      "lon": 77.57754,
      "tags": {
        "amenity": "atm",
        "brand": "Canara Bank",
        "brand:en": "Canara Bank",
        "brand:hi": "केनरा बैंक",
        "brand:kn": "ಕೆನರಾ ಬ್ಯಾಂಕ್",
        "brand:pa": "ਕੇਨਰਾ ਬੈਂਕ",
        "brand:pnb": "کینرا بینک",
        "brand:ur": "کینرا بینک",
        "brand:wikidata": "Q2003777",
        "name": "Canara Bank",
        "name:en": "Canara Bank",
        "name:hi": "केनरा बैंक",
        "name:kn": "ಕೆನರಾ ಬ್ಯಾಂಕ್",
        "name:pa": "ਕੇਨਰਾ ਬੈਂਕ",
        "name:pnb": "کینرا بینک",
        "name:ur": "کینرا بینک",
        "operator": "Canara Bank",
        "operator:wikidata": "Q2003777"
      }
    },
    {
      "type": "node",
      "id": 762086049,
      "lat": 12.9489556,
      "lon": 77.5762549,
      "tags": {
        "amenity": "public_building",
        "name": "Kanyaka Parameshwari Nilaya"
      }
    },
    {
      "type": "node",
      "id": 1058171422,
      "lat": 12.9447608,
      "lon": 77.5740606,
      "tags": {
        "addr:city": "Bangalore",
        "addr:street": "Krishna Rajendra Road",
        "amenity": "post_office",
        "name": "Basawanagudi Post Office",
        "name:kn": "ಬಸವನಗುಡಿ ಅಂಚೆ ಕಛೇರಿ"
      }
    },
    {
      "type": "node",
      "id": 1080729956,
      "lat": 12.9443745,
      "lon": 77.5695112,
      "tags": {
        "addr:street": "Bugle Rock Road",
        "amenity": "place_of_worship",
        "name": "Karanji Anjaneya Temple",
        "name:kn": "ಕಾರಂಜಿ ಅಂಜನೇಯ ದೇವಸ್ತಾನ",
        "religion": "hindu",
        "wheelchair": "no"
      }
    },
    {
      "type": "node",
      "id": 1085578877,
      "lat": 12.9443687,
      "lon": 77.573044,
      "tags": {
        "amenity": "bank",
        "atm": "yes",
        "brand": "Canara Bank",
        "brand:en": "Canara Bank",
        "brand:hi": "केनरा बैंक",
        "brand:kn": "ಕೆನರಾ ಬ್ಯಾಂಕ್",
        "brand:pa": "ਕੇਨਰਾ ਬੈਂਕ",
        "brand:pnb": "کینرا بینک",
        "brand:ur": "کینرا بینک",
        "brand:wikidata": "Q2003777",
        "brand:wikipedia": "en:Canara Bank",
        "brand:wikipedia:pa": "ਕੇਨਰਾ ਬੈਂਕ",
        "name": "Canara Bank",
        "name:en": "Canara Bank",
        "name:hi": "केनरा बैंक",
        "name:kn": "ಕೆನರಾ ಬ್ಯಾಂಕ್",
        "name:pa": "ਕੇਨਰਾ ਬੈਂਕ",
        "name:pnb": "کینرا بینک",
        "name:ur": "کینرا بینک",
        "website": "https://www.canarabank.com/"
      }
    },
    {
      "type": "node",
      "id": 1323652934,
      "lat": 12.9551259,
      "lon": 77.5741985,
      "tags": {
        "addr:city": "V V Puram, Bangalore",
        "addr:postcode": "560004",
        "addr:street": "Krishna Rajendra Road",
        "amenity": "college",
        "email": "chairman_bit@yahoo.in",
        "fax": "+91-80-26526796",
        "name": "Bangalore Institute of Technology",
        "name:kn": "ಬೆಂಗಳೂರು ತಂತ್ರಿಕ ಮಹಾವಿದ್ಯಾಲಯ",
        "phone": "+91-80-26615865;+91-80-26613237",
        "website": "http://www.bit-bangalore.org",
        "wheelchair": "no",
        "wikidata": "Q4855053",
        "wikimedia_commons": "Category:Bangalore Institute of Technology",
        "wikipedia": "en:Bangalore Institute of Technology"
      }
    },
    {
      "type": "node",
      "id": 1323663813,
      "lat": 12.9564316,
      "lon": 77.5741194,
      "tags": {
        "addr:city": "V V Puram, Bangalore",
        "addr:postcode": "560004",
        "addr:street": "Krishna Rajendra Road",
        "amenity": "college",
        "name": "Kempegowda Institute of Medical Sciences",
        "wikidata": "Q6387052",
        "wikipedia": "en:Kempegowda Institute of Medical Sciences"
      }
    },
    {
      "type": "node",
      "id": 1323663819,
      "lat": 12.9541058,
      "lon": 77.5741524,
      "tags": {
        "addr:city": "V V Puram, Bangalore",
        "addr:postcode": "560004",
        "addr:street": "Krishna Rajendra Road",
        "amenity": "college",
        "name": "VV Puram College of Arts and Commerce",
        "wheelchair": "limited"
      }
    },
    {
      "type": "node",
      "id": 1437223285,
      "lat": 12.9599222,
      "lon": 77.5728426,
      "tags": {
        "amenity": "library",
        "name": "Indian Medical Association"
      }
    },
    {
      "type": "node",
      "id": 1437301865,
      "lat": 12.9586516,
      "lon": 77.5716741,
      "tags": {
        "name": "Kannada Sahitya Parishath",
        "name:kn": "ಕನ್ನಡ ಸಾಹಿತ್ಯ ಪರಿಷತ್ತು",
        "shop": "books",
        "wheelchair": "limited"
      }
    },
    {
      "type": "node",
      "id": 1465008466,
      "lat": 12.9454627,
      "lon": 77.5714069,
      "tags": {
        "addr:street": "Gandhi Bazar",
        "name": "Ladies Wear House",
        "shop": "clothes"
      }
    },
    {
      "type": "node",
      "id": 1465008470,
      "lat": 12.9442215,
      "lon": 77.5725983,
      "tags": {
        "addr:street": "Gandhi Bazaar Main Road",
        "amenity": "bank",
        "brand": "Corporation Bank",
        "brand:wikidata": "Q2003387",
        "brand:wikipedia": "en:Corporation Bank",
        "name": "Corporation Bank",
        "name:en": "Corporation Bank",
        "name:kn": "ಕಾರ್ಪರೇಷನ್ ಬ್ಯಾಂಕ್",
        "source": "survey",
        "website": "https://corpbank.com/"
      }
    },
    {
      "type": "node",
      "id": 1465009282,
      "lat": 12.9444504,
      "lon": 77.5722351,
      "tags": {
        "addr:street": "Gandhi Bazar Main Road",
        "name": "Food world",
        "name:kn": "ಫುಡ್ ವರ್ಲ್ಡ್",
        "shop": "supermarket"
      }
    },
    {
      "type": "node",
      "id": 1466730374,
      "lat": 12.944502,
      "lon": 77.5728401,
      "tags": {
        "amenity": "cafe",
        "brand": "Cafe Coffee Day",
        "brand:wikidata": "Q5017235",
        "cuisine": "coffee_shop",
        "name": "Cafe Coffee Day",
        "name:kn": "ಕಫೆ ಕಾಫಿ ಡೇ",
        "takeaway": "yes"
      }
    },
    {
      "type": "node",
      "id": 1466730411,
      "lat": 12.9444313,
      "lon": 77.5729353,
      "tags": {
        "amenity": "restaurant",
        "diet:vegetarian": "only",
        "name": "Adyar Anand Bhavan",
        "name:kn": "ಆದ್ಯಾರ್ ಆನಂದ ಭವನ",
        "toilets:wheelchair": "no",
        "wheelchair": "no"
      }
    },
    {
      "type": "node",
      "id": 1473896401,
      "lat": 12.9453673,
      "lon": 77.5672085,
      "tags": {
        "amenity": "school",
        "name": "Nevaditha school"
      }
    },
    {
      "type": "node",
      "id": 1473903929,
      "lat": 12.9488556,
      "lon": 77.5673667,
      "tags": {
        "name": "Ramakrishna Mutt",
        "name:kn": "ರಾಮಕೃಷ್ಣ ಮಠ",
        "shop": "books",
        "wheelchair": "limited"
      }
    },
    {
      "type": "node",
      "id": 1473921774,
      "lat": 12.9458714,
      "lon": 77.5675192,
      "tags": {
        "addr:district": "Bengaluru Urban",
        "addr:full": "No.81,Bulltemple Road,Near Ramakrishna Ashram",
        "addr:postcode": "560019",
        "addr:state": "Karnataka",
        "addr:street": "Shyamaraja Iyengar Road",
        "amenity": "hospital",
        "emergency": "no",
        "name": "Shekar Hospital",
        "name:en": "Shekhar Hospital",
        "name:hi": "शेखर हॉस्पिटल",
        "name:kn": "ಶೇಖರ್ ಹಾಸ್ಪಿಟಲ್",
        "source": "OpenGovernmentData"
      }
    },
    {
      "type": "node",
      "id": 1473921785,
      "lat": 12.9455787,
      "lon": 77.5679644,
      "tags": {
        "amenity": "school",
        "name": "BASE"
      }
    },
    {
      "type": "node",
      "id": 1473921794,
      "lat": 12.9462008,
      "lon": 77.5679859,
      "tags": {
        "amenity": "fuel",
        "brand": "Indian Oil",
        "brand:wikidata": "Q1289348",
        "name": "Bull Temple Filling Station"
      }
    },
    {
      "type": "node",
      "id": 1473921798,
      "lat": 12.9449194,
      "lon": 77.5680581,
      "tags": {
        "addr:street": "Bull Temple Road",
        "amenity": "restaurant",
        "name": "Cane-o-La",
        "name:kn": "ಕೆನ್-ಒ-ಲಾ",
        "wheelchair": "no"
      }
    },
    {
      "type": "node",
      "id": 1473921812,
      "lat": 12.9446167,
      "lon": 77.5677552,
      "tags": {
        "amenity": "atm",
        "brand": "State Bank of India",
        "brand:wikidata": "Q1340361",
        "fee": "no",
        "name": "State Bank of India",
        "operator": "State Bank of India",
        "operator:wikidata": "Q1340361",
        "short_name": "SBI"
      }
    },
    {
      "type": "node",
      "id": 1473945518,
      "lat": 12.9480672,
      "lon": 77.5682863,
      "tags": {
        "amenity": "restaurant",
        "name": "SLV Delite",
        "name:kn": "ಎಸ್ಎಲ್‌ವಿ ಡಿಲೈಟ್"
      }
    },
    {
      "type": "node",
      "id": 1473945527,
      "lat": 12.9473887,
      "lon": 77.568194,
      "tags": {
        "amenity": "bank",
        "brand": "HSBC",
        "brand:wikidata": "Q190464",
        "name": "HSBC"
      }
    },
    {
      "type": "node",
      "id": 1473945528,
      "lat": 12.9473326,
      "lon": 77.5680046,
      "tags": {
        "brand": "Hyundai",
        "brand:wikidata": "Q55931",
        "level": "0;1",
        "name": "Blue Hyundai",
        "shop": "car"
      }
    },
    {
      "type": "node",
      "id": 1473972564,
      "lat": 12.9496638,
      "lon": 77.5680233,
      "tags": {
        "amenity": "community_centre",
        "name": "Guru Narasimha Kalyana Mantap",
        "wheelchair": "no"
      }
    },
    {
      "type": "node",
      "id": 1473972586,
      "lat": 12.950339,
      "lon": 77.5673443,
      "tags": {
        "amenity": "bank",
        "atm": "yes",
        "brand": "ICICI Bank",
        "brand:wikidata": "Q1653258",
        "name": "ICICI Bank",
        "name:en": "ICICI Bank",
        "name:kn": "ಐಸಿಐಸಿಐ ಬ್ಯಾಂಕು",
        "short_name": "ICICI",
        "website": "https://www.icicibank.com",
        "wheelchair": "no"
      }
    },
    {
      "type": "node",
      "id": 1473972590,
      "lat": 12.9505777,
      "lon": 77.567884,
      "tags": {
        "check_date": "2023-09-09",
        "name": "Miracle Unisex Salon",
        "shop": "beauty",
        "wheelchair": "no"
      }
    },
    {
      "type": "node",
      "id": 1617398428,
      "lat": 12.9539396,
      "lon": 77.5688104,
      "tags": {
        "addr:street": "2nd Cross Road",
        "amenity": "fast_food",
        "diet:vegetarian": "only",
        "name": "Brahmin's Coffee Bar",
        "name:kn": "ಬ್ರಾಹ್ಮಣರ ಕಾಫಿ ಬಾರ್",
        "wheelchair": "no"
      }
    },
    {
      "type": "node",
      "id": 1782116875,
      "lat": 12.9577755,
      "lon": 77.5694742,
      "tags": {
        "addr:postcode": "560018",
        "addr:street": "1st Cross, 5th Main, Chamarajpet",
        "amenity": "restaurant",
        "cuisine": "indian",
        "designation": "S.L.V",
        "name": "S.L.V Hotel",
        "name:kn": "ಎಸ್.ಎಲ್.ವಿ ಹೋಟೆಲ್",
        "wheelchair": "no"
      }
    },
    {
      "type": "node",
      "id": 1782119984,
      "lat": 12.9602965,
      "lon": 77.5723764,
      "tags": {
        "amenity": "place_of_worship",
        "designation": "Hanuman Temple",
        "name": "Anjaneya Temple",
        "name:kn": "ಆಂಜನೇಯ ದೇವಸ್ಥಾನ",
        "religion": "hindu"
      }
    },
    {
      "type": "node",
      "id": 1782170339,
      "lat": 12.9545656,
      "lon": 77.5653115,
      "tags": {
        "addr:district": "BENGALURU URBAN",
        "addr:full": "93/2 Keshava Shilpa 1st Main Road, Kempegowda Nagar",
        "addr:postcode": "560019",
        "addr:state": "Karnataka",
        "amenity": "blood_bank",
        "contact:mobile": "9480436702",
        "contact:phone": "8026610916",
        "designation": "Blood Bank",
        "emergency": "no",
        "name": "Blood Bank - Rastrothana Trust",
        "opening_hours": "24/7",
        "operator:type": "private",
        "wheelchair": "limited"
      }
    },
    {
      "type": "node",
      "id": 1782176660,
      "lat": 12.9571508,
      "lon": 77.5624395,
      "tags": {
        "amenity": "fuel",
        "brand": "Indian Oil",
        "brand:wikidata": "Q1289348",
        "fuel:1_25": "no",
        "fuel:GTL_diesel": "no",
        "fuel:HGV_diesel": "yes",
        "fuel:biodiesel": "no",
        "fuel:biogas": "no",
        "fuel:cng": "no",
        "fuel:diesel": "yes",
        "fuel:e10": "no",
        "fuel:e85": "no",
        "fuel:electricity": "no",
        "fuel:lpg": "yes",
        "fuel:octane_100": "no",
        "fuel:octane_91": "yes",
        "fuel:octane_95": "no",
        "fuel:octane_98": "no",
        "name": "Anjandri Petrol / Gas Station",
        "toilets:wheelchair": "no",
        "wheelchair": "yes"
      }
    },
    {
      "type": "node",
      "id": 1791566157,
      "lat": 12.9535008,
      "lon": 77.5720582,
      "tags": {
        "amenity": "post_office",
        "name": "PMK Road Post Office",
        "name:kn": "ಅಂಚೆ ಕಛೇರಿ",
        "operator": "India Post",
        "operator:wikidata": "Q3519720",
        "wheelchair": "no"
      }
    },
    {
      "type": "node",
      "id": 1791567417,
      "lat": 12.9538729,
      "lon": 77.570101,
      "tags": {
        "addr:street": "Shankar Matt Road",
        "amenity": "police",
        "name": "Shankarapuram Police Station",
        "name:kn": "ಆರಕ್ಷಕ ಠಾಣೆ",
        "wheelchair": "no"
      }
    },
    {
      "type": "node",
      "id": 1791572737,
      "lat": 12.954482,
      "lon": 77.572086,
      "tags": {
        "addr:street": "Pampa Maha Kavi Road",
        "amenity": "community_centre",
        "name": "Chandra Shekara Bharati Kalyana Mantapa",
        "wheelchair": "no"
      }
    },
    {
      "type": "node",
      "id": 1791573840,
      "lat": 12.9546728,
      "lon": 77.5720966,
      "tags": {
        "addr:street": "Pampa Mahakavi Road",
        "amenity": "community_centre",
        "name": "Sharada Prasada Kalyana Mantapa"
      }
    },
    {
      "type": "node",
      "id": 1791576981,
      "lat": 12.9540088,
      "lon": 77.5724909,
      "tags": {
        "amenity": "school",
        "name": "BBUL Jain Vidyalaya",
        "wheelchair": "no"
      }
    },
    {
      "type": "node",
      "id": 1791586585,
      "lat": 12.9552792,
      "lon": 77.5725794,
      "tags": {
        "addr:street": "Pampa Maha Kavi Road",
        "amenity": "community_centre",
        "name": "Raya Raya Kollam Kalyana Mantapa",
        "wheelchair": "no"
      }
    },
    {
      "type": "node",
      "id": 1791587673,
      "lat": 12.9554779,
      "lon": 77.5733626,
      "tags": {
        "addr:street": "Krishna Rajendra Road",
        "amenity": "theatre",
        "name": "Gayana Samaja",
        "name:kn": "ಗಾಯನ ಸಮಾಜ",
        "wheelchair": "no"
      }
    },
    {
      "type": "node",
      "id": 1791591267,
      "lat": 12.9544584,
      "lon": 77.5733572,
      "tags": {
        "amenity": "atm",
        "brand": "Corporation Bank",
        "brand:wikidata": "Q2003387",
        "fee": "no",
        "name": "Corporation Bank",
        "name:kn": "ಕಾರ್ಪರೇಷನ್ ಬ್ಯಾಂಕ್",
        "operator": "Corporation Bank",
        "operator:wikidata": "Q2003387"
      }
    },
    {
      "type": "node",
      "id": 1791592717,
      "lat": 12.9484672,
      "lon": 77.5716218,
      "tags": {
        "addr:street": "Uttaradi Mutt Road",
        "amenity": "bank",
        "atm": "yes",
        "brand": "Bank of Maharashtra",
        "brand:wikidata": "Q2004304",
        "brand:wikipedia": "en:Bank of Maharashtra",
        "name": "Bank of Maharashtra",
        "name:en": "Bank of Maharashtra",
        "website": "https://www.bankofmaharashtra.in/",
        "wheelchair": "no"
      }
    },
    {
      "type": "node",
      "id": 1791595069,
      "lat": 12.9500017,
      "lon": 77.5721635,
      "tags": {
        "amenity": "atm",
        "fee": "no",
        "operator": "State Bank Of Indi"
      }
    },
    {
      "type": "node",
      "id": 1791599706,
      "lat": 12.9549159,
      "lon": 77.5725607,
      "tags": {
        "amenity": "community_centre",
        "name": "Krishna Vadiraja Kalyana Mantapa",
        "wheelchair": "no"
      }
    },
    {
      "type": "node",
      "id": 1791886696,
      "lat": 12.9573769,
      "lon": 77.5717084,
      "tags": {
        "amenity": "atm",
        "brand": "State Bank of India",
        "brand:wikidata": "Q1340361",
        "fee": "no",
        "name": "State Bank of India",
        "operator": "State Bank of India",
        "operator:wikidata": "Q1340361",
        "short_name": "SBI",
        "wheelchair": "no"
      }
    },
    {
      "type": "node",
      "id": 1791962125,
      "lat": 12.9552387,
      "lon": 77.5790523,
      "tags": {
        "amenity": "restaurant",
        "cuisine": "indian",
        "name": "Nandini",
        "name:kn": "ನಂದಿನಿ",
        "wheelchair": "no"
      }
    },
    {
      "type": "node",
      "id": 1791962421,
      "lat": 12.9526875,
      "lon": 77.5767885,
      "tags": {
        "addr:city": "Bengaluru",
        "addr:postcode": "560004",
        "addr:street": "Sajjan Rao Circle",
        "amenity": "place_of_worship",
        "name": "Sri Shanidevara Temple",
        "name:kn": "ಶನಿದೇವರ ದೇವಸ್ಥಾನ",
        "religion": "hindu"
      }
    },
    {
      "type": "node",
      "id": 1791971124,
      "lat": 12.952102,
      "lon": 77.5763325,
      "tags": {
        "amenity": "place_of_worship",
        "name": "Satyanarayana Temple",
        "name:kn": "ಸತ್ಯನಾರಾಯಣ ಗುಡಿ",
        "religion": "hindu"
      }
    },
    {
      "type": "node",
      "id": 1791982458,
      "lat": 12.9544493,
      "lon": 77.5699435,
      "tags": {
        "amenity": "atm",
        "brand": "Karnataka Bank",
        "brand:wikidata": "Q2042632",
        "name": "Karnataka Bank",
        "operator": "Karnataka Bank",
        "operator:wikidata": "Q2042632"
      }
    },
    {
      "type": "node",
      "id": 1791990800,
      "lat": 12.9556831,
      "lon": 77.5676261,
      "tags": {
        "amenity": "atm",
        "brand": "State Bank of India",
        "brand:wikidata": "Q1340361",
        "name": "State Bank of India",
        "name:kn": "ಎಸ್ ಬಿ ಐ",
        "operator": "State Bank of India",
        "operator:wikidata": "Q1340361",
        "short_name": "SBI",
        "wheelchair": "no"
      }
    },
    {
      "type": "node",
      "id": 1791991192,
      "lat": 12.9557511,
      "lon": 77.567272,
      "tags": {
        "amenity": "atm",
        "wheelchair": "no"
      }
    },
    {
      "type": "node",
      "id": 1791991768,
      "lat": 12.9551211,
      "lon": 77.5663064,
      "tags": {
        "amenity": "bank",
        "atm": "yes",
        "brand": "HDFC Bank",
        "brand:wikidata": "Q631047",
        "brand:wikipedia": "en:HDFC Bank",
        "name": "HDFC Bank",
        "short_name": "HDFC",
        "website": "https://www.hdfcbank.com",
        "wheelchair": "no"
      }
    },
    {
      "type": "node",
      "id": 1792713585,
      "lat": 12.9493264,
      "lon": 77.5679362,
      "tags": {
        "addr:street": "Bull Temple Road",
        "amenity": "bank",
        "atm": "yes",
        "branch": "Bull Temple Road",
        "brand": "State Bank of India",
        "brand:wikidata": "Q1340361",
        "brand:wikipedia": "en:State Bank of India",
        "check_date": "2023-09-09",
        "drive_through": "yes",
        "internet_access": "wlan",
        "internet_access:fee": "no",
        "name": "State Bank of India",
        "name:kn": "ಭಾರತೀಯ ಸ್ಟೇಟ್ ಬ್ಯಾಂಕ್",
        "payment:mastercard": "yes",
        "payment:visa": "yes",
        "short_name": "SBI",
        "wheelchair": "yes"
      }
    },
    {
      "type": "node",
      "id": 1792715612,
      "lat": 12.954621,
      "lon": 77.5672723,
      "tags": {
        "name": "Reliance Digital Electronic Store",
        "shop": "supermarket",
        "wheelchair": "no"
      }
    },
    {
      "type": "node",
      "id": 1794008864,
      "lat": 12.9451475,
      "lon": 77.5719389,
      "tags": {
        "amenity": "atm",
        "brand": "Citibank",
        "brand:wikidata": "Q857063",
        "drive_through": "no",
        "fee": "no",
        "name": "Citibank",
        "operator": "Citibank",
        "operator:wikidata": "Q857063",
        "short_name": "Citi",
        "wheelchair": "no"
      }
    },
    {
      "type": "node",
      "id": 1796633495,
      "lat": 12.9450945,
      "lon": 77.5679803,
      "tags": {
        "amenity": "fast_food",
        "brand": "Domino's",
        "brand:ks": "ڈومینوز",
        "brand:pa": "ਡੋਮੀਨੋਜ਼",
        "brand:ur": "ڈومینوز",
        "brand:wikidata": "Q839466",
        "brand:wikipedia": "en:Domino's Pizza",
        "cuisine": "pizza",
        "name": "Domino's",
        "name:ks": "ڈومینوز",
        "name:pa": "ਡੋਮੀਨੋਜ਼",
        "name:ur": "ڈومینوز",
        "takeaway": "yes"
      }
    },
    {
      "type": "node",
      "id": 1796636345,
      "lat": 12.9500847,
      "lon": 77.5679508,
      "tags": {
        "amenity": "bank",
        "atm": "no",
        "designation": "Karnatka State Industrial Co-operative Bank",
        "name": "Karnatka Rajya Kaigarika Sahakari Bank"
      }
    },
    {
      "type": "node",
      "id": 1796647802,
      "lat": 12.9552655,
      "lon": 77.5675942,
      "tags": {
        "amenity": "fast_food",
        "cuisine": "indian",
        "name": "Darshini",
        "name:kn": "ದರ್ಶಿನಿ",
        "wheelchair": "no"
      }
    },
    {
      "type": "node",
      "id": 1801375379,
      "lat": 12.9469992,
      "lon": 77.5641506,
      "tags": {
        "amenity": "bank",
        "atm": "yes",
        "brand": "Syndicate Bank",
        "brand:wikidata": "Q2004088",
        "name": "Syndicate Bank",
        "name:en": "Syndicate Bank",
        "name:kn": "ಸಿಂಡಿಕೇಟ್ ಬ್ಯಾಂಕ್",
        "website": "https://www.syndicatebank.in"
      }
    },
    {
      "type": "node",
      "id": 1806971412,
      "lat": 12.95954,
      "lon": 77.5685551,
      "tags": {
        "amenity": "bank",
        "atm": "yes",
        "brand": "Canara Bank",
        "brand:en": "Canara Bank",
        "brand:hi": "केनरा बैंक",
        "brand:kn": "ಕೆನರಾ ಬ್ಯಾಂಕ್",
        "brand:pa": "ਕੇਨਰਾ ਬੈਂਕ",
        "brand:pnb": "کینرا بینک",
        "brand:ur": "کینرا بینک",
        "brand:wikidata": "Q2003777",
        "brand:wikipedia": "en:Canara Bank",
        "brand:wikipedia:pa": "ਕੇਨਰਾ ਬੈਂਕ",
        "name": "Canara Bank",
        "name:en": "Canara Bank",
        "name:hi": "केनरा बैंक",
        "name:kn": "ಕೆನರಾ ಬ್ಯಾಂಕ್",
        "name:pa": "ਕੇਨਰਾ ਬੈਂਕ",
        "name:pnb": "کینرا بینک",
        "name:ur": "کینرا بینک",
        "toilets:wheelchair": "no",
        "website": "https://www.canarabank.com/",
        "wheelchair": "no"
      }
    },
    {
      "type": "node",
      "id": 1843616701,
      "lat": 12.9608365,
      "lon": 77.5701609,
      "tags": {
        "amenity": "place_of_worship",
        "name": "Adi Shakti Chikka Annamma Temple",
        "name:kn": "ಆದಿಶಕ್ತಿ ಚಿಕ್ಕ ಅಣ್ಣಮ್ಮ ದೇವಸ್ಥಾನ",
        "religion": "hindu"
      }
    },
    {
      "type": "node",
      "id": 1843617173,
      "lat": 12.9614011,
      "lon": 77.5698739,
      "tags": {
        "amenity": "place_of_worship",
        "name": "Lakshmi Satyanarana Temple",
        "religion": "hindu"
      }
    },
    {
      "type": "node",
      "id": 1843617409,
      "lat": 12.9617331,
      "lon": 77.5700133,
      "tags": {
        "amenity": "place_of_worship",
        "name": "Anjaneya Temple",
        "name:kn": "ಆಂಜನೇಯ ದೇವಸ್ಥಾನ",
        "religion": "hindu"
      }
    },
    {
      "type": "node",
      "id": 1902387772,
      "lat": 12.9444288,
      "lon": 77.5724461,
      "tags": {
        "amenity": "bank",
        "brand": "Indian Bank",
        "brand:wikidata": "Q2003789",
        "brand:wikipedia": "en:Indian Bank",
        "name": "Indian Bank",
        "name:en": "Indian Bank",
        "name:kn": "ಇಂಡಿಯನ್ ಬ್ಯಾಂಕ್",
        "source": "survey",
        "website": "https://www.indianbank.in/"
      }
    },
    {
      "type": "node",
      "id": 1916532789,
      "lat": 12.9543124,
      "lon": 77.5786901,
      "tags": {
        "name": "NMH Bakery",
        "shop": "bakery"
      }
    },
    {
      "type": "node",
      "id": 1916533478,
      "lat": 12.9535215,
      "lon": 77.5780606,
      "tags": {
        "amenity": "pharmacy",
        "healthcare": "pharmacy",
        "name": "Kasturi Medicals"
      }
    },
    {
      "type": "node",
      "id": 1916600665,
      "lat": 12.9489694,
      "lon": 77.577188,
      "tags": {
        "amenity": "fast_food",
        "name": "Sri Vasavi Condiments",
        "name:kn": "ಬಸವನಗುಡಿ ಟಿಫಿನ್ ರೂಮ್",
        "wheelchair": "no"
      }
    },
    {
      "type": "node",
      "id": 1923720117,
      "lat": 12.9458998,
      "lon": 77.5717344,
      "tags": {
        "amenity": "atm",
        "brand": "ICICI Bank",
        "brand:wikidata": "Q1653258",
        "name": "ICICI Bank",
        "name:kn": "ಐಸಿಐಸಿಐ ಬ್ಯಾಂಕು",
        "operator": "ICICI Bank",
        "operator:wikidata": "Q1653258",
        "short_name": "ICICI",
        "source:name": "survey"
      }
    },
    {
      "type": "node",
      "id": 1923771946,
      "lat": 12.9457543,
      "lon": 77.5724936,
      "tags": {
        "amenity": "bank",
        "name": "Sree Charan Bank",
        "name:kn": "ಶ್ರೀ ಚರಣ್ ಬ್ಯಾಂಕ್",
        "source:name": "survey"
      }
    },
    {
      "type": "node",
      "id": 1990628296,
      "lat": 12.9472021,
      "lon": 77.5714429,
      "tags": {
        "name": "Mahila",
        "name:kn": "ಮಹಿಳಾ",
        "shop": "jewelry",
        "wheelchair": "no"
      }
    },
    {
      "type": "node",
      "id": 2255802679,
      "lat": 12.9461645,
      "lon": 77.5734435,
      "tags": {
        "amenity": "restaurant",
        "diet:vegetarian": "only",
        "name": "Jain Bhavan",
        "name:kn": "ಜೈನ ಭವನ"
      }
    },
    {
      "type": "node",
      "id": 3148753000,
      "lat": 12.9457315,
      "lon": 77.5717632,
      "tags": {
        "amenity": "community_centre",
        "name": "HB Samaja Convention Hall"
      }
    },
    {
      "type": "node",
      "id": 3395243168,
      "lat": 12.9606678,
      "lon": 77.5714841,
      "tags": {
        "name": "Guruprakash General Stores",
        "shop": "general"
      }
    },
    {
      "type": "node",
      "id": 3395246644,
      "lat": 12.9606852,
      "lon": 77.5715513,
      "tags": {
        "amenity": "pharmacy",
        "check_date": "2025-06-19",
        "name": "Sri Manjunatha Medical & General Stores"
      }
    },
    {
      "type": "node",
      "id": 3455381019,
      "lat": 12.9454151,
      "lon": 77.5709801,
      "tags": {
        "addr:city": "Bangalore",
        "addr:street": "Gandhi Bazaar Main Road",
        "amenity": "fast_food",
        "cuisine": "regional",
        "name": "Ice Thunder"
      }
    },
    {
      "type": "node",
      "id": 3602709124,
      "lat": 12.9524597,
      "lon": 77.5773297,
      "tags": {
        "addr:city": "Bengaluru",
        "addr:housenumber": "53-58, 3rd Floor, Chakravarthi Complex",
        "addr:postcode": "560004",
        "addr:street": "Sajjan Rao Circle",
        "name": "Asus / Dell Service Center",
        "name:en": "Regenersis India Private Limited",
        "phone": "00918041205444",
        "shop": "electronics",
        "website": "http://www.regenersis.in"
      }
    },
    {
      "type": "node",
      "id": 3602709659,
      "lat": 12.9526217,
      "lon": 77.5773377,
      "tags": {
        "addr:city": "Bengaluru",
        "addr:postcode": "560004",
        "addr:street": "Sajjan Rao Circle",
        "name": "Maiyas Store",
        "operator": "Maiyas",
        "shop": "department_store"
      }
    },
    {
      "type": "node",
      "id": 3602713244,
      "lat": 12.9522009,
      "lon": 77.5773216,
      "tags": {
        "addr:city": "Bengaluru",
        "addr:postcode": "560004",
        "addr:street": "Sajjan Rao Circle",
        "amenity": "atm",
        "brand": "ICICI Bank",
        "brand:wikidata": "Q1653258",
        "drive_through": "no",
        "name": "ICICI Bank",
        "name:kn": "ಐಸಿಐಸಿಐ ಬ್ಯಾಂಕು",
        "operator": "ICICI Bank",
        "operator:wikidata": "Q1653258",
        "short_name": "ICICI"
      }
    },
    {
      "type": "node",
      "id": 3602725890,
      "lat": 12.9517068,
      "lon": 77.5769729,
      "tags": {
        "addr:city": "Bengaluru",
        "addr:postcode": "560004",
        "addr:street": "Sajjan Rao Circle",
        "name": "Harsha Enterprises",
        "opening_hours": "Mo-Fr 10:00-17:30",
        "operator": "Bharath Gas",
        "shop": "energy"
      }
    },
    {
      "type": "node",
      "id": 3602728203,
      "lat": 12.9508789,
      "lon": 77.5770446,
      "tags": {
        "addr:city": "Bengaluru",
        "addr:postcode": "560004",
        "addr:street": "Vasavi Temple Road",
        "amenity": "place_of_worship",
        "name": "Vasavi Temple",
        "name:kn": "ವಾಸವಿ ದೇವಸ್ಥಾನ",
        "religion": "hindu"
      }
    },
    {
      "type": "node",
      "id": 3602945368,
      "lat": 12.9506501,
      "lon": 77.5779992,
      "tags": {
        "addr:postcode": "560004",
        "name": "Nandini Milk Parlour",
        "name:kn": "ನಂದಿನಿ ಹಾಲಿನ ಅಂಗಡಿ",
        "operator": "Karnataka Milk Federation",
        "shop": "dairy"
      }
    },
    {
      "type": "node",
      "id": 3603077928,
      "lat": 12.9516486,
      "lon": 77.5770722,
      "tags": {
        "addr:city": "Bengaluru",
        "addr:postcode": "560004",
        "addr:street": "Old Market Street",
        "name": "V B Bakery",
        "shop": "bakery"
      }
    },
    {
      "type": "node",
      "id": 4128058314,
      "lat": 12.9554504,
      "lon": 77.574569,
      "tags": {
        "amenity": "theatre"
      }
    },
    {
      "type": "node",
      "id": 4130960789,
      "lat": 12.9551248,
      "lon": 77.566492,
      "tags": {
        "amenity": "atm"
      }
    },
    {
      "type": "node",
      "id": 4197221689,
      "lat": 12.9577751,
      "lon": 77.5688772,
      "tags": {
        "addr:district": "Bengaluru Urban",
        "addr:full": "No 17 4Th Mein Road Chamarajpet",
        "addr:postcode": "560018",
        "addr:state": "Karnataka",
        "amenity": "clinic",
        "name": "Brindavan Aerion Hospitals",
        "source": "OpenGovernmentData"
      }
    },
    {
      "type": "node",
      "id": 4304707389,
      "lat": 12.9591122,
      "lon": 77.5764973,
      "tags": {
        "addr:street": "Albert Victor Road",
        "name": "Ambica Travels",
        "shop": "travel_agency"
      }
    },
    {
      "type": "node",
      "id": 4342399492,
      "lat": 12.9511087,
      "lon": 77.5697771,
      "tags": {
        "amenity": "clinic",
        "check_date": "2023-09-09",
        "description": "10 security cameras",
        "name": "Srinivasa Ultrasound Scan Centre"
      }
    },
    {
      "type": "node",
      "id": 4349307192,
      "lat": 12.9485535,
      "lon": 77.5748248,
      "tags": {
        "amenity": "hospital",
        "check_date": "2024-03-09",
        "healthcare:speciality": "gynaecology",
        "name": "Sagar Chandramma Hospitals",
        "name:en": "Sagar Chandramma Hospitals"
      }
    },
    {
      "type": "node",
      "id": 4349316995,
      "lat": 12.9455735,
      "lon": 77.5712921,
      "tags": {
        "amenity": "pharmacy",
        "healthcare": "pharmacy",
        "name": "Pavitra Medicals"
      }
    },
    {
      "type": "node",
      "id": 4349316996,
      "lat": 12.9453567,
      "lon": 77.5710944,
      "tags": {
        "name": "Seema Art Jewellery",
        "shop": "jewelry"
      }
    },
    {
      "type": "node",
      "id": 4349317394,
      "lat": 12.9450336,
      "lon": 77.5715059,
      "tags": {
        "addr:housenumber": "22",
        "addr:street": "Gandhi Bazaar Main Road",
        "name": "BN Sreekantiah And Sons",
        "shop": "convenience"
      }
    },
    {
      "type": "node",
      "id": 4349317395,
      "lat": 12.9450199,
      "lon": 77.5714286,
      "tags": {
        "name": "Priyanka Silks",
        "shop": "clothes"
      }
    },
    {
      "type": "node",
      "id": 4349317396,
      "lat": 12.9453667,
      "lon": 77.5709983,
      "tags": {
        "amenity": "restaurant",
        "name": "Timepass Dinner"
      }
    },
    {
      "type": "node",
      "id": 4349331891,
      "lat": 12.9450571,
      "lon": 77.5716432,
      "tags": {
        "name": "Flower Market",
        "shop": "florist"
      }
    },
    {
      "type": "node",
      "id": 4349331892,
      "lat": 12.9450077,
      "lon": 77.5715689,
      "tags": {
        "name": "Parimala Sweets",
        "shop": "confectionery"
      }
    },
    {
      "type": "node",
      "id": 4349344090,
      "lat": 12.945197,
      "lon": 77.5712783,
      "tags": {
        "name": "Choice Footwear",
        "shop": "shoes"
      }
    },
    {
      "type": "node",
      "id": 4443365241,
      "lat": 12.9462613,
      "lon": 77.5703662,
      "tags": {
        "addr:city": "Bangalore",
        "addr:housenumber": "112",
        "addr:postcode": "560004",
        "addr:street": "Gandhi Bazar Main Road, Basavanagudi",
        "amenity": "restaurant",
        "cuisine": "regional",
        "delivery": "yes",
        "diet:vegetarian": "only",
        "name": "Baisakhi Vegetarian Restaurant",
        "opening_hours": "Mo-Su 12:30-16:00, 19:00-23:00",
        "phone": "+91 80 6533 9999",
        "smoking": "no",
        "takeaway": "yes"
      }
    },
    {
      "type": "node",
      "id": 4443397448,
      "lat": 12.9446256,
      "lon": 77.569918,
      "tags": {
        "addr:city": "Bangalore",
        "addr:housenumber": "8",
        "addr:postcode": "560004",
        "addr:street": "Behind BMS College of Engineering",
        "amenity": "restaurant",
        "cuisine": "regional",
        "delivery": "yes",
        "name": "Szechuan Dragon Chinese Restaurant",
        "opening_hours": "12-16, 7-23",
        "phone": "096635 67711",
        "smoking": "no"
      }
    },
    {
      "type": "node",
      "id": 4445233886,
      "lat": 12.9473154,
      "lon": 77.5690141,
      "tags": {
        "addr:city": "Bangalore",
        "addr:housenumber": "93",
        "addr:postcode": "560004",
        "addr:street": "Gandhi Bazaar Main Rd, Gandhi Bazaar, Basavanagudi",
        "amenity": "restaurant",
        "cuisine": "regional",
        "delivery": "yes",
        "name": "Hotel New Atithya",
        "opening_hours": "07:00:30-15:30, 17:00-23:30",
        "phone": "080 2650 8150",
        "smoking": "no",
        "takeaway": "yes"
      }
    },
    {
      "type": "node",
      "id": 4445259436,
      "lat": 12.9446421,
      "lon": 77.5719424,
      "tags": {
        "addr:city": "Bangalore",
        "addr:postcode": "560004",
        "addr:street": "Puttana Rd, Gandhi Bazaar",
        "amenity": "restaurant",
        "cuisine": "regional",
        "delivery": "yes",
        "name": "New Prashanth Hotel",
        "phone": "099803 04249",
        "smoking": "no",
        "takeaway": "yes"
      }
    },
    {
      "type": "node",
      "id": 4445269296,
      "lat": 12.9483651,
      "lon": 77.5685364,
      "tags": {
        "addr:city": "Bangalore",
        "addr:postcode": "560004",
        "addr:street": "Vanivilas Rd, Basavanagudi",
        "amenity": "restaurant",
        "cuisine": "regional",
        "delivery": "yes",
        "name": "SLV Corner",
        "opening_hours": "08:00-22:30",
        "phone": "080 2660 9671",
        "smoking": "no",
        "takeaway": "yes"
      }
    },
    {
      "type": "node",
      "id": 4445291691,
      "lat": 12.947549,
      "lon": 77.5739319,
      "tags": {
        "addr:city": "Bangalore",
        "addr:postcode": "560004",
        "addr:street": "K R Road, Basavangudi",
        "amenity": "restaurant",
        "cuisine": "regional",
        "delivery": "yes",
        "name": "Cool corner",
        "opening_hours": "08:00-22:00",
        "phone": "080 2691 6505",
        "smoking": "no",
        "takeaway": "yes"
      }
    },
    {
      "type": "node",
      "id": 4445303925,
      "lat": 12.9470578,
      "lon": 77.5714933,
      "tags": {
        "addr:city": "Bangalore",
        "addr:postcode": "560004",
        "addr:street": "DVG Road, Gandhi Bazaar, Basavanagudi",
        "amenity": "restaurant",
        "cuisine": "regional",
        "delivery": "yes",
        "name": "Maha Lakshmi Tiffin Room",
        "opening_hours": "Mo-Tu 06:30-11:30,14:30-20:00; Th-Su 06:30-11:30,14:30-20:00",
        "phone": "080 2290 6305",
        "smoking": "no"
      }
    },
    {
      "type": "node",
      "id": 4445314674,
      "lat": 12.9448665,
      "lon": 77.5715764,
      "tags": {
        "addr:city": "Bengaluru",
        "addr:postcode": "560004",
        "addr:street": "DVG Road, Gandhi Bazaar, Basavanagudi",
        "amenity": "restaurant",
        "cuisine": "regional",
        "delivery": "yes",
        "name": "Ice Thunder",
        "opening_hours": "08:30-21:30",
        "smoking": "no",
        "takeaway": "yes"
      }
    },
    {
      "type": "node",
      "id": 4445337724,
      "lat": 12.947133,
      "lon": 77.5694107,
      "tags": {
        "addr:city": "Bengaluru",
        "addr:housenumber": "95",
        "addr:postcode": "560004",
        "addr:street": "Gandhi Bazaar, Basavanagudi",
        "amenity": "cafe",
        "brand": "Cafe Coffee Day",
        "brand:wikidata": "Q5017235",
        "cuisine": "coffee_shop",
        "delivery": "yes",
        "name": "Cafe Coffee Day",
        "name:kn": "ಕಫೆ ಕಾಫಿ ಡೇ",
        "opening_hours": "11:00-23:00",
        "phone": "080 3256 9590",
        "smoking": "no",
        "takeaway": "yes",
        "website": "https://www.cafecoffeeday.com/"
      }
    },
    {
      "type": "node",
      "id": 4445351321,
      "lat": 12.9471057,
      "lon": 77.5716965,
      "tags": {
        "addr:city": "Bangalore",
        "addr:housenumber": "22",
        "addr:postcode": "560004",
        "addr:street": "Govindappa Road, V.C Plaza, Next To Suvarna Silk, DVG Road, Gandhi Bazaar, Basavanagudi",
        "amenity": "restaurant",
        "cuisine": "regional",
        "delivery": "yes",
        "name": "Thanco's Natural Ice Cream",
        "opening_hours": "11:00-23:00",
        "phone": "080 4099 7919",
        "smoking": "no",
        "takeaway": "yes",
        "website": "www.thancosnatural.com"
      }
    },
    {
      "type": "node",
      "id": 4445799119,
      "lat": 12.9488056,
      "lon": 77.5743239,
      "tags": {
        "addr:city": "Bangalore",
        "addr:postcode": "560004",
        "addr:street": "Kavi Lakshmisha Rd, Vishweshwarapura, Shankarapura",
        "amenity": "restaurant",
        "cuisine": "regional",
        "delivery": "yes",
        "name": "Bakery World",
        "opening_hours": "07:00-22:00",
        "phone": "080 4093 7384",
        "smoking": "no",
        "takeaway": "yes"
      }
    },
    {
      "type": "node",
      "id": 4446525169,
      "lat": 12.9464613,
      "lon": 77.57609,
      "tags": {
        "addr:full": "80 Feet Road, 5th Cross Road, Chandra Layout, Vijay Nagar, Bangalore - 560040",
        "alt_name": "Goli Vada Pav No.1",
        "amenity": "fast_food",
        "brand": "Goli Vada Pav",
        "brand:wikidata": "Q5580697",
        "cuisine": "indian",
        "name": "Goli Vada Pav",
        "name:kn": "ಗೋಲಿ ವಡ ಪಾವ್",
        "opening_hours": "10:00-22:00",
        "phone": "+91 9845315071",
        "takeaway": "yes",
        "website": "https://www.golivadapav.com/"
      }
    },
    {
      "type": "node",
      "id": 4447071065,
      "lat": 12.944786,
      "lon": 77.5717922,
      "tags": {
        "amenity": "restaurant"
      }
    },
    {
      "type": "node",
      "id": 4447071066,
      "lat": 12.9447626,
      "lon": 77.5717734,
      "tags": {
        "addr:city": "Bangalore",
        "addr:housenumber": "17",
        "addr:postcode": "560004",
        "addr:street": "Next to cake ghar,Gandhi Bazaar Main Rd, Gandhi Bazaar, Basavanagudi",
        "amenity": "restaurant",
        "cuisine": "regional",
        "delivery": "yes",
        "name": "U.D Roti Ghar &Cake ghar",
        "opening_hours": "07:30-22:30",
        "phone": "080 2662 2760",
        "smoking": "no",
        "takeaway": "yes",
        "website": "https://www.facebook.com/rotighar"
      }
    },
    {
      "type": "node",
      "id": 4447072621,
      "lat": 12.9446144,
      "lon": 77.5729301,
      "tags": {
        "addr:city": "Bangalore",
        "addr:housenumber": "198",
        "addr:postcode": "560004",
        "addr:street": "3rd Floor, Gandhi Bazaar Main Road, Gandhi Bazaar, Basavanagudi",
        "amenity": "restaurant",
        "cuisine": "regional",
        "delivery": "yes",
        "name": "Soho Bar & Grill",
        "opening_hours": "11:30-23:30",
        "phone": "080 4160 9443",
        "smoking": "no",
        "takeaway": "yes",
        "website": "http://www.31southparkhotel.com/sohobar.html"
      }
    },
    {
      "type": "node",
      "id": 4447076724,
      "lat": 12.9444068,
      "lon": 77.5709394,
      "tags": {
        "addr:city": "Bangalore",
        "addr:housenumber": "142/143",
        "addr:postcode": "560004",
        "addr:street": "1st Floor, GR Plaza, DVG Road, Gandhi Bazaar, Basavanagudi",
        "amenity": "restaurant",
        "cuisine": "regional",
        "name": "Gokul Veg",
        "opening_hours": "11:00-22:30",
        "phone": "080 2662 7612",
        "smoking": "no",
        "takeaway": "yes",
        "website": "https://www.gokulveg.in/"
      }
    },
    {
      "type": "node",
      "id": 4447090061,
      "lat": 12.9458476,
      "lon": 77.5710517,
      "tags": {
        "addr:city": "Bangalore",
        "addr:housenumber": "32",
        "addr:postcode": "560004",
        "addr:street": "Gandhi Bazaar Main Rd, Gandhi Bazaar, Basavanagudi",
        "amenity": "restaurant",
        "cuisine": "regional",
        "name": "Udupi Sri Krishna Bhavan",
        "opening_hours": "07:30-20:30"
      }
    },
    {
      "type": "node",
      "id": 4447108639,
      "lat": 12.9543124,
      "lon": 77.5786901,
      "tags": {
        "addr:city": "Bengaluru",
        "addr:postcode": "560004",
        "addr:street": "V V Puram College of Science, Parvathipuram, Basavanagudi",
        "amenity": "restaurant",
        "cuisine": "regional",
        "delivery": "yes",
        "name": "New Modern Hotel",
        "phone": "080 2661 2625",
        "smoking": "no",
        "takeaway": "yes",
        "website": "https://newmodernhotel.com/"
      }
    },
    {
      "type": "node",
      "id": 4447110450,
      "lat": 12.9444202,
      "lon": 77.5729266,
      "tags": {
        "addr:city": "Bangalore",
        "addr:postcode": "560004",
        "addr:street": "Gandhi Bazaar Main Rd, Gandhi Bazaar, Basavanagudi",
        "amenity": "restaurant",
        "cuisine": "regional",
        "delivery": "yes",
        "name": "Hungerez",
        "opening_hours": "11:00-22:00",
        "phone": "097424 00031",
        "smoking": "no",
        "takeaway": "yes",
        "website": "http://www.hungerez.com/"
      }
    },
    {
      "type": "node",
      "id": 4447114176,
      "lat": 12.9444107,
      "lon": 77.5721169,
      "tags": {
        "addr:city": "Bangalore",
        "addr:postcode": "560004",
        "addr:street": "3rd Floor, Above Reliance Trends, 10, Gandhi Bazaar Main Rd, Basavanagudi",
        "amenity": "restaurant",
        "cuisine": "regional",
        "delivery": "yes",
        "name": "Grand Village",
        "opening_hours": "12:00-14:30, 19-22:30",
        "phone": "080 2661 2447",
        "smoking": "no"
      }
    },
    {
      "type": "node",
      "id": 4447135317,
      "lat": 12.9450065,
      "lon": 77.5714721,
      "tags": {
        "addr:city": "Bengaluru",
        "addr:housenumber": "32",
        "addr:postcode": "560004",
        "addr:street": "Gandhi Bazaar Main Road, Basavanagudi",
        "amenity": "restaurant",
        "cuisine": "regional",
        "delivery": "yes",
        "diet:vegetarian": "yes",
        "name": "Vidyarthi Bhavan",
        "name:kn": "ವಿದ್ಯಾರ್ಥಿ ಭವನ",
        "opening_hours": "Mo-Th 06:30-11:30, Mo-Th 14:00-20:00, Sa-Su 06:30-12:00, Sa-Su 14:30-20:00",
        "phone": "+91 80 2667 7588",
        "smoking": "no",
        "takeaway": "yes",
        "website": "https://vidyarthibhavan.in",
        "wikidata": "Q7928217",
        "wikipedia": "en:Vidyarthi Bhavan"
      }
    },
    {
      "type": "node",
      "id": 4447163847,
      "lat": 12.9445488,
      "lon": 77.57272,
      "tags": {
        "addr:city": "Bangalore",
        "addr:postcode": "560004",
        "addr:street": "Gandhi Bazar Main Road",
        "alt_name": "A2B",
        "amenity": "restaurant",
        "brand": "Adyar Ananda Bhavan",
        "brand:wikidata": "Q15178238",
        "cuisine": "regional",
        "delivery": "yes",
        "diet:vegetarian": "only",
        "email": "info@aabsweets.com",
        "name": "Adyar Ananda Bhavan",
        "name:kn": "ಆದ್ಯಾರ್ ಆನಂದ ಭವನ",
        "operator": "Adyar Ananda Bhavan",
        "phone": "+91 80 4120 3999",
        "smoking": "no",
        "website": "https://aabsweets.com"
      }
    },
    {
      "type": "node",
      "id": 4463280393,
      "lat": 12.9569354,
      "lon": 77.578524,
      "tags": {
        "name": "Vardaman",
        "name:en": "vardaman",
        "shop": "hardware"
      }
    },
    {
      "type": "node",
      "id": 4488134472,
      "lat": 12.948401,
      "lon": 77.5712754,
      "tags": {
        "addr:city": "Bangalore",
        "addr:housenumber": "No. 11",
        "addr:postcode": "560004",
        "addr:street": "Vanivilas Road, Near Flyover, Basavanagudi",
        "name": "Sports 'N' Style",
        "opening_hours": "12:00-21:00",
        "phone": "080 2667 2227",
        "shop": "sports"
      }
    },
    {
      "type": "node",
      "id": 4489397789,
      "lat": 12.9484803,
      "lon": 77.5718678,
      "tags": {
        "addr:city": "Bangalore",
        "addr:housenumber": "5",
        "addr:postcode": "560004",
        "addr:street": "Aaradya Complex, 21/1, Vanivilas Road, Near-National College, Basavanagudi",
        "name": "Planet Sports",
        "opening_hours": "09:30-21:30",
        "phone": "+919845374453",
        "shop": "sports"
      }
    },
    {
      "type": "node",
      "id": 4489754262,
      "lat": 12.9472875,
      "lon": 77.568009,
      "tags": {
        "addr:full": "2nd Floor, Bull Temple Road, Ramakrishna Ashram Circle, Basavanagudi, Gandhi Bazaar, Basavanagudi, Karnataka",
        "addr:housenumber": "15",
        "addr:postcode": "560004",
        "leisure": "fitness_centre",
        "level": "2",
        "name": "Snap Fitness",
        "opening_hours": "00:00-24:00",
        "phone": "099000 03939",
        "website": "snapfitnessindia.com"
      }
    },
    {
      "type": "node",
      "id": 4574896792,
      "lat": 12.9487443,
      "lon": 77.5668387,
      "tags": {
        "amenity": "place_of_worship",
        "name": "Sri Ramakrishna Temple",
        "name:en": "Sri Ramakrishna Temple",
        "opening_hours": "Mo-Su 05:00-12:00, 16:00-20:30"
      }
    },
    {
      "type": "node",
      "id": 4621578591,
      "lat": 12.9469892,
      "lon": 77.5690135,
      "tags": {
        "name": "Band Box",
        "name:en": "Band Box",
        "shop": "laundry"
      }
    },
    {
      "type": "node",
      "id": 4703397593,
      "lat": 12.9473628,
      "lon": 77.5668805,
      "tags": {
        "amenity": "atm",
        "brand": "Axis Bank",
        "brand:wikidata": "Q2003549",
        "name": "Axis Bank",
        "operator": "Axis Bank",
        "operator:wikidata": "Q2003549"
      }
    },
    {
      "type": "node",
      "id": 4703397594,
      "lat": 12.9459968,
      "lon": 77.5670655,
      "tags": {
        "addr:postcode": "560019",
        "addr:street": "Shyamaraja Iyengar Road",
        "amenity": "fast_food",
        "cuisine": "indian",
        "diet:vegetarian": "yes",
        "name": "Balaji Chat Corner",
        "name:en": "Balaji Chat Corner",
        "name:hi": "बालाजी चाट कार्नर",
        "opening_hours": "Mo-Su 10:00-22:00"
      }
    },
    {
      "type": "node",
      "id": 4703448590,
      "lat": 12.9449149,
      "lon": 77.5677557,
      "tags": {
        "name": "3M Car Care",
        "name:en": "3M Car Care",
        "shop": "car_parts"
      }
    },
    {
      "type": "node",
      "id": 4703448591,
      "lat": 12.9466546,
      "lon": 77.567626,
      "tags": {
        "addr:postcode": "560019",
        "addr:street": "Bull Temple Road",
        "amenity": "bank",
        "brand": "IndusInd Bank",
        "brand:wikidata": "Q2040323",
        "brand:wikipedia": "en:IndusInd Bank",
        "name": "IndusInd Bank",
        "name:en": "IndusInd Bank",
        "website": "https://www.indusind.com"
      }
    },
    {
      "type": "node",
      "id": 4703462689,
      "lat": 12.9472484,
      "lon": 77.5669962,
      "tags": {
        "amenity": "kindergarten",
        "name": "Growing Wonders Gavipuram",
        "name:en": "Growing Wonders Gavipuram",
        "name:hi": "ग्रोइंग वंडर्स"
      }
    },
    {
      "type": "node",
      "id": 5246614722,
      "lat": 12.9467131,
      "lon": 77.5692249,
      "tags": {
        "addr:housenumber": "65",
        "amenity": "pharmacy",
        "healthcare": "pharmacy",
        "name": "Ayurvedic Pharmacy",
        "name:kn": "ಆಯುರ್ವೇದ ಔಷದಾಲಯ",
        "name:ru": "Аюрведические препараты"
      }
    },
    {
      "type": "node",
      "id": 5283520150,
      "lat": 12.9542603,
      "lon": 77.5755467,
      "tags": {
        "amenity": "place_of_worship",
        "name": "Maramma Temple",
        "name:kn": "ಮಾರಮ್ಮ ದೇವಸ್ಥಾನ",
        "religion": "hindu"
      }
    },
    {
      "type": "node",
      "id": 5305832614,
      "lat": 12.9480414,
      "lon": 77.5689161,
      "tags": {
        "alt_name": "Kentucky Fried Chicken",
        "alt_name:en": "Kentucky Fried Chicken",
        "alt_name:hi": "केंटुकी फ्राइड चिकन",
        "alt_name:pa": "ਕੈਂਟੁਕੀ ਫ੍ਰਾਈਡ ਚਿਕਨ",
        "alt_name:pnb": "کینٹکی فرائیڈ چکن",
        "alt_name:ur": "کینٹکی فرائیڈ چکن",
        "amenity": "fast_food",
        "brand": "KFC",
        "brand:en": "KFC",
        "brand:hi": "केएफसी",
        "brand:pa": "ਕੇਐਫਸੀ",
        "brand:pnb": "کے ایف سی",
        "brand:ur": "کے ایف سی",
        "brand:wikidata": "Q524757",
        "brand:wikipedia": "en:KFC",
        "brand:wikipedia:pa": "ਕੇਐਫਸੀ",
        "brand:wikipedia:ur": "کینٹکی فرائیڈ چکن",
        "cuisine": "chicken",
        "name": "KFC",
        "name:en": "KFC",
        "name:hi": "केएफसी",
        "name:pa": "ਕੇਐਫਸੀ",
        "name:pnb": "کے ایف سی",
        "name:ur": "کے ایف سی",
        "takeaway": "yes"
      }
    },
    {
      "type": "node",
      "id": 5306017405,
      "lat": 12.9480048,
      "lon": 77.5699568,
      "tags": {
        "amenity": "ice_cream",
        "brand": "Baskin-Robbins",
        "brand:wikidata": "Q584601",
        "cuisine": "ice_cream",
        "name": "Baskin-Robbins",
        "name:kn": "ಬಸ್ಕಿನ್ ರಾಬಿನ್ಸ್"
      }
    },
    {
      "type": "node",
      "id": 5306017406,
      "lat": 12.9480153,
      "lon": 77.5696644,
      "tags": {
        "name": "Girias",
        "shop": "electronics"
      }
    },
    {
      "type": "node",
      "id": 5306746608,
      "lat": 12.9508907,
      "lon": 77.5777332,
      "tags": {
        "name": "Book My Ballons",
        "shop": "gift"
      }
    },
    {
      "type": "node",
      "id": 5306746609,
      "lat": 12.9508763,
      "lon": 77.5777949,
      "tags": {
        "amenity": "fast_food",
        "name": "Dev Sagar"
      }
    },
    {
      "type": "node",
      "id": 5306746610,
      "lat": 12.9508933,
      "lon": 77.5777694,
      "tags": {
        "name": "Sree Ganesha Fruit Juice Centre",
        "shop": "beverages"
      }
    },
    {
      "type": "node",
      "id": 5306746611,
      "lat": 12.9509129,
      "lon": 77.5777399,
      "tags": {
        "amenity": "fast_food",
        "name": "Chinese Corner"
      }
    },
    {
      "type": "node",
      "id": 5306746612,
      "lat": 12.9509312,
      "lon": 77.5777198,
      "tags": {
        "amenity": "fast_food",
        "name": "Sandwich Hut"
      }
    },
    {
      "type": "node",
      "id": 5306746617,
      "lat": 12.9510815,
      "lon": 77.5777084,
      "tags": {
        "amenity": "fast_food",
        "name": "Sai Fast Food"
      }
    },
    {
      "type": "node",
      "id": 5306746618,
      "lat": 12.9509841,
      "lon": 77.5778009,
      "tags": {
        "amenity": "fast_food",
        "name": "Gurudeva Eating House"
      }
    },
    {
      "type": "node",
      "id": 5306746619,
      "lat": 12.9510057,
      "lon": 77.5777808,
      "tags": {
        "amenity": "fast_food",
        "name": "Swami Bajji Center"
      }
    },
    {
      "type": "node",
      "id": 5306751724,
      "lat": 12.9510407,
      "lon": 77.5776041,
      "tags": {
        "amenity": "fast_food",
        "name": "Arya Vysya Chats"
      }
    },
    {
      "type": "node",
      "id": 5306751725,
      "lat": 12.9510995,
      "lon": 77.5776916,
      "tags": {
        "amenity": "fast_food",
        "name": "Vasavi Mane Thindi"
      }
    },
    {
      "type": "node",
      "id": 5306751726,
      "lat": 12.9511194,
      "lon": 77.5776742,
      "tags": {
        "amenity": "fast_food",
        "name": "Vasavi Dose Camp"
      }
    },
    {
      "type": "node",
      "id": 5306751727,
      "lat": 12.9511478,
      "lon": 77.5776467,
      "tags": {
        "amenity": "fast_food",
        "name": "The Chat Shop"
      }
    },
    {
      "type": "node",
      "id": 5306751734,
      "lat": 12.9510776,
      "lon": 77.5774924,
      "tags": {
        "description": "Dealers in Agmark Coorg Honey",
        "name": "Sapthagiri Industries",
        "shop": "convenience",
        "vending": "honey"
      }
    },
    {
      "type": "node",
      "id": 5306751735,
      "lat": 12.9511142,
      "lon": 77.5774831,
      "tags": {
        "amenity": "fast_food",
        "name": "Sangameshwara Gulkand & Chats Center"
      }
    },
    {
      "type": "node",
      "id": 5306751736,
      "lat": 12.9510933,
      "lon": 77.5775126,
      "tags": {
        "amenity": "fast_food",
        "name": "Anuradha Snacks"
      }
    },
    {
      "type": "node",
      "id": 5306751741,
      "lat": 12.9511952,
      "lon": 77.5774603,
      "tags": {
        "amenity": "ice_cream",
        "name": "Arctic Bites"
      }
    },
    {
      "type": "node",
      "id": 5306751742,
      "lat": 12.9511978,
      "lon": 77.5774106,
      "tags": {
        "amenity": "dentist",
        "name": "Destination Dentale"
      }
    },
    {
      "type": "node",
      "id": 5306751743,
      "lat": 12.9512527,
      "lon": 77.5774267,
      "tags": {
        "amenity": "restaurant",
        "name": "Ramu Tiffin Center"
      }
    },
    {
      "type": "node",
      "id": 5306751748,
      "lat": 12.9515233,
      "lon": 77.5774536,
      "tags": {
        "amenity": "fast_food",
        "name": "By2Coffee"
      }
    },
    {
      "type": "node",
      "id": 5306751753,
      "lat": 12.9513663,
      "lon": 77.5772912,
      "tags": {
        "amenity": "fast_food",
        "name": "Bangarpet Chat Express"
      }
    },
    {
      "type": "node",
      "id": 5306751754,
      "lat": 12.9513445,
      "lon": 77.5773058,
      "tags": {
        "name": "Vinayaka Juice Center",
        "shop": "beverages"
      }
    },
    {
      "type": "node",
      "id": 5306751755,
      "lat": 12.9513943,
      "lon": 77.5772636,
      "tags": {
        "name": "Srirama Watch Works",
        "shop": "watches"
      }
    },
    {
      "type": "node",
      "id": 5306751756,
      "lat": 12.9516278,
      "lon": 77.5773986,
      "tags": {
        "amenity": "fast_food",
        "name": "Annapoorneshwari Hithukida Avare Kendra"
      }
    },
    {
      "type": "node",
      "id": 5306751757,
      "lat": 12.9515978,
      "lon": 77.5773999,
      "tags": {
        "amenity": "fast_food",
        "name": "Vasavi Vaisista Thindi"
      }
    },
    {
      "type": "node",
      "id": 5306751758,
      "lat": 12.9522467,
      "lon": 77.5773751,
      "tags": {
        "name": "New Point Stationery World",
        "shop": "stationery"
      }
    },
    {
      "type": "node",
      "id": 5306751759,
      "lat": 12.9522486,
      "lon": 77.5773168,
      "tags": {
        "name": "Preethi Juice Corner",
        "shop": "beverages"
      }
    },
    {
      "type": "node",
      "id": 5306751760,
      "lat": 12.9523571,
      "lon": 77.5773644,
      "tags": {
        "amenity": "school",
        "level": "1",
        "name": "Raghav's Coaching Centre"
      }
    },
    {
      "type": "node",
      "id": 5306751761,
      "lat": 12.9523578,
      "lon": 77.5773074,
      "tags": {
        "level": "0",
        "name": "Sri Rajalakshmi Bakery and Sweets",
        "shop": "bakery"
      }
    },
    {
      "type": "node",
      "id": 5306751762,
      "lat": 12.9524087,
      "lon": 77.5773617,
      "tags": {
        "amenity": "dentist",
        "level": "1",
        "name": "All Care Dental Centre"
      }
    },
    {
      "type": "node",
      "id": 5306751763,
      "lat": 12.9524087,
      "lon": 77.5773087,
      "tags": {
        "amenity": "restaurant",
        "name": "Sri Krishna Darshini"
      }
    },
    {
      "type": "node",
      "id": 5306751768,
      "lat": 12.952479,
      "lon": 77.5774381,
      "tags": {
        "amenity": "bank",
        "brand": "Kotak Mahindra Bank",
        "brand:wikidata": "Q2040404",
        "level": "1",
        "name": "Kotak Mahindra Bank",
        "name:kn": "ಕೋಟಕ್ ಮಹಿಂದ್ರ ಬ್ಯಾಂಕ್"
      }
    },
    {
      "type": "node",
      "id": 5306751771,
      "lat": 12.9524904,
      "lon": 77.5773248,
      "tags": {
        "amenity": "pharmacy",
        "level": "0",
        "name": "Nagashri Medicals"
      }
    },
    {
      "type": "node",
      "id": 5306751772,
      "lat": 12.9525453,
      "lon": 77.5773261,
      "tags": {
        "level": "0",
        "name": "Fudge",
        "shop": "chocolate"
      }
    },
    {
      "type": "node",
      "id": 5306751773,
      "lat": 12.9526492,
      "lon": 77.5773228,
      "tags": {
        "name": "Ramesh Nethralaya",
        "shop": "optician"
      }
    },
    {
      "type": "node",
      "id": 5306751774,
      "lat": 12.9526192,
      "lon": 77.5773778,
      "tags": {
        "name": "The United Dental Supply Co.",
        "shop": "medical_supply"
      }
    },
    {
      "type": "node",
      "id": 5306751775,
      "lat": 12.9527054,
      "lon": 77.5772946,
      "tags": {
        "level": "0",
        "name": "Shri Vasanth Coffee Works",
        "shop": "coffee"
      }
    },
    {
      "type": "node",
      "id": 5306751780,
      "lat": 12.9528048,
      "lon": 77.5773704,
      "tags": {
        "level": "0",
        "name": "Shimla Dry Cleaners",
        "shop": "dry_cleaning"
      }
    },
    {
      "type": "node",
      "id": 5306751781,
      "lat": 12.9527603,
      "lon": 77.5773221,
      "tags": {
        "level": "0",
        "name": "Sri Sai Electricals",
        "shop": "electrical"
      }
    },
    {
      "type": "node",
      "id": 5306751782,
      "lat": 12.9527838,
      "lon": 77.5773469,
      "tags": {
        "level": "0",
        "name": "Laxmi Home Needs",
        "shop": "convenience"
      }
    },
    {
      "type": "node",
      "id": 5306751785,
      "lat": 12.9528329,
      "lon": 77.5773999,
      "tags": {
        "level": "0",
        "name": "Vardhaman Fashions",
        "shop": "clothes"
      }
    },
    {
      "type": "node",
      "id": 5306751786,
      "lat": 12.9528597,
      "lon": 77.577424,
      "tags": {
        "level": "0",
        "name": "New Omega Seat Covers",
        "shop": "car_parts"
      }
    },
    {
      "type": "node",
      "id": 5306751787,
      "lat": 12.9528897,
      "lon": 77.5774489,
      "tags": {
        "level": "0",
        "name": "Sree Padmavathi Collections",
        "shop": "dairy"
      }
    },
    {
      "type": "node",
      "id": 5306751788,
      "lat": 12.9529139,
      "lon": 77.5774723,
      "tags": {
        "level": "0",
        "name": "V Fashion",
        "shop": "clothes"
      }
    },
    {
      "type": "node",
      "id": 5306751789,
      "lat": 12.9529361,
      "lon": 77.5774938,
      "tags": {
        "level": "0",
        "name": "Kuberan Ladies Designer",
        "shop": "tailor"
      }
    },
    {
      "type": "node",
      "id": 5306751790,
      "lat": 12.9529603,
      "lon": 77.5775152,
      "tags": {
        "level": "0",
        "name": "Popular Tyre Company",
        "shop": "tyres"
      }
    },
    {
      "type": "node",
      "id": 5306751794,
      "lat": 12.9532746,
      "lon": 77.5774911,
      "tags": {
        "name": "Rank Opticians",
        "shop": "optician"
      }
    },
    {
      "type": "node",
      "id": 5423093132,
      "lat": 12.9543375,
      "lon": 77.5755417,
      "tags": {
        "amenity": "place_of_worship",
        "denomination": "sunni",
        "name": "Masjid E A'ala",
        "religion": "muslim"
      }
    },
    {
      "type": "node",
      "id": 5423106786,
      "lat": 12.9527142,
      "lon": 77.5762337,
      "tags": {
        "amenity": "place_of_worship",
        "name": "Subramanya Swamy Temple",
        "name:kn": "ಸುಬ್ರಮಣ್ಯ ಸ್ವಾಮಿ ದೇವಸ್ಥಾನ",
        "religion": "hindu"
      }
    },
    {
      "type": "node",
      "id": 5423114340,
      "lat": 12.9517621,
      "lon": 77.5750763,
      "tags": {
        "amenity": "place_of_worship",
        "name": "Jain Temple",
        "name:kn": "ಜೈನ ದೇವಸ್ಥಾನ",
        "religion": "jain"
      }
    },
    {
      "type": "node",
      "id": 5716797221,
      "lat": 12.9542624,
      "lon": 77.5709473,
      "tags": {
        "addr:district": "Bengaluru Urban",
        "addr:full": "1st Cross, Shankarapuram, Basavanaagudi",
        "addr:postcode": "560004",
        "addr:state": "Karnataka",
        "amenity": "hospital",
        "name": "Sri Shankara Cancer Hospital And Research Centre (A Service Unit Of Sscf)",
        "operator:type": "private",
        "phone": "080-26981000",
        "source": "OpenGovernmentData",
        "website": "http://shankaracancerfoundation.org/"
      }
    },
    {
      "type": "node",
      "id": 6695305386,
      "lat": 12.9599108,
      "lon": 77.5738731,
      "tags": {
        "shop": "ticket"
      }
    },
    {
      "type": "node",
      "id": 6882713295,
      "lat": 12.9542601,
      "lon": 77.5711745,
      "tags": {
        "addr:city": "Bengaluru",
        "addr:district": "BENGALURU URBAN",
        "addr:full": "Shankara Math premises, 1st cross, shankarapuram, Basavanagudi",
        "addr:postcode": "560004",
        "addr:state": "Karnataka",
        "amenity": "blood_bank",
        "contact:mobile": "9535408623",
        "contact:phone": "8026981101",
        "name": "Sri Shankara Cancer Hospital and Research Centre Blood Bank",
        "opening_hours": "24/7",
        "operator:type": "private",
        "source": "OpenGovernmentData",
        "website": "http://shankaracancerfoundation.org/"
      }
    },
    {
      "type": "node",
      "id": 6882713296,
      "lat": 12.9566858,
      "lon": 77.5742,
      "tags": {
        "addr:city": "Bengaluru",
        "addr:district": "BENGALURU URBAN",
        "addr:full": "K. R. Road, Visveswarapuram, Near Makkala Koota Bus Stop",
        "addr:postcode": "560004",
        "addr:state": "Karnataka",
        "amenity": "blood_bank",
        "contact:mobile": "9448559664",
        "contact:phone": "8026613225",
        "fax": "9180 26712798",
        "name": "KIMS Hospital Blood Bank",
        "opening_hours": "24/7",
        "operator:type": "private",
        "source": "OpenGovernmentData",
        "website": "http://www.kimsbangalore.edu.in"
      }
    },
    {
      "type": "node",
      "id": 6882713297,
      "lat": 12.9599636,
      "lon": 77.572863,
      "tags": {
        "addr:city": "Raichur",
        "addr:district": "RAICHUR",
        "addr:full": "3.9.58, Old Government Hospital Compound, Beron Quilla",
        "addr:postcode": "584101",
        "addr:state": "Karnataka",
        "amenity": "blood_bank",
        "contact:mobile": "08532 226608",
        "contact:phone": "8532226608",
        "name": "Indian Medical Association Blood Bank",
        "opening_hours": "24/7",
        "operator:type": "private",
        "source": "OpenGovernmentData"
      }
    },
    {
      "type": "node",
      "id": 6882713298,
      "lat": 12.9616862,
      "lon": 77.5713676,
      "tags": {
        "addr:city": "Bengaluru",
        "addr:district": "BENGALURU URBAN",
        "addr:full": "No. 23 and 84, Sharoff Basappa Commercial Complex, 2nd Main, Ist Cross, New Tharugpet",
        "addr:postcode": "560002",
        "addr:state": "Karnataka",
        "amenity": "blood_bank",
        "contact:mobile": "9845801539",
        "contact:phone": "8025990583",
        "name": "Sri Vinayaka Charitable Trust Jeeva Voluntary Blood Bank",
        "opening_hours": "24/7",
        "operator:type": "ngo",
        "source": "OpenGovernmentData"
      }
    },
    {
      "type": "node",
      "id": 6937761221,
      "lat": 12.959352,
      "lon": 77.567929,
      "tags": {
        "addr:district": "Bengaluru Rural",
        "addr:full": "Near Hemavathi Kalyana Mantap, Mysore Road , Channarayapatna",
        "addr:postcode": "562135",
        "addr:state": "Karnataka",
        "amenity": "clinic",
        "name": "Kumar Nursing Home, Bengaluru Rural",
        "source": "OpenGovernmentData"
      }
    },
    {
      "type": "node",
      "id": 6938775845,
      "lat": 12.95727,
      "lon": 77.5640827,
      "tags": {
        "addr:district": "Bengaluru Urban",
        "addr:full": "# 122, 5th Main Road, Chamarajpet",
        "addr:postcode": "560018",
        "addr:state": "Karnataka",
        "amenity": "hospital",
        "email": "retinaKarnatakaa@gmail.com",
        "name": "Retina Institute Of Karnataka",
        "operator:type": "private",
        "source": "OpenGovernmentData",
        "website": "https://www.retinainstitute.org/"
      }
    },
    {
      "type": "node",
      "id": 6938775846,
      "lat": 12.9572978,
      "lon": 77.5644522,
      "tags": {
        "addr:district": "Bengaluru Urban",
        "addr:full": "123, 5Th Main Road, Chamarajpet",
        "addr:postcode": "560018",
        "addr:state": "Karnataka",
        "amenity": "hospital",
        "name": "The Venlakh Hospital",
        "source": "OpenGovernmentData"
      }
    },
    {
      "type": "node",
      "id": 6938775851,
      "lat": 12.9583613,
      "lon": 77.5713274,
      "tags": {
        "addr:district": "Bengaluru Urban",
        "addr:full": "248,4 Th Main Road Chamarajpet",
        "addr:postcode": "560018",
        "addr:state": "Karnataka",
        "amenity": "clinic",
        "name": "Jubilee Nursing Home",
        "source": "OpenGovernmentData"
      }
    },
    {
      "type": "node",
      "id": 6938988878,
      "lat": 12.9566544,
      "lon": 77.5635275,
      "tags": {
        "addr:district": "Bengaluru Urban",
        "addr:full": "No.9, 6Th Cross, 5Th Main, Chamarapet",
        "addr:postcode": "560018",
        "addr:state": "Karnataka",
        "amenity": "clinic",
        "name": "Amar Nursing Home",
        "source": "OpenGovernmentData"
      }
    },
    {
      "type": "node",
      "id": 6939319393,
      "lat": 12.9548208,
      "lon": 77.5672585,
      "tags": {
        "addr:district": "Bengaluru Urban",
        "addr:full": "127/1, Bull Temple Road",
        "addr:postcode": "560019",
        "addr:state": "Karnataka",
        "amenity": "hospital",
        "name": "Kalasa Maternity Home",
        "source": "OpenGovernmentData"
      }
    },
    {
      "type": "node",
      "id": 6939649022,
      "lat": 12.9544587,
      "lon": 77.578733,
      "tags": {
        "addr:district": "Bengaluru Urban",
        "addr:full": "No. 4/1, Diagonal Road, Opposite To N.M.H. Hotel, V.V. Puram",
        "addr:postcode": "560004",
        "addr:state": "Karnataka",
        "amenity": "dentist",
        "name": "Shree Sai Dental Care",
        "source": "OpenGovernmentData"
      }
    },
    {
      "type": "node",
      "id": 6944128588,
      "lat": 12.9563016,
      "lon": 77.5747874,
      "tags": {
        "addr:district": "Bengaluru Urban",
        "addr:full": "K. R. Road, V. V. Puram",
        "addr:postcode": "560004",
        "addr:state": "Karnataka",
        "amenity": "hospital",
        "name": "Kims Hospital and Research Centre",
        "source": "OpenGovernmentData"
      }
    },
    {
      "type": "node",
      "id": 6944138101,
      "lat": 12.9484796,
      "lon": 77.5720472,
      "tags": {
        "addr:district": "Bengaluru Urban",
        "addr:full": "#356/1, 1st Cross, 1st Block, Jayanagar, Near Ashoka Pillar",
        "addr:postcode": "560011",
        "addr:state": "Karnataka",
        "amenity": "clinic",
        "name": "Lalbagh Nursing Home & IVF Centre",
        "source": "OpenGovernmentData",
        "website": "https://www.lalbaghivf.com/"
      }
    },
    {
      "type": "node",
      "id": 6944256037,
      "lat": 12.9514854,
      "lon": 77.5703564,
      "tags": {
        "addr:city": "Bangaluru",
        "addr:district": "Bengaluru Urban",
        "addr:full": "No. 16, 3Road Cross, Shankarpuram",
        "addr:housenumber": "16",
        "addr:postcode": "560004",
        "addr:state": "Karnataka",
        "addr:street": "3rd Cross Road",
        "amenity": "hospital",
        "emergency": "yes",
        "healthcare": "hospital",
        "healthcare:speciality": "general",
        "name": "Popular Hospital",
        "operator": "Dr Lingham Murali",
        "operator:type": "private",
        "source": "local knowledge"
      }
    },
    {
      "type": "node",
      "id": 6944256038,
      "lat": 12.9530681,
      "lon": 77.5715299,
      "tags": {
        "addr:district": "Bengaluru Urban",
        "addr:full": "1st Cross, Shankarapuram",
        "addr:postcode": "560004",
        "addr:state": "Karnataka",
        "amenity": "clinic",
        "name": "Sharada Dhanvantari Haemodialysis Centre",
        "source": "OpenGovernmentData"
      }
    },
    {
      "type": "node",
      "id": 6945001435,
      "lat": 12.9550181,
      "lon": 77.5683897,
      "tags": {
        "addr:district": "Bengaluru Urban",
        "addr:full": "No. 36, Vagdevi, Shankara Park, Opposite Jnanodaya School",
        "addr:postcode": "560004",
        "addr:state": "Karnataka",
        "amenity": "hospital",
        "healthcare": "hospital",
        "name": "Abhinava Eye Hospital",
        "source": "OpenGovernmentData"
      }
    },
    {
      "type": "node",
      "id": 6945341656,
      "lat": 12.9484427,
      "lon": 77.5719805,
      "tags": {
        "addr:district": "Bengaluru Urban",
        "addr:full": "Aaradhya Complex, No.21/1, Vanivilas Road, Next To National College",
        "addr:postcode": "560004",
        "addr:state": "Karnataka",
        "amenity": "clinic",
        "name": "Prakash Eye Clinic",
        "source": "OpenGovernmentData"
      }
    },
    {
      "type": "node",
      "id": 6948244430,
      "lat": 12.9456627,
      "lon": 77.570339,
      "tags": {
        "addr:district": "Bengaluru Urban",
        "addr:full": "N0:55, Gandhi Bazaar, Facing E.A.T Street",
        "addr:postcode": "560004",
        "addr:state": "Karnataka",
        "amenity": "clinic",
        "name": "Sham Singh Nursing Home",
        "source": "OpenGovernmentData"
      }
    },
    {
      "type": "node",
      "id": 6948483268,
      "lat": 12.9527146,
      "lon": 77.5774026,
      "tags": {
        "addr:district": "Bengaluru Urban",
        "addr:full": "No.26, Sajjan Rao Road, V.V.Puram",
        "addr:postcode": "560004",
        "addr:state": "Karnataka",
        "amenity": "clinic",
        "name": "Ramesh Eye Clinic and Ophthalmic Microsurgical Centre",
        "source": "OpenGovernmentData"
      }
    },
    {
      "type": "node",
      "id": 6950124308,
      "lat": 12.9543465,
      "lon": 77.5755649,
      "tags": {
        "addr:district": "Bengaluru Urban",
        "addr:full": "506, Aswathankatte Road V V Puram",
        "addr:postcode": "560004",
        "addr:state": "Karnataka",
        "amenity": "hospital",
        "name": "Venkateswara Hospital, Bengaluru Urban",
        "name:kn": "ವೆಂಕಟೇಶ್ವರ ಆಸ್ಪತ್ರೆ",
        "source": "OpenGovernmentData"
      }
    },
    {
      "type": "node",
      "id": 7576958023,
      "lat": 12.953833,
      "lon": 77.565184,
      "tags": {
        "addr:district": "Bengaluru Urban",
        "addr:full": "Kempegowda Nagar, Bengaluru",
        "addr:state": "Karnataka",
        "amenity": "doctors",
        "name": "Dr. Madhuri",
        "source": "Local Knowledge"
      }
    },
    {
      "type": "node",
      "id": 7576958024,
      "lat": 12.94786,
      "lon": 77.5716596,
      "tags": {
        "addr:district": "Bengaluru Urban",
        "addr:full": "DVG Road, Gandhi Bazaar, Basavanagudi, Bengaluru",
        "addr:postcode": "560004",
        "addr:state": "Karnataka",
        "amenity": "clinic",
        "name": "Preeti ENT Clinic",
        "source": "Local Knowledge"
      }
    },
    {
      "type": "node",
      "id": 7576958027,
      "lat": 12.9492921,
      "lon": 77.5674536,
      "tags": {
        "addr:district": "Bengaluru Urban",
        "addr:full": "Bull Temple Road, NR Colony, Bengaluru",
        "addr:postcode": "560019",
        "addr:state": "Karnataka",
        "amenity": "doctors",
        "name": "Dr. Hema Sampath",
        "source": "Local Knowledge"
      }
    },
    {
      "type": "node",
      "id": 7576958034,
      "lat": 12.9454948,
      "lon": 77.5704845,
      "tags": {
        "addr:district": "Bengaluru Urban",
        "addr:full": "BKS Iyengar Road, Gandhi Bazaar, Basavanagudi, Bengaluru",
        "addr:state": "Karnataka",
        "amenity": "clinic",
        "name": "Vaidya shaam singh memorial nursing home",
        "source": "Local Knowledge"
      }
    },
    {
      "type": "node",
      "id": 7576958037,
      "lat": 12.953049,
      "lon": 77.574203,
      "tags": {
        "addr:district": "Bengaluru Urban",
        "addr:full": "S.S. Temple Street, V V Puram, Bengaluru",
        "addr:postcode": "560004",
        "addr:state": "Karnataka",
        "amenity": "hospital",
        "name": "Medcare Hospital",
        "source": "Local Knowledge"
      }
    },
    {
      "type": "node",
      "id": 7576958038,
      "lat": 12.9531087,
      "lon": 77.5646023,
      "tags": {
        "addr:district": "Bengaluru Urban",
        "addr:full": "KG Nagar Main Road, Kempegowda Nagar, Bengaluru",
        "addr:state": "Karnataka",
        "amenity": "clinic",
        "name": "Ashraya Clinic",
        "source": "Local Knowledge"
      }
    },
    {
      "type": "node",
      "id": 7576958041,
      "lat": 12.9580215,
      "lon": 77.5629353,
      "tags": {
        "addr:district": "Bengaluru Urban",
        "addr:full": "Chamrajpet, Bengaluru",
        "addr:state": "Karnataka",
        "amenity": "clinic",
        "name": "Advanced Gastro Care",
        "source": "Local Knowledge"
      }
    },
    {
      "type": "node",
      "id": 7576958042,
      "lat": 12.9526033,
      "lon": 77.5709447,
      "tags": {
        "addr:district": "Bengaluru Urban",
        "addr:full": "Shankarapura, Bengaluru",
        "addr:postcode": "560004",
        "addr:state": "Karnataka",
        "amenity": "clinic",
        "name": "Rao's Uro Care",
        "source": "Local Knowledge"
      }
    },
    {
      "type": "node",
      "id": 7576958045,
      "lat": 12.945591,
      "lon": 77.5712865,
      "tags": {
        "addr:district": "Bengaluru Urban",
        "addr:full": "DVG Road, Gandhi Bazaar, Basavanagudi, Bengaluru",
        "addr:postcode": "560004",
        "addr:state": "Karnataka",
        "amenity": "hospital",
        "name": "Mitralaya Hospital",
        "source": "Local Knowledge"
      }
    },
    {
      "type": "node",
      "id": 7576958050,
      "lat": 12.9459422,
      "lon": 77.5717473,
      "tags": {
        "addr:district": "Bengaluru Urban",
        "addr:full": "Gandhi Bazaar, Basavanagudi, Bengaluru",
        "addr:postcode": "560004",
        "addr:state": "Karnataka",
        "amenity": "clinic",
        "name": "Medall Healthcare",
        "source": "Local Knowledge"
      }
    },
    {
      "type": "node",
      "id": 7576958062,
      "lat": 12.960311,
      "lon": 77.568274,
      "tags": {
        "addr:district": "Bengaluru Urban",
        "addr:full": "Kamalanagar, Chamrajpet, Bengaluru",
        "addr:postcode": "560018",
        "addr:state": "Karnataka",
        "amenity": "hospital",
        "name": "Royan Maternity & Child Welfare Centre",
        "source": "Local Knowledge"
      }
    },
    {
      "type": "node",
      "id": 7576958065,
      "lat": 12.945944,
      "lon": 77.567404,
      "tags": {
        "addr:district": "Bengaluru Urban",
        "addr:full": "Bull Temple Road, Hanumanthnagar, Bengaluru",
        "addr:postcode": "560019",
        "addr:state": "Karnataka",
        "amenity": "hospital",
        "name": "Shekhar Hospital",
        "source": "Local Knowledge"
      }
    },
    {
      "type": "node",
      "id": 7576958066,
      "lat": 12.949104,
      "lon": 77.563226,
      "tags": {
        "addr:district": "Bengaluru Urban",
        "addr:full": "RK Mutt Layout, Kempegowda Nagar, Bengaluru",
        "addr:state": "Karnataka",
        "amenity": "hospital",
        "name": "Government Hospital",
        "name:kn": "ಸರ್ಕಾರಿ ಆಸ್ಪತ್ರೆ",
        "source": "Local Knowledge"
      }
    },
    {
      "type": "node",
      "id": 7576958069,
      "lat": 12.9450794,
      "lon": 77.5680498,
      "tags": {
        "addr:district": "Bengaluru Urban",
        "addr:full": "Gandhi Bazaar, Basavanagudi, Bengaluru",
        "addr:state": "Karnataka",
        "amenity": "clinic",
        "healthcare": "clinic",
        "name": "ENT Care Centre",
        "source": "Local Knowledge"
      }
    },
    {
      "type": "node",
      "id": 7576958070,
      "lat": 12.9569684,
      "lon": 77.5695045,
      "tags": {
        "addr:district": "Bengaluru Urban",
        "addr:full": "Shankar Mutt Road, Chikkanna Garden, Shankarapura, Bengaluru",
        "addr:postcode": "560004",
        "addr:state": "Karnataka",
        "amenity": "hospital",
        "name": "Mahaveer Ortho Care Speciality Centre",
        "source": "Local Knowledge"
      }
    },
    {
      "type": "node",
      "id": 7576958072,
      "lat": 12.944704,
      "lon": 77.56797,
      "tags": {
        "addr:district": "Bengaluru Urban",
        "addr:full": "Gandhi Bazaar, Basavanagudi, Bengaluru",
        "addr:postcode": "560004",
        "addr:state": "Karnataka",
        "amenity": "clinic",
        "healthcare": "clinic",
        "name": "Kshema Childrens Surgical Clinic",
        "source": "Local Knowledge"
      }
    },
    {
      "type": "node",
      "id": 7576958077,
      "lat": 12.9464444,
      "lon": 77.5712393,
      "tags": {
        "addr:district": "Bengaluru Urban",
        "addr:full": "Govindappa Road, Gandhi Bazaar, Basavanagudi, Bengaluru",
        "addr:postcode": "560004",
        "addr:state": "Karnataka",
        "amenity": "clinic",
        "healthcare": "clinic",
        "name": "Sree Homeopathic Clinic",
        "name:kn": "ಶ್ರೀ ಹೊಮಿಯೋಪತಿ ಕ್ಲಿನಿಕ್",
        "source": "Local Knowledge"
      }
    },
    {
      "type": "node",
      "id": 7576958080,
      "lat": 12.948971,
      "lon": 77.563543,
      "tags": {
        "addr:district": "Bengaluru Urban",
        "addr:full": "RK Mutt Layout, Gavipura, Kempegowda Nagar, Bengaluru",
        "addr:state": "Karnataka",
        "amenity": "hospital",
        "name": "Parameshwari Hospital",
        "source": "Local Knowledge"
      }
    },
    {
      "type": "node",
      "id": 7576958082,
      "lat": 12.9491186,
      "lon": 77.5679051,
      "tags": {
        "addr:district": "Bengaluru Urban",
        "addr:full": "Shankarapura, Bengaluru",
        "addr:postcode": "560004",
        "addr:state": "Karnataka",
        "amenity": "doctors",
        "name": "Dr. S. Vinitha",
        "source": "Local Knowledge"
      }
    },
    {
      "type": "node",
      "id": 7576958091,
      "lat": 12.957222,
      "lon": 77.566486,
      "tags": {
        "addr:district": "Bengaluru Urban",
        "addr:full": "Chamrajpet, Bengaluru",
        "addr:postcode": "560018",
        "addr:state": "Karnataka",
        "amenity": "hospital",
        "name": "Spandana Heart Centre",
        "source": "Local Knowledge"
      }
    },
    {
      "type": "node",
      "id": 7576958101,
      "lat": 12.9471425,
      "lon": 77.5692626,
      "tags": {
        "addr:district": "Bengaluru Urban",
        "addr:full": "Gandhi Bazaar Main Road, Basavanagudi, Bengaluru",
        "addr:postcode": "560004",
        "addr:state": "Karnataka",
        "amenity": "clinic",
        "name": "Skin, Allergy, Cosmetology & Hair Clinic",
        "source": "Local Knowledge"
      }
    },
    {
      "type": "node",
      "id": 7576958102,
      "lat": 12.9576956,
      "lon": 77.5663234,
      "tags": {
        "addr:district": "Bengaluru Urban",
        "addr:full": "Chamrajpet, Bengaluru",
        "addr:postcode": "560018",
        "addr:state": "Karnataka",
        "amenity": "clinic",
        "name": "Suhruda Clinic",
        "source": "Local Knowledge"
      }
    },
    {
      "type": "node",
      "id": 7576958104,
      "lat": 12.9516862,
      "lon": 77.5665921,
      "tags": {
        "addr:district": "Bengaluru Urban",
        "addr:full": "Kempegowda Nagar, Bengaluru",
        "addr:state": "Karnataka",
        "amenity": "clinic",
        "name": "Saraswathi Maternity Centre",
        "source": "Local Knowledge"
      }
    },
    {
      "type": "node",
      "id": 7576958107,
      "lat": 12.9585302,
      "lon": 77.5636336,
      "tags": {
        "addr:district": "Bengaluru Urban",
        "addr:full": "Chamrajpet, Bengaluru",
        "addr:postcode": "560018",
        "addr:state": "Karnataka",
        "amenity": "clinic",
        "name": "Chamarajpete Skin care clinic",
        "source": "Local Knowledge"
      }
    },
    {
      "type": "node",
      "id": 7576958112,
      "lat": 12.9444744,
      "lon": 77.5721845,
      "tags": {
        "addr:district": "Bengaluru Urban",
        "addr:full": "Near Corporation Bank, Basavanagudi, Bengaluru",
        "addr:postcode": "560004",
        "addr:state": "Karnataka",
        "amenity": "dentist",
        "name": "Partha Dental Clinic",
        "source": "Local Knowledge"
      }
    },
    {
      "type": "node",
      "id": 7576958113,
      "lat": 12.9554046,
      "lon": 77.5639228,
      "tags": {
        "addr:district": "Bengaluru Urban",
        "addr:full": "Chamrajpet, Bengaluru",
        "addr:state": "Karnataka",
        "amenity": "clinic",
        "name": "Tejas Clinic",
        "source": "Local Knowledge"
      }
    },
    {
      "type": "node",
      "id": 7576958115,
      "lat": 12.948062,
      "lon": 77.577411,
      "tags": {
        "addr:district": "Bengaluru Urban",
        "addr:full": "Vanivilas Road, Kanakapura, Visvesvarapuram, Basavanagudi, Bengaluru",
        "addr:postcode": "560004",
        "addr:state": "Karnataka",
        "amenity": "clinic",
        "healthcare": "clinic",
        "name": "Sri Sri Ayurveda Clinic",
        "source": "Local Knowledge"
      }
    },
    {
      "type": "node",
      "id": 7576958117,
      "lat": 12.9479647,
      "lon": 77.5696395,
      "tags": {
        "addr:district": "Bengaluru Urban",
        "addr:full": "Vanivilas Road, Gandhi Bazaar, Basavanagudi, Bengaluru",
        "addr:postcode": "560004",
        "addr:state": "Karnataka",
        "amenity": "hospital",
        "name": "Swastik Eye Hospital",
        "source": "Local Knowledge"
      }
    },
    {
      "type": "node",
      "id": 7924794099,
      "lat": 12.9512403,
      "lon": 77.5687733,
      "tags": {
        "amenity": "bank",
        "atm": "yes",
        "brand": "State Bank of India",
        "brand:wikidata": "Q1340361",
        "name": "State Bank of India",
        "name:kn": "ಎಸ್ ಬಿ ಐ",
        "short_name": "SBI"
      }
    },
    {
      "type": "node",
      "id": 8457582817,
      "lat": 12.959775,
      "lon": 77.5674788,
      "tags": {
        "amenity": "clinic",
        "name": "Cuti Care"
      }
    },
    {
      "type": "node",
      "id": 9134314452,
      "lat": 12.9562454,
      "lon": 77.5695102,
      "tags": {
        "name": "Shri Hariprasad Automobiles",
        "shop": "car_repair"
      }
    },
    {
      "type": "node",
      "id": 9709504788,
      "lat": 12.9447987,
      "lon": 77.5701606,
      "tags": {
        "shop": "coffee"
      }
    },
    {
      "type": "node",
      "id": 9723871257,
      "lat": 12.9458071,
      "lon": 77.5711182,
      "tags": {
        "branch": "National college",
        "brand": "Kanli Sweets",
        "shop": "bakery"
      }
    },
    {
      "type": "node",
      "id": 10202015117,
      "lat": 12.9516832,
      "lon": 77.5767383,
      "tags": {
        "amenity": "toilets"
      }
    },
    {
      "type": "node",
      "id": 11178064777,
      "lat": 12.9485138,
      "lon": 77.5723246,
      "tags": {
        "amenity": "post_box",
        "operator": "India Post",
        "operator:wikidata": "Q3519720"
      }
    },
    {
      "type": "node",
      "id": 11178064784,
      "lat": 12.9517112,
      "lon": 77.569955,
      "tags": {
        "amenity": "post_box",
        "operator": "India Post",
        "operator:wikidata": "Q3519720"
      }
    },
    {
      "type": "node",
      "id": 11178076767,
      "lat": 12.9512861,
      "lon": 77.5653468,
      "tags": {
        "amenity": "prep_school",
        "check_date": "2023-09-09",
        "description": "Runs Abacus Classes",
        "name": "Vandhya Academy",
        "office": "educational_institution",
        "phone": "+91 63605 17839"
      }
    },
    {
      "type": "node",
      "id": 11178079804,
      "lat": 12.9540237,
      "lon": 77.5674382,
      "tags": {
        "check_date": "2023-09-09",
        "name": "Corporation Store",
        "payment:cards": "no",
        "payment:cash": "yes",
        "payment:credit_cards": "no",
        "payment:debit_cards": "no",
        "payment:upi": "yes",
        "shop": "convenience"
      }
    },
    {
      "type": "node",
      "id": 11178079806,
      "lat": 12.9570985,
      "lon": 77.5671766,
      "tags": {
        "addr:housenumber": "238",
        "addr:street": "5th Main Road",
        "amenity": "fixme",
        "check_date": "2023-09-09",
        "email": "kubera1impex@gmail.com",
        "fixme": "type",
        "fixme:type": "office",
        "name": "Kuber A1 Packaging Machinery Impex",
        "phone": "+91 98450 31967"
      }
    },
    {
      "type": "node",
      "id": 11178079807,
      "lat": 12.9570197,
      "lon": 77.5660532,
      "tags": {
        "addr:housenumber": "48",
        "addr:street": "Chamrajpet 5th Main Road",
        "amenity": "fixme",
        "check_date": "2023-09-09",
        "fixme": "type",
        "fixme:type": "godown",
        "name": "Sri Maruthi Enterprises Godown",
        "phone": "+91 98800 80219"
      }
    },
    {
      "type": "node",
      "id": 11178079808,
      "lat": 12.9570292,
      "lon": 77.566049,
      "tags": {
        "addr:housenumber": "48",
        "addr:street": "Chamrajpet 5th Main Road",
        "check_date": "2023-09-09",
        "leisure": "fitness_centre",
        "name": "Flame Fitness 24-7"
      }
    },
    {
      "type": "node",
      "id": 11178079809,
      "lat": 12.9570351,
      "lon": 77.566046,
      "tags": {
        "addr:housenumber": "48",
        "addr:street": "Chamrajpet 5th Main Road",
        "check_date": "2023-09-09",
        "name": "Nano Technology",
        "phone": "+91 86606 80577",
        "shop": "electronics"
      }
    },
    {
      "type": "node",
      "id": 11178079810,
      "lat": 12.957032,
      "lon": 77.5656384,
      "tags": {
        "addr:housenumber": "169",
        "addr:street": "Chamrajpet 5th Main Road",
        "check_date": "2023-09-09",
        "name": "Vijayalakshmi Tours & Travels",
        "phone": "+91 93421 42102",
        "shop": "travel_agency"
      }
    },
    {
      "type": "node",
      "id": 11178079811,
      "lat": 12.957032,
      "lon": 77.5656363,
      "tags": {
        "addr:housenumber": "51",
        "addr:street": "5th Main Road",
        "amenity": "community_centre",
        "check_date": "2023-09-09",
        "name": "Sri Srinivasa Kalyana Mantapa",
        "phone": "+91 80 2650 6002"
      }
    },
    {
      "type": "node",
      "id": 11178079812,
      "lat": 12.957032,
      "lon": 77.5656384,
      "tags": {
        "addr:housenumber": "51",
        "addr:street": "5th Main Road",
        "check_date": "2023-09-09",
        "name": "A1 Sunshine Blinds",
        "phone": "+91 99001 79813",
        "shop": "window_blind"
      }
    },
    {
      "type": "node",
      "id": 11178079813,
      "lat": 12.957032,
      "lon": 77.5656384,
      "tags": {
        "addr:housenumber": "177",
        "addr:street": "Chamrajpet 5th Main Road",
        "check_date": "2023-09-09",
        "description": "Dealer in Stationery, Xerox",
        "name": "Sri Kumara Stores",
        "phone": "+91 90607 06020",
        "shop": "stationery"
      }
    },
    {
      "type": "node",
      "id": 11178079815,
      "lat": 12.957032,
      "lon": 77.5656384,
      "tags": {
        "amenity": "place_of_worship",
        "check_date": "2023-09-09",
        "name": "Sriman Madhava Sangha",
        "religion": "hindu"
      }
    },
    {
      "type": "node",
      "id": 11178079816,
      "lat": 12.9570024,
      "lon": 77.5648634,
      "tags": {
        "addr:housenumber": "59",
        "addr:street": "Chamrajpet 5th Main Road",
        "amenity": "bank",
        "brand": "Axis Bank",
        "brand:wikidata": "Q2003549",
        "check_date": "2023-09-09",
        "name": "Axis Bank"
      }
    },
    {
      "type": "node",
      "id": 11178079817,
      "lat": 12.9569921,
      "lon": 77.5644924,
      "tags": {
        "amenity": "school",
        "check_date": "2023-09-09",
        "name": "Athena Public School"
      }
    },
    {
      "type": "node",
      "id": 11178079818,
      "lat": 12.9569798,
      "lon": 77.564357,
      "tags": {
        "amenity": "bank",
        "atm": "yes",
        "brand": "Kotak Mahindra Bank",
        "brand:wikidata": "Q2040404",
        "check_date": "2023-09-09",
        "name": "Kotak Mahindra Bank"
      }
    },
    {
      "type": "node",
      "id": 11178091264,
      "lat": 12.9586805,
      "lon": 77.5667244,
      "tags": {
        "check_date": "2023-09-09",
        "name": "Eswari Medical Specialities",
        "name:en": "Eswari Medical Specialities",
        "shop": "medical_supply"
      }
    },
    {
      "type": "node",
      "id": 11178091267,
      "lat": 12.9586336,
      "lon": 77.5665263,
      "tags": {
        "amenity": "place_of_worship",
        "check_date": "2023-09-09",
        "name": "Sri Vasavi Temple",
        "name:en": "Sri Vasavi Temple",
        "religion": "hindu"
      }
    },
    {
      "type": "node",
      "id": 11178091268,
      "lat": 12.9586402,
      "lon": 77.566479,
      "tags": {
        "check_date": "2023-09-09",
        "name": "Padmasri Digital Prints",
        "name:en": "Padmasri Digital Prints",
        "shop": "copyshop"
      }
    },
    {
      "type": "node",
      "id": 11178091273,
      "lat": 12.9577566,
      "lon": 77.5696795,
      "tags": {
        "check_date": "2023-09-09",
        "name": "Mithaiwala",
        "shop": "confectionery"
      }
    },
    {
      "type": "node",
      "id": 11178097118,
      "lat": 12.9513033,
      "lon": 77.5651998,
      "tags": {
        "check_date": "2023-09-09",
        "name": "Arun Ladies Wear House",
        "shop": "clothes"
      }
    },
    {
      "type": "node",
      "id": 11178097988,
      "lat": 12.9540074,
      "lon": 77.5673748,
      "tags": {
        "check_date": "2023-09-09",
        "name": "Arun Enterprises",
        "name:en": "Arun Enterprises",
        "shop": "convenience"
      }
    },
    {
      "type": "node",
      "id": 11178098070,
      "lat": 12.9573178,
      "lon": 77.5697265,
      "tags": {
        "amenity": "atm",
        "brand": "Bank of Baroda",
        "brand:wikidata": "Q2003797",
        "check_date": "2023-09-09",
        "operator": "Bank of Baroda",
        "operator:wikidata": "Q2003797"
      }
    },
    {
      "type": "node",
      "id": 11178098071,
      "lat": 12.9573514,
      "lon": 77.5697176,
      "tags": {
        "amenity": "dentist",
        "check_date": "2023-09-09",
        "healthcare": "dentist",
        "name": "DRN Dental Care"
      }
    },
    {
      "type": "node",
      "id": 11178098072,
      "lat": 12.9573821,
      "lon": 77.569714,
      "tags": {
        "check_date": "2023-09-09",
        "name": "Manjunatha Enterprises",
        "shop": "pet"
      }
    },
    {
      "type": "node",
      "id": 11178098073,
      "lat": 12.9574238,
      "lon": 77.569714,
      "tags": {
        "amenity": "bank",
        "check_date": "2023-09-09",
        "name": "Tumkur Veerashaiva Co-opperative Bank"
      }
    },
    {
      "type": "node",
      "id": 11178098074,
      "lat": 12.9576632,
      "lon": 77.5696706,
      "tags": {
        "check_date": "2023-09-09",
        "name": "J. S. Plqntain Leaf Merchants",
        "shop": "wholesale"
      }
    },
    {
      "type": "node",
      "id": 11178098075,
      "lat": 12.9578199,
      "lon": 77.5696771,
      "tags": {
        "check_date": "2023-09-09",
        "name": "Pavan Kumar",
        "shop": "travel_agency"
      }
    },
    {
      "type": "node",
      "id": 11178098076,
      "lat": 12.9578605,
      "lon": 77.5696757,
      "tags": {
        "amenity": "post_office",
        "check_date": "2023-09-09",
        "name": "SR&KT"
      }
    },
    {
      "type": "node",
      "id": 11178098077,
      "lat": 12.9578857,
      "lon": 77.5694792,
      "tags": {
        "check_date": "2023-09-09",
        "name": "GG Apparels",
        "shop": "clothes"
      }
    },
    {
      "type": "node",
      "id": 11178098078,
      "lat": 12.9578846,
      "lon": 77.5694661,
      "tags": {
        "amenity": "restaurant",
        "check_date": "2023-09-09",
        "name": "Sri Ranganatha Military Hotel"
      }
    },
    {
      "type": "node",
      "id": 11178098249,
      "lat": 12.9569748,
      "lon": 77.5689944,
      "tags": {
        "amenity": "bank",
        "atm": "yes",
        "branch": "Shanakarapuram",
        "brand": "State Bank of India",
        "brand:wikidata": "Q1340361",
        "check_date": "2023-09-09",
        "drive_through": "no",
        "full_name": "SBI Shanakarapuram Branch",
        "name": "State Bank of India",
        "operator": "State Bank of India",
        "short_name": "SBI"
      }
    },
    {
      "type": "node",
      "id": 11178098253,
      "lat": 12.9523331,
      "lon": 77.5678264,
      "tags": {
        "amenity": "kindergarten",
        "check_date": "2023-09-09",
        "description": "A raw yel pre-school for life",
        "internet_access": "no",
        "name": "Child's Kingdom",
        "name:en": "Child's Kingdom",
        "wheelchair": "yes"
      }
    },
    {
      "type": "node",
      "id": 11178099498,
      "lat": 12.9586066,
      "lon": 77.564198,
      "tags": {
        "check_date": "2023-09-09",
        "name": "MB Stores",
        "name:en": "MB Stores",
        "phone": "+91 88617 77729",
        "shop": "convenience"
      }
    },
    {
      "type": "node",
      "id": 11178103762,
      "lat": 12.9511489,
      "lon": 77.5652571,
      "tags": {
        "amenity": "fast_food",
        "check_date": "2023-09-09",
        "cuisine": "indian",
        "name": "Tiffin Services"
      }
    },
    {
      "type": "node",
      "id": 11178103830,
      "lat": 12.9586069,
      "lon": 77.5654343,
      "tags": {
        "amenity": "atm",
        "brand": "State Bank of India",
        "brand:wikidata": "Q1340361",
        "check_date": "2023-09-09",
        "operator": "State Bank of India",
        "operator:wikidata": "Q1340361",
        "short_name": "SBI"
      }
    },
    {
      "type": "node",
      "id": 11178105552,
      "lat": 12.9512128,
      "lon": 77.565545,
      "tags": {
        "check_date": "2023-09-09",
        "description": "Hair salon",
        "name": "Mayura Men's Saloon",
        "shop": "beauty",
        "wheelchair": "no"
      }
    },
    {
      "type": "node",
      "id": 11178107442,
      "lat": 12.9506784,
      "lon": 77.5673607,
      "tags": {
        "amenity": "bench",
        "backrest": "yes",
        "colour": "green",
        "seats": "4"
      }
    },
    {
      "type": "node",
      "id": 11178107443,
      "lat": 12.9513399,
      "lon": 77.564975,
      "tags": {
        "check_date": "2023-09-09",
        "name": "Nyaya Bele Angadi BLS-55",
        "opening_hours": "Mo,We-Su 07:00-12:00,17:00-21:00",
        "operator": "government",
        "operator:type": "public",
        "shop": "convenience"
      }
    },