{
  "area_name": "Vignananagara",
  "osm_id": 19883251,
  "osm_type": "relation",
  "place_type": "administrative",
  "amenity_count": 117,
  "amenities": [
    {
      "type": "node",
      "id": 986744078,
      "lat": 12.972735,
      "lon": 77.678774,
      "tags": {
        "addr:street": "GM Palya Main Road",
        "name": "Heritage Fresh",
        "shop": "convenience"
      }
    },
    {
      "type": "node",
      "id": 986744080,
      "lat": 12.977267,
      "lon": 77.679729,
      "tags": {
        "amenity": "school",
        "name": "LR International School"
      }
    },
    {
      "type": "node",
      "id": 1465574767,
      "lat": 12.9717678,
      "lon": 77.6811933,
      "tags": {
        "addr:street": "Ramesh nagar road",
        "brand": "Bata",
        "brand:wikidata": "Q688082",
        "name": "Bata",
        "shop": "shoes"
      }
    },
    {
      "type": "node",
      "id": 1870996161,
      "lat": 12.9721506,
      "lon": 77.6799287,
      "tags": {
        "name": "Fair Choice Supermarket",
        "shop": "supermarket"
      }
    },
    {
      "type": "node",
      "id": 3174395519,
      "lat": 12.97193,
      "lon": 77.68042,
      "tags": {
        "name": "Vinayaka Bharat Gas",
        "operator": "Bharat Gas",
        "shop": "kitchen"
      }
    },
    {
      "type": "node",
      "id": 4341511333,
      "lat": 12.9669615,
      "lon": 77.6824375,
      "tags": {
        "amenity": "bank",
        "atm": "yes",
        "brand": "State Bank of India",
        "brand:wikidata": "Q1340361",
        "brand:wikipedia": "en:State Bank of India",
        "name": "State Bank of India",
        "name:kn": "ಭಾರತೀಯ ಸ್ಟೇಟ್ ಬ್ಯಾಂಕ್",
        "opening_hours": "\"the bank also closes on every even numbered saturday\"",
        "short_name": "SBI"
      }
    },
    {
      "type": "node",
      "id": 4417324544,
      "lat": 12.9718453,
      "lon": 77.6815943,
      "tags": {
        "name": "Tasty Bites",
        "shop": "bakery"
      }
    },
    {
      "type": "node",
      "id": 4446309284,
      "lat": 12.9720229,
      "lon": 77.6803767,
      "tags": {
        "addr:city": "Bengaluru",
        "addr:housenumber": "1",
        "addr:postcode": "560037",
        "addr:street": "Survey Number 158,MarathHalli Post, Vignana Nagar Main Road, Ramaiahreddy Colony, Malleshpalya, Basavanagar, Karnataka",
        "amenity": "pharmacy",
        "healthcare": "pharmacy",
        "name": "Medicure Pharma",
        "phone": "+9196638 70322"
      }
    },
    {
      "type": "node",
      "id": 4488364371,
      "lat": 12.9670978,
      "lon": 77.6809662,
      "tags": {
        "addr:city": "Bangalore",
        "addr:housenumber": "298/2",
        "addr:postcode": "560037",
        "addr:street": "Thalakavery layout ,1st main road , Basava Nagar",
        "name": "Varity Bazar",
        "phone": "(91)-9066264251",
        "shop": "supermarket"
      }
    },
    {
      "type": "node",
      "id": 4490329538,
      "lat": 12.9720474,
      "lon": 77.6798609,
      "tags": {
        "addr:city": "Bengaluru",
        "addr:postcode": "560037",
        "addr:street": "Kempanna Rd, Vignan Nagar, BTM Dollars Scheme, Basavanagar, Bengaluru,",
        "leisure": "sports_centre",
        "name": "Orange Fitness",
        "opening_hours": "6:00-20:00",
        "phone": "9611779439",
        "sport": "gymnasium",
        "website": "https://orangetheoryfitness.com/"
      }
    },
    {
      "type": "node",
      "id": 4490378112,
      "lat": 12.9754949,
      "lon": 77.6791114,
      "tags": {
        "addr:city": "Bangalore",
        "addr:housenumber": "364",
        "addr:postcode": "560075",
        "addr:street": "Aswath Lakshmi Mansion, 16 Main, 35th Cross, Above Canara Bank, 4th Block East,, 4th T Block East, Pattabhirama Nagar, Jayanagara Jaya Nagar",
        "leisure": "sports_centre",
        "name": "Euro Fitness Center",
        "opening_hours": "5:30-22:30",
        "phone": "8041210990",
        "sport": "gymnasium",
        "website": "talwalkars.net",
        "wheelchair": "limited"
      }
    },
    {
      "type": "node",
      "id": 5392606723,
      "lat": 12.9645896,
      "lon": 77.681978,
      "tags": {
        "addr:housenumber": "170",
        "addr:street": "Namjoshi Rd",
        "amenity": "kindergarten",
        "name": "Sanskrithi Foundation"
      }
    },
    {
      "type": "node",
      "id": 6497594127,
      "lat": 12.9718326,
      "lon": 77.6798268,
      "tags": {
        "amenity": "restaurant",
        "cuisine": "regional;arabic;grill",
        "name": "Chai Darbar",
        "name:en": "Chai Darbar",
        "opening_hours": "Mo-Su 07:00-23:00"
      }
    },
    {
      "type": "node",
      "id": 6771722363,
      "lat": 12.9736557,
      "lon": 77.682091,
      "tags": {
        "name": "Shabari Bakery",
        "shop": "bakery"
      }
    },
    {
      "type": "node",
      "id": 6771722365,
      "lat": 12.9747548,
      "lon": 77.6788946,
      "tags": {
        "name": "KC Das",
        "shop": "confectionery"
      }
    },
    {
      "type": "node",
      "id": 6771722366,
      "lat": 12.9747264,
      "lon": 77.6788898,
      "tags": {
        "name": "Meenakshi Creations",
        "shop": "clothes"
      }
    },
    {
      "type": "node",
      "id": 6771722368,
      "lat": 12.9745565,
      "lon": 77.67873,
      "tags": {
        "amenity": "pharmacy",
        "brand": "Apollo Pharmacy",
        "brand:wikidata": "Q62562612",
        "dispensing": "yes",
        "healthcare": "pharmacy",
        "name": "Apollo Pharmacy"
      }
    },
    {
      "type": "node",
      "id": 6771722369,
      "lat": 12.9733672,
      "lon": 77.6783788,
      "tags": {
        "amenity": "restaurant",
        "name": "Biriyani Zone"
      }
    },
    {
      "type": "node",
      "id": 6771722371,
      "lat": 12.9747312,
      "lon": 77.6788559,
      "tags": {
        "name": "GVS Fashions",
        "shop": "clothes"
      }
    },
    {
      "type": "node",
      "id": 6771722372,
      "lat": 12.9750214,
      "lon": 77.6790278,
      "tags": {
        "name": "Kishore Stationery",
        "shop": "stationery"
      }
    },
    {
      "type": "node",
      "id": 6771722373,
      "lat": 12.9748468,
      "lon": 77.6789407,
      "tags": {
        "shop": "stationery"
      }
    },
    {
      "type": "node",
      "id": 6771722375,
      "lat": 12.9753006,
      "lon": 77.6790823,
      "tags": {
        "amenity": "internet_cafe",
        "name": "Mousehunt Cyber Cafe"
      }
    },
    {
      "type": "node",
      "id": 6771722376,
      "lat": 12.9762509,
      "lon": 77.679399,
      "tags": {
        "amenity": "place_of_worship",
        "religion": "hindu"
      }
    },
    {
      "type": "node",
      "id": 7051951386,
      "lat": 12.9722597,
      "lon": 77.6795798,
      "tags": {
        "amenity": "atm",
        "brand": "Federal Bank",
        "brand:wikidata": "Q2044983",
        "cash_in": "yes",
        "name": "Federal Bank",
        "opening_hours": "24/7",
        "operator": "Federal Bank",
        "operator:wikidata": "Q2044983"
      }
    },
    {
      "type": "node",
      "id": 7120241070,
      "lat": 12.9722044,
      "lon": 77.6797193,
      "tags": {
        "amenity": "restaurant",
        "cuisine": "arabic;grill;regional",
        "indoor_seating": "yes",
        "name": "Kabab Souq",
        "opening_hours": "11:00-23:00",
        "outdoor_seating": "no"
      }
    },
    {
      "type": "node",
      "id": 7140639867,
      "lat": 12.9721688,
      "lon": 77.6806504,
      "tags": {
        "addr:floor": "3",
        "leisure": "fitness_centre",
        "name": "Onyx Gym",
        "sport": "boxing;kickboxing;bodybuilding"
      }
    },
    {
      "type": "node",
      "id": 7140640697,
      "lat": 12.9721818,
      "lon": 77.680519,
      "tags": {
        "name": "Well Done Salon",
        "shop": "hairdresser"
      }
    },
    {
      "type": "node",
      "id": 7140653795,
      "lat": 12.9721106,
      "lon": 77.6807544,
      "tags": {
        "amenity": "restaurant",
        "name": "Cow Bar - Milk Shakes",
        "opening_hours": "10:00-23:00"
      }
    },
    {
      "type": "node",
      "id": 7140653796,
      "lat": 12.9721622,
      "lon": 77.6807678,
      "tags": {
        "amenity": "restaurant",
        "cuisine": "arab;grill",
        "name": "Darbar Express",
        "opening_hours": "15:00-23:30"
      }
    },
    {
      "type": "node",
      "id": 7140653801,
      "lat": 12.9721779,
      "lon": 77.6807872,
      "tags": {
        "amenity": "hospital",
        "healthcare": "hospital",
        "name": "Venus MultiSpeciality Hospital"
      }
    },
    {
      "type": "node",
      "id": 7140659384,
      "lat": 12.9726157,
      "lon": 77.6792208,
      "tags": {
        "brand": "Zudio",
        "brand:wikidata": "Q123375926",
        "name": "Zudio",
        "shop": "clothes"
      }
    },
    {
      "type": "node",
      "id": 7140666410,
      "lat": 12.9721564,
      "lon": 77.6798786,
      "tags": {
        "amenity": "restaurant",
        "cuisine": "indian;arabic;grill;chinese",
        "name": "Moriz"
      }
    },
    {
      "type": "node",
      "id": 7140667285,
      "lat": 12.9726301,
      "lon": 77.6791685,
      "tags": {
        "leisure": "fitness_centre",
        "name": "Super Gym"
      }
    },
    {
      "type": "node",
      "id": 7140667290,
      "lat": 12.9724524,
      "lon": 77.6796741,
      "tags": {
        "name": "Airtel Store",
        "shop": "telecommunication"
      }
    },
    {
      "type": "node",
      "id": 7140667291,
      "lat": 12.9725503,
      "lon": 77.679253,
      "tags": {
        "amenity": "fast_food",
        "cuisine": "kebab",
        "name": "Grill Hut"
      }
    },
    {
      "type": "node",
      "id": 7140680686,
      "lat": 12.9719525,
      "lon": 77.6797237,
      "tags": {
        "amenity": "restaurant",
        "name": "Treat Kitchen"
      }
    },
    {
      "type": "node",
      "id": 7147351711,
      "lat": 12.9706074,
      "lon": 77.6818092,
      "tags": {
        "name": "Kanti's Bakery",
        "shop": "bakery"
      }
    },
    {
      "type": "node",
      "id": 7147351712,
      "lat": 12.9705826,
      "lon": 77.6818132,
      "tags": {
        "amenity": "restaurant",
        "cuisine": "indian",
        "name": "Mani's Dum Biryani"
      }
    },
    {
      "type": "node",
      "id": 7147351713,
      "lat": 12.9717261,
      "lon": 77.6813586,
      "tags": {
        "amenity": "atm",
        "brand": "South Indian Bank",
        "brand:wikidata": "Q2044973",
        "cash_in": "no",
        "name": "South Indian Bank",
        "name:kn": "ಸೌತ್ ಇಂಡಿಯನ್ ಬ್ಯಾಂಕ್",
        "operator": "South Indian Bank",
        "operator:wikidata": "Q2044973"
      }
    },
    {
      "type": "node",
      "id": 7147351714,
      "lat": 12.9722188,
      "lon": 77.680745,
      "tags": {
        "amenity": "atm",
        "brand": "HDFC Bank",
        "brand:wikidata": "Q631047",
        "currency:INR": "yes",
        "drive_through": "no",
        "name": "HDFC Bank",
        "operator": "HDFC Bank",
        "operator:wikidata": "Q631047",
        "short_name": "HDFC"
      }
    },
    {
      "type": "node",
      "id": 7147997049,
      "lat": 12.9718146,
      "lon": 77.6797048,
      "tags": {
        "name": "Perl Designer Boutique",
        "shop": "clothes"
      }
    },
    {
      "type": "node",
      "id": 7164719474,
      "lat": 12.971915,
      "lon": 77.6798372,
      "tags": {
        "name": "Sri Krishna Enterprises",
        "shop": "gift"
      }
    },
    {
      "type": "node",
      "id": 7164719475,
      "lat": 12.971553,
      "lon": 77.6803025,
      "tags": {
        "amenity": "restaurant",
        "name": "Venad Kitchen"
      }
    },
    {
      "type": "node",
      "id": 7178885284,
      "lat": 12.9721126,
      "lon": 77.6800077,
      "tags": {
        "amenity": "pharmacy",
        "dispensing": "yes",
        "healthcare": "pharmacy",
        "name": "Milan Pharma"
      }
    },
    {
      "type": "node",
      "id": 7178905228,
      "lat": 12.9722676,
      "lon": 77.680003,
      "tags": {
        "name": "Sweets Land Bakery",
        "shop": "bakery"
      }
    },
    {
      "type": "node",
      "id": 7178905229,
      "lat": 12.9723865,
      "lon": 77.6799446,
      "tags": {
        "name": "Balaji Fashions Textiles",
        "shop": "clothes"
      }
    },
    {
      "type": "node",
      "id": 7178905230,
      "lat": 12.9724283,
      "lon": 77.6799487,
      "tags": {
        "name": "Mahalakshmi Fancy",
        "shop": "fashion_accessories"
      }
    },
    {
      "type": "node",
      "id": 7178905231,
      "lat": 12.9724616,
      "lon": 77.679956,
      "tags": {
        "name": "Tanman Boutique",
        "shop": "clothes"
      }
    },
    {
      "type": "node",
      "id": 7178905232,
      "lat": 12.9728145,
      "lon": 77.6800056,
      "tags": {
        "amenity": "fast_food",
        "cuisine": "juice",
        "name": "Shake it Off - Thickshakes"
      }
    },
    {
      "type": "node",
      "id": 7178905233,
      "lat": 12.9727714,
      "lon": 77.6799963,
      "tags": {
        "amenity": "dentist",
        "healthcare": "dentist",
        "name": "Smiley Dental Care"
      }
    },
    {
      "type": "node",
      "id": 7178905234,
      "lat": 12.9732347,
      "lon": 77.6800995,
      "tags": {
        "name": "Choice Fruits and Vegetables",
        "shop": "greengrocer"
      }
    },
    {
      "type": "node",
      "id": 7178905236,
      "lat": 12.9735759,
      "lon": 77.6802355,
      "tags": {
        "male": "yes",
        "name": "Welldone Salon",
        "shop": "hairdresser"
      }
    },
    {
      "type": "node",
      "id": 7178905238,
      "lat": 12.9740805,
      "lon": 77.6787512,
      "tags": {
        "addr:floor": "2",
        "leisure": "fitness_centre",
        "name": "Strut Fitness"
      }
    },
    {
      "type": "node",
      "id": 7178905239,
      "lat": 12.9740191,
      "lon": 77.6789162,
      "tags": {
        "name": "Nova Fish Market",
        "shop": "seafood",
        "wheelchair": "limited"
      }
    },
    {
      "type": "node",
      "id": 7178905240,
      "lat": 12.9739747,
      "lon": 77.6787485,
      "tags": {
        "amenity": "restaurant",
        "name": "Malabar Hotel",
        "wheelchair": "no"
      }
    },
    {
      "type": "node",
      "id": 7178929285,
      "lat": 12.9720936,
      "lon": 77.6801123,
      "tags": {
        "name": "Sri Devi Stores",
        "shop": "general"
      }
    },
    {
      "type": "node",
      "id": 7178929286,
      "lat": 12.9720721,
      "lon": 77.6801874,
      "tags": {
        "name": "Kamakshi Jwellers",
        "shop": "jewelry"
      }
    },
    {
      "type": "node",
      "id": 7178929291,
      "lat": 12.9720636,
      "lon": 77.6802471,
      "tags": {
        "name": "Vegetable Shop",
        "shop": "greengrocer"
      }
    },
    {
      "type": "node",
      "id": 7178929292,
      "lat": 12.9720276,
      "lon": 77.6803329,
      "tags": {
        "amenity": "fast_food",
        "cuisine": "juice",
        "food": "no",
        "name": "Sri Gajanana Fruit Centre"
      }
    },
    {
      "type": "node",
      "id": 7178929293,
      "lat": 12.9720322,
      "lon": 77.680349,
      "tags": {
        "name": "SLV Iyengar Bakery",
        "shop": "bakery"
      }
    },
    {
      "type": "node",
      "id": 7178929298,
      "lat": 12.9719414,
      "lon": 77.6805656,
      "tags": {
        "name": "Tyre Marks BridgeStone",
        "shop": "tyres"
      }
    },
    {
      "type": "node",
      "id": 7178929299,
      "lat": 12.9724119,
      "lon": 77.6800338,
      "tags": {
        "amenity": "restaurant",
        "name": "Iyer Idly"
      }
    },
    {
      "type": "node",
      "id": 7178988356,
      "lat": 12.9744158,
      "lon": 77.6804352,
      "tags": {
        "amenity": "restaurant",
        "name": "Angel Mess"
      }
    },
    {
      "type": "node",
      "id": 7178998641,
      "lat": 12.973198,
      "lon": 77.6801887,
      "tags": {
        "name": "Fresh Catch Fish Stall",
        "shop": "seafood"
      }
    },
    {
      "type": "node",
      "id": 7178998642,
      "lat": 12.972759,
      "lon": 77.680127,
      "tags": {
        "amenity": "kindergarten",
        "name": "Kid's Castle Preschool"
      }
    },
    {
      "type": "node",
      "id": 7178998643,
      "lat": 12.9726143,
      "lon": 77.6800831,
      "tags": {
        "name": "Rich wel Salon and spa for women",
        "shop": "hairdresser"
      }
    },
    {
      "type": "node",
      "id": 7179305175,
      "lat": 12.9725016,
      "lon": 77.6787035,
      "tags": {
        "name": "Cake Dilim Pastry",
        "shop": "pastry"
      }
    },
    {
      "type": "node",
      "id": 7180709051,
      "lat": 12.9721831,
      "lon": 77.6797745,
      "tags": {
        "amenity": "fast_food",
        "cuisine": "juice",
        "name": "Juice Souq"
      }
    },
    {
      "type": "node",
      "id": 7193521013,
      "lat": 12.9722265,
      "lon": 77.68077,
      "tags": {
        "addr:street": "Vignan Nagar",
        "amenity": "bank",
        "brand": "HDFC Bank",
        "brand:wikidata": "Q631047",
        "brand:wikipedia": "en:HDFC Bank",
        "name": "HDFC Bank",
        "short_name": "HDFC"
      }
    },
    {
      "type": "node",
      "id": 7466913103,
      "lat": 12.973691,
      "lon": 77.6801517,
      "tags": {
        "name": "Home Choice",
        "shop": "general"
      }
    },
    {
      "type": "node",
      "id": 7466913104,
      "lat": 12.9670013,
      "lon": 77.6824507,
      "tags": {
        "amenity": "restaurant",
        "name": "Udupi"
      }
    },
    {
      "type": "node",
      "id": 7466913105,
      "lat": 12.9668606,
      "lon": 77.6824469,
      "tags": {
        "amenity": "fast_food",
        "name": "Goli Vadapav",
        "name:kn": "ಗೋಲಿ ವಡ ಪಾವ್"
      }
    },
    {
      "type": "node",
      "id": 7466913106,
      "lat": 12.974727,
      "lon": 77.6788678,
      "tags": {
        "amenity": "language_school"
      }
    },
    {
      "type": "node",
      "id": 7572131813,
      "lat": 12.9733933,
      "lon": 77.6783833,
      "tags": {
        "addr:district": "Bengaluru Urban",
        "addr:full": "Kaggadasapura Main Road, Kaggadasapura, Bengaluru",
        "addr:postcode": "560075",
        "addr:state": "Karnataka",
        "amenity": "clinic",
        "healthcare": "clinic",
        "name": "Lotus Medical Centre",
        "source": "Local Knowledge"
      }
    },
    {
      "type": "node",
      "id": 7572131841,
      "lat": 12.9722387,
      "lon": 77.6804922,
      "tags": {
        "addr:district": "Bengaluru Urban",
        "addr:full": "Namjoshi Road, Vignan Nagar, Bengaluru",
        "addr:postcode": "560037",
        "addr:state": "Karnataka",
        "amenity": "clinic",
        "healthcare": "clinic",
        "name": "Cure Multi Speciality Clinic",
        "source": "Local Knowledge"
      }
    },
    {
      "type": "node",
      "id": 7572131848,
      "lat": 12.9734759,
      "lon": 77.6785861,
      "tags": {
        "addr:district": "Bengaluru Urban",
        "addr:full": "Tippasandra, Bengaluru",
        "addr:postcode": "560075",
        "addr:state": "Karnataka",
        "amenity": "dentist",
        "healthcare": "dentist",
        "name": "Kiyara Dental Multispeciality Clinic",
        "source": "Local Knowledge",
        "wheelchair": "no"
      }
    },
    {
      "type": "node",
      "id": 7572131849,
      "lat": 12.972726,
      "lon": 77.6801239,
      "tags": {
        "addr:district": "Bengaluru Urban",
        "addr:full": "Doddanekundi, Basavanagara, Bengaluru",
        "addr:postcode": "560037",
        "addr:state": "Karnataka",
        "amenity": "clinic",
        "healthcare": "clinic",
        "name": "Priya Health Care",
        "source": "Local Knowledge"
      }
    },
    {
      "type": "node",
      "id": 7572131924,
      "lat": 12.9724717,
      "lon": 77.6797057,
      "tags": {
        "addr:district": "Bengaluru Urban",
        "addr:full": "Vignan Nagar, Doddanekkundi, Bengaluru",
        "addr:postcode": "560075",
        "addr:state": "Karnataka",
        "amenity": "clinic",
        "healthcare": "clinic",
        "name": "Ashwin Clinic",
        "source": "Local Knowledge"
      }
    },
    {
      "type": "node",
      "id": 7572131926,
      "lat": 12.9742126,
      "lon": 77.678669,
      "tags": {
        "addr:district": "Bengaluru Urban",
        "addr:full": "Vignan Nagar, Malleshpalya, Doddanekkundi, Bengaluru",
        "addr:postcode": "560037",
        "addr:state": "Karnataka",
        "amenity": "clinic",
        "healthcare": "clinic",
        "name": "Easwari Clinic",
        "source": "Local Knowledge"
      }
    },
    {
      "type": "node",
      "id": 7572526705,
      "lat": 12.9648095,
      "lon": 77.6725587,
      "tags": {
        "addr:district": "Bengaluru Urban",
        "addr:full": "Islampur, Vimanapura, Bengaluru",
        "addr:postcode": "560017",
        "addr:state": "Karnataka",
        "amenity": "dentist",
        "name": "SRK Dental Clinic",
        "source": "Local Knowledge"
      }
    },
    {
      "type": "node",
      "id": 8187963512,
      "lat": 12.9717162,
      "lon": 77.6813888,
      "tags": {
        "addr:full": "P.O, DO.NO.31/39, MONITHA MANSION, VIGNAN NAGAR MAIN ROAD THIPPASANDRA, MARATHAHALLY, Sector B, Ramaiahreddy Colony, New Tippasandra, Bengaluru, Karnataka",
        "addr:state": "Karnataka",
        "amenity": "bank",
        "brand": "South Indian Bank",
        "brand:wikidata": "Q2044973",
        "name": "South Indian Bank"
      }
    },
    {
      "type": "node",
      "id": 10741197864,
      "lat": 12.9717424,
      "lon": 77.6809351,
      "tags": {
        "name": "My grocer",
        "shop": "supermarket"
      }
    },
    {
      "type": "node",
      "id": 11035678505,
      "lat": 12.9726175,
      "lon": 77.6780593,
      "tags": {
        "addr:street": "Malleshpalya Main Road",
        "name": "Poorvika",
        "name:kn": "ಪೂರ್ವಿಕ",
        "shop": "mobile_phone"
      }
    },
    {
      "type": "node",
      "id": 11407395907,
      "lat": 12.9697002,
      "lon": 77.6782027,
      "tags": {
        "amenity": "bench",
        "backrest": "yes",
        "colour": "gray",
        "seats": "2"
      }
    },
    {
      "type": "node",
      "id": 12560650226,
      "lat": 12.9686756,
      "lon": 77.6745035,
      "tags": {
        "addr:city": "Bengaluru",
        "addr:district": "Bengaluru Urban",
        "addr:full": "149/3 l.b.s nagar, 7th cross, 8th Main Rd, HAL",
        "addr:postcode": "560017",
        "addr:street": "7th A Cross Road",
        "amenity": "studio",
        "name": "Denzong Films - Video Production Company in Bangalore",
        "studio": "video",
        "website": "https://denzongfilms.com/"
      }
    },
    {
      "type": "node",
      "id": 13070823030,
      "lat": 12.9726226,
      "lon": 77.6775871,
      "tags": {
        "access": "yes",
        "amenity": "toilets"
      }
    },
    {
      "type": "way",
      "id": 323037303,
      "center": {
        "lat": 12.9730342,
        "lon": 77.6690277
      },
      "tags": {
        "amenity": "school",
        "name": "Shishya BEML Public School"
      }
    },
    {
      "type": "way",
      "id": 323037305,
      "center": {
        "lat": 12.9736002,
        "lon": 77.6685704
      },
      "tags": {
        "amenity": "theatre",
        "name": "BEML Kala Mandir"
      }
    },
    {
      "type": "way",
      "id": 323037941,
      "center": {
        "lat": 12.974433,
        "lon": 77.6694265
      },
      "tags": {
        "leisure": "park",
        "name": "BEML Playground"
      }
    },
    {
      "type": "way",
      "id": 342673830,
      "center": {
        "lat": 12.9668909,
        "lon": 77.6826461
      },
      "tags": {
        "amenity": "bus_station",
        "bus": "yes",
        "name": "Basavanagar Bus Stand",
        "name:kn": "ಬಸವನಗರ ಬಸ್ ನಿಲ್ದಾಣ",
        "public_transport": "station",
        "wheelchair": "limited"
      }
    },
    {
      "type": "way",
      "id": 347133741,
      "center": {
        "lat": 12.9734254,
        "lon": 77.6802563
      },
      "tags": {
        "building": "yes",
        "name": "Welldone Women Salon",
        "shop": "hairdresser"
      }
    },
    {
      "type": "way",
      "id": 347133987,
      "center": {
        "lat": 12.9720928,
        "lon": 77.6814964
      },
      "tags": {
        "amenity": "place_of_worship",
        "building": "yes",
        "name": "Faith AG Church",
        "religion": "christian"
      }
    },
    {
      "type": "way",
      "id": 352795275,
      "center": {
        "lat": 12.9728019,
        "lon": 77.6783947
      },
      "tags": {
        "addr:city": "Bengaluru",
        "addr:housenumber": "8",
        "addr:postcode": "560037",
        "addr:street": "Namjoshi Rd, Vignan Nagar, LBS Nagar, Kaggadasapura",
        "building": "yes",
        "building:levels": "3",
        "name": "Ramdev Hi-Fashion",
        "shop": "clothes"
      }
    },
    {
      "type": "way",
      "id": 362927830,
      "center": {
        "lat": 12.9688571,
        "lon": 77.6747601
      },
      "tags": {
        "leisure": "playground",
        "name": "Utkarsha",
        "name:kn": "ಉತ್ಕರ್ಷ"
      }
    },
    {
      "type": "way",
      "id": 415116796,
      "center": {
        "lat": 12.9722456,
        "lon": 77.6683221
      },
      "tags": {
        "leisure": "common"
      }
    },
    {
      "type": "way",
      "id": 415116797,
      "center": {
        "lat": 12.972982,
        "lon": 77.6696754
      },
      "tags": {
        "leisure": "park"
      }
    },
    {
      "type": "way",
      "id": 415116798,
      "center": {
        "lat": 12.9725574,
        "lon": 77.6686068
      },
      "tags": {
        "leisure": "sports_centre"
      }
    },
    {
      "type": "way",
      "id": 415116799,
      "center": {
        "lat": 12.9745137,
        "lon": 77.6703174
      },
      "tags": {
        "leisure": "park"
      }
    },
    {
      "type": "way",
      "id": 415124236,
      "center": {
        "lat": 12.9726274,
        "lon": 77.6777335
      },
      "tags": {
        "amenity": "bus_station",
        "name": "Vignananagar Bus Station",
        "name:kn": "ವಿಜ್ಞಾನನಗರ ಬಸ್ ನಿಲ್ದಾಣ",
        "wheelchair": "limited"
      }
    },
    {
      "type": "way",
      "id": 574696674,
      "center": {
        "lat": 12.9728591,
        "lon": 77.668856
      },
      "tags": {
        "leisure": "playground"
      }
    },
    {
      "type": "way",
      "id": 764335938,
      "center": {
        "lat": 12.971897,
        "lon": 77.6807587
      },
      "tags": {
        "amenity": "bar",
        "amenity_1": "restaurant",
        "building": "yes",
        "name": "Mourya Bar & Restaurant",
        "opening_hours": "08:00-00:00"
      }
    },
    {
      "type": "way",
      "id": 799457103,
      "center": {
        "lat": 12.9647204,
        "lon": 77.6822814
      },
      "tags": {
        "amenity": "bank",
        "atm": "yes",
        "brand": "Canara Bank",
        "brand:en": "Canara Bank",
        "brand:hi": "केनरा बैंक",
        "brand:kn": "ಕೆನರಾ ಬ್ಯಾಂಕ್",
        "brand:pa": "ਕੇਨਰਾ ਬੈਂਕ",
        "brand:pnb": "کینرا بینک",
        "brand:ur": "کینرا بینک",
        "brand:wikidata": "Q2003777",
        "brand:wikipedia": "en:Canara Bank",
        "brand:wikipedia:pa": "ਕੇਨਰਾ ਬੈਂਕ",
        "building": "yes",
        "name": "Canara Bank",
        "name:en": "Canara Bank",
        "name:hi": "केनरा बैंक",
        "name:kn": "ಕೆನರಾ ಬ್ಯಾಂಕ್",
        "name:pa": "ਕੇਨਰਾ ਬੈਂਕ",
        "name:pnb": "کینرا بینک",
        "name:ur": "کینرا بینک"
      }
    },
    {
      "type": "way",
      "id": 810219948,
      "center": {
        "lat": 12.9726438,
        "lon": 77.6818101
      },
      "tags": {
        "building": "yes",
        "name": "Dazzle Car Care",
        "service:vehicle:body_repair": "yes",
        "service:vehicle:car_repair": "yes",
        "service:vehicle:detailing": "yes",
        "service:vehicle:oil_change": "yes",
        "service:vehicle:painting": "yes",
        "shop": "car_repair"
      }
    },
    {
      "type": "way",
      "id": 817544806,
      "center": {
        "lat": 12.9678262,
        "lon": 77.682349
      },
      "tags": {
        "access": "private",
        "leisure": "swimming_pool"
      }
    },
    {
      "type": "way",
      "id": 1119385374,
      "center": {
        "lat": 12.964497,
        "lon": 77.6807039
      },
      "tags": {
        "amenity": "school",
        "name": "Suvarnashree Gurukul"
      }
    },
    {
      "type": "way",
      "id": 1230094111,
      "center": {
        "lat": 12.9697936,
        "lon": 77.6783609
      },
      "tags": {
        "leisure": "park",
        "name": "Vikas Park"
      }
    },
    {
      "type": "way",
      "id": 1230094122,
      "center": {
        "lat": 12.9691246,
        "lon": 77.6822731
      },
      "tags": {
        "leisure": "playground"
      }
    },
    {
      "type": "way",
      "id": 1443925831,
      "center": {
        "lat": 12.9760078,
        "lon": 77.6794218
      },
      "tags": {
        "leisure": "pitch"
      }
    },
    {
      "type": "way",
      "id": 1443942969,
      "center": {
        "lat": 12.9777444,
        "lon": 77.6812117
      },
      "tags": {
        "leisure": "pitch"
      }
    },
    {
      "type": "way",
      "id": 1447515030,
      "center": {
        "lat": 12.9710241,
        "lon": 77.6670774
      },
      "tags": {
        "access": "private",
        "leisure": "park"
      }
    },
    {
      "type": "way",
      "id": 1447685563,
      "center": {
        "lat": 12.9702664,
        "lon": 77.6711596
      },
      "tags": {
        "access": "private",
        "leisure": "swimming_pool"
      }
    },
    {
      "type": "way",
      "id": 1449587472,
      "center": {
        "lat": 12.9649604,
        "lon": 77.6805629
      },
      "tags": {
        "amenity": "place_of_worship",
        "landuse": "religious",
        "name": "Shrimad Vibhuthipura Veerasimhasana Samsthana Matha",
        "religion": "hindu"
      }
    },
    {
      "type": "way",
      "id": 1449587586,
      "center": {
        "lat": 12.9652477,
        "lon": 77.6821016
      },
      "tags": {
        "amenity": "community_centre",
        "landuse": "commercial",
        "name": "SJP Kalyana Mantapa"
      }
    },
    {
      "type": "way",
      "id": 1449595411,
      "center": {
        "lat": 12.9677789,
        "lon": 77.678394
      },
      "tags": {
        "access": "private",
        "leisure": "swimming_pool"
      }
    },
    {
      "type": "way",
      "id": 1449595412,
      "center": {
        "lat": 12.9668851,
        "lon": 77.6782072
      },
      "tags": {
        "access": "private",
        "leisure": "swimming_pool"
      }
    },
    {
      "type": "way",
      "id": 1449595456,
      "center": {
        "lat": 12.9651397,
        "lon": 77.6794507
      },
      "tags": {
        "amenity": "school",
        "landuse": "education"
      }
    },
    {
      "type": "way",
      "id": 1449609163,
      "center": {
        "lat": 12.9658895,
        "lon": 77.6797622
      },
      "tags": {
        "access": "private",
        "leisure": "swimming_pool"
      }
    }
  ]
}