{
  "area_name": "Appareddipalaya",
  "osm_id": 3384271515,
  "osm_type": "node",
  "place_type": "neighbourhood",
  "amenity_count": 1543,
  "amenities": [
    {
      "type": "node",
      "id": 312835604,
      "lat": 12.9782444,
      "lon": 77.6407376,
      "tags": {
        "addr:street": "100 Feet Road( S K Karim Khan Road)",
        "air_conditioning": "yes",
        "alt_name": "Kentucky Fried Chicken",
        "alt_name:en": "Kentucky Fried Chicken",
        "alt_name:hi": "केंटुकी फ्राइड चिकन",
        "alt_name:pa": "ਕੈਂਟੁਕੀ ਫ੍ਰਾਈਡ ਚਿਕਨ",
        "alt_name:pnb": "کینٹکی فرائیڈ چکن",
        "alt_name:ur": "کینٹکی فرائیڈ چکن",
        "amenity": "fast_food",
        "brand": "KFC",
        "brand:en": "KFC",
        "brand:hi": "केएफसी",
        "brand:pa": "ਕੇਐਫਸੀ",
        "brand:pnb": "کے ایف سی",
        "brand:ur": "کے ایف سی",
        "brand:wikidata": "Q524757",
        "brand:wikipedia": "en:KFC",
        "brand:wikipedia:pa": "ਕੇਐਫਸੀ",
        "brand:wikipedia:ur": "کینٹکی فرائیڈ چکن",
        "check_date": "2025-08-15",
        "cuisine": "chicken",
        "diet:vegetarian": "yes",
        "name": "KFC",
        "name:en": "KFC",
        "name:hi": "केएफसी",
        "name:pa": "ਕੇਐਫਸੀ",
        "name:pnb": "کے ایف سی",
        "name:ur": "کے ایف سی",
        "outdoor_seating": "no",
        "payment:mastercard": "yes",
        "payment:visa": "yes",
        "smoking": "no",
        "source": "survey",
        "takeaway": "yes",
        "wheelchair": "no"
      }
    },
    {
      "type": "node",
      "id": 423744888,
      "lat": 12.9782249,
      "lon": 77.640632,
      "tags": {
        "addr:street": "Chinmaya Mission Hospital Road",
        "amenity": "restaurant",
        "brand": "Pizza Hut",
        "brand:wikidata": "Q191615",
        "brand:wikipedia": "en:Pizza Hut",
        "check_date": "2025-08-15",
        "cuisine": "pizza",
        "diet:vegetarian": "yes",
        "name": "Pizza Hut",
        "name:kn": "ಪಿಟ್ಸ ಹಟ್",
        "payment:mastercard": "yes",
        "payment:visa": "yes",
        "smoking": "no",
        "source": "survey",
        "wheelchair": "no"
      }
    },
    {
      "type": "node",
      "id": 423744924,
      "lat": 12.9754961,
      "lon": 77.6412437,
      "tags": {
        "addr:street": "100 Feet Road(S K Karim Khan Road)",
        "amenity": "cafe",
        "brand": "Cafe Coffee Day",
        "brand:wikidata": "Q5017235",
        "brand:wikipedia": "en:Café Coffee Day",
        "check_date": "2024-01-06",
        "cuisine": "coffee_shop",
        "name": "Cafe Coffee Day",
        "name:kn": "ಕಫೆ ಕಾಫಿ ಡೇ",
        "takeaway": "yes",
        "wheelchair": "no"
      }
    },
    {
      "type": "node",
      "id": 486969025,
      "lat": 12.9701849,
      "lon": 77.6438014,
      "tags": {
        "addr:street": "12th Main Road",
        "name": "Mothercare",
        "shop": "motherhood"
      }
    },
    {
      "type": "node",
      "id": 844462412,
      "lat": 12.983019,
      "lon": 77.6384106,
      "tags": {
        "amenity": "police",
        "name": "Indira Nagar Police Station",
        "name:kn": "ಇಂದಿರಾನಗರ ಆರಕ್ಷಕ ಠಾಣೆ"
      }
    },
    {
      "type": "node",
      "id": 1078369539,
      "lat": 12.980808,
      "lon": 77.6406008,
      "tags": {
        "addr:street": "100 Feet Road",
        "amenity": "fast_food",
        "brand": "Domino's",
        "brand:ks": "ڈومینوز",
        "brand:pa": "ਡੋਮੀਨੋਜ਼",
        "brand:ur": "ڈومینوز",
        "brand:wikidata": "Q839466",
        "brand:wikipedia": "en:Domino's Pizza",
        "cuisine": "pizza",
        "name": "Domino's",
        "name:ks": "ڈومینوز",
        "name:pa": "ਡੋਮੀਨੋਜ਼",
        "name:ur": "ڈومینوز",
        "takeaway": "yes"
      }
    },
    {
      "type": "node",
      "id": 1078369543,
      "lat": 12.980115,
      "lon": 77.6405511,
      "tags": {
        "addr:street": "100 Feet Road",
        "amenity": "restaurant",
        "cuisine": "indian",
        "name": "Kund",
        "name:kn": "ಕುಂದ್"
      }
    },
    {
      "type": "node",
      "id": 1138468595,
      "lat": 12.9783335,
      "lon": 77.644369,
      "tags": {
        "addr:city": "Bengaluru",
        "addr:housenumber": "716",
        "addr:postcode": "560038",
        "addr:street": "Chinmaya Mission Hospital Road",
        "amenity": "arts_centre",
        "name": "Goethe-Institut Max Müller Bhavan",
        "phone": "+91 80 25205305",
        "website": "https://www.goethe.de/ins/in/en/sta/ban.html"
      }
    },
    {
      "type": "node",
      "id": 1138469390,
      "lat": 12.9787173,
      "lon": 77.643786,
      "tags": {
        "addr:street": "Chinmaya Mission Hospital Road",
        "name": "Bandhej",
        "shop": "clothes"
      }
    },
    {
      "type": "node",
      "id": 1185751513,
      "lat": 12.9736907,
      "lon": 77.6412647,
      "tags": {
        "addr:street": "100 Feet Road(S K Karim Khan Road)",
        "brand": "METRO",
        "brand:wikidata": "Q13610282",
        "brand:wikipedia": "en:Metro Cash & Carry",
        "name": "Metro",
        "shop": "wholesale",
        "wheelchair": "no"
      }
    },
    {
      "type": "node",
      "id": 1185751531,
      "lat": 12.9737476,
      "lon": 77.6412627,
      "tags": {
        "name": "Woodland",
        "shop": "shoes"
      }
    },
    {
      "type": "node",
      "id": 1212309366,
      "lat": 12.9713009,
      "lon": 77.6347274,
      "tags": {
        "amenity": "atm",
        "brand": "IDBI Bank",
        "brand:wikidata": "Q3633485",
        "name": "IDBI Bank",
        "operator": "IDBI Bank",
        "operator:wikidata": "Q3633485",
        "short_name": "IDBI"
      }
    },
    {
      "type": "node",
      "id": 1282881158,
      "lat": 12.9711101,
      "lon": 77.6342171,
      "tags": {
        "amenity": "fast_food",
        "name": "Chat"
      }
    },
    {
      "type": "node",
      "id": 1328610585,
      "lat": 12.9790183,
      "lon": 77.6423007,
      "tags": {
        "shop": "florist"
      }
    },
    {
      "type": "node",
      "id": 1328610588,
      "lat": 12.9793502,
      "lon": 77.6421411,
      "tags": {
        "amenity": "restaurant",
        "name": "Sue's Kitchen",
        "name:kn": "ಸೂಸ್ ಕಿಚನ್"
      }
    },
    {
      "type": "node",
      "id": 1328610603,
      "lat": 12.9786915,
      "lon": 77.6430065,
      "tags": {
        "brand": "Max",
        "brand:wikidata": "Q24939079",
        "name": "Max",
        "shop": "clothes",
        "wheelchair": "no"
      }
    },
    {
      "type": "node",
      "id": 1328610611,
      "lat": 12.9785592,
      "lon": 77.6414856,
      "tags": {
        "amenity": "bank",
        "atm": "yes",
        "brand": "Indian Overseas Bank",
        "brand:wikidata": "Q2003611",
        "brand:wikipedia": "en:Indian Overseas Bank",
        "name": "Indian Overseas Bank",
        "name:en": "Indian Overseas Bank",
        "operator": "IOB Bank & ATM",
        "short_name": "IOB",
        "website": "https://www.iob.in"
      }
    },
    {
      "type": "node",
      "id": 1328610618,
      "lat": 12.9787281,
      "lon": 77.6449298,
      "tags": {
        "addr:city": "Bengaluru",
        "addr:postcode": "560038",
        "addr:street": "Chinmaya Mission Hospital Road",
        "name": "M K Retail",
        "organic": "yes",
        "shop": "supermarket",
        "website": "https://www.mkretail.com/"
      }
    },
    {
      "type": "node",
      "id": 1328610672,
      "lat": 12.9787344,
      "lon": 77.6451837,
      "tags": {
        "amenity": "pharmacy"
      }
    },
    {
      "type": "node",
      "id": 1328610680,
      "lat": 12.978987,
      "lon": 77.6427942,
      "tags": {
        "shop": "florist"
      }
    },
    {
      "type": "node",
      "id": 1328610690,
      "lat": 12.979687,
      "lon": 77.6422424,
      "tags": {
        "name": "Bimal Maruti Sai Service Station",
        "shop": "car_repair"
      }
    },
    {
      "type": "node",
      "id": 1328610694,
      "lat": 12.9781311,
      "lon": 77.640699,
      "tags": {
        "addr:street": "100 Feet Road( S K Karim Khan Road)",
        "check_date": "2025-08-15",
        "name": "Pai Electronics",
        "shop": "hifi"
      }
    },
    {
      "type": "node",
      "id": 1328610703,
      "lat": 12.9790062,
      "lon": 77.6428583,
      "tags": {
        "addr:housenumber": "99",
        "brand": "HOPCOMS",
        "brand:wikidata": "Q22908959",
        "building": "yes",
        "building:levels": "1",
        "name": "HOPCOMS",
        "name:kn": "ಹಾಪ್ ಕಾಮ್ಸ್",
        "opening_hours": "09:30-13:30,16:30-20:30",
        "organic": "no",
        "shop": "greengrocer",
        "wheelchair": "no"
      }
    },
    {
      "type": "node",
      "id": 1328610729,
      "lat": 12.9781116,
      "lon": 77.6409869,
      "tags": {
        "addr:street": "100 Feet Road(S K Karim Khan Road)",
        "brand": "HOPCOMS",
        "brand:wikidata": "Q22908959",
        "name": "HOPCOMS",
        "name:kn": "ಹಾಪ್ ಕಾಮ್ಸ್",
        "shop": "greengrocer"
      }
    },
    {
      "type": "node",
      "id": 1328617006,
      "lat": 12.9700166,
      "lon": 77.6311695,
      "tags": {
        "amenity": "place_of_worship",
        "name": "Sai Baba Temple",
        "name:kn": "ಸಾಯಿಬಾಬಾ ದೇವಸ್ಥಾನ",
        "religion": "hindu"
      }
    },
    {
      "type": "node",
      "id": 1328617013,
      "lat": 12.9701421,
      "lon": 77.6314807,
      "tags": {
        "addr:street": "Sai Baba Mandira Road",
        "amenity": "pharmacy",
        "name": "Health and Glow"
      }
    },
    {
      "type": "node",
      "id": 1352675455,
      "lat": 12.978084,
      "lon": 77.6377484,
      "tags": {
        "addr:street": "Chinmaya Mission Hospital Road",
        "amenity": "bank",
        "atm": "yes",
        "brand": "HDFC Bank",
        "brand:wikidata": "Q631047",
        "brand:wikipedia": "en:HDFC Bank",
        "name": "HDFC Bank",
        "name:kn": "ಎಚ್ ಡಿ ಎಫ್ ಸಿ",
        "short_name": "HDFC",
        "website": "https://www.hdfcbank.com"
      }
    },
    {
      "type": "node",
      "id": 1385984054,
      "lat": 12.967438,
      "lon": 77.6365796,
      "tags": {
        "addr:housenumber": "#23, 3rd B cross,",
        "addr:street": "1st Main Road,",
        "amenity": "cafe",
        "name": "StrEat Cafe"
      }
    },
    {
      "type": "node",
      "id": 1420066592,
      "lat": 12.9671898,
      "lon": 77.6422595,
      "tags": {
        "addr:city": "Bangalore",
        "addr:housenumber": "2286",
        "addr:street": ", 14th A Main Road, 1st Cross",
        "amenity": "cafe",
        "name": "The Ants Cafe",
        "name:kn": "ಆನ್ಟ್ಸ್ ಕಫೆ",
        "opening_hours": "09:00-20:00",
        "website": "http://theantsstore.com/primary-pages/ants-cafe"
      }
    },
    {
      "type": "node",
      "id": 1420105702,
      "lat": 12.9695606,
      "lon": 77.6411087,
      "tags": {
        "amenity": "cafe",
        "cuisine": "tea",
        "internet_access": "no",
        "name": "Chai Patti Teafe",
        "name:kn": "ಚಾಯೈ ಪತ್ತಿ",
        "outdoor_seating": "no"
      }
    },
    {
      "type": "node",
      "id": 1420105705,
      "lat": 12.9723006,
      "lon": 77.6392006,
      "tags": {
        "amenity": "fast_food",
        "cuisine": "rolls",
        "name": "Chakum Chukum"
      }
    },
    {
      "type": "node",
      "id": 1420105706,
      "lat": 12.9701103,
      "lon": 77.6373408,
      "tags": {
        "amenity": "ice_cream",
        "brand": "Corner House",
        "check_date": "2023-10-08",
        "delivery": "yes",
        "name": "Corner House",
        "shop": "confectionery",
        "takeaway": "yes"
      }
    },
    {
      "type": "node",
      "id": 1420105711,
      "lat": 12.9701438,
      "lon": 77.6376584,
      "tags": {
        "amenity": "bank",
        "atm": "yes",
        "brand": "HDFC Bank",
        "brand:wikidata": "Q631047",
        "name": "HDFC Bank",
        "name:kn": "ಎಚ್ ಡಿ ಎಫ್ ಸಿ",
        "short_name": "HDFC"
      }
    },
    {
      "type": "node",
      "id": 1420105733,
      "lat": 12.9705482,
      "lon": 77.6410087,
      "tags": {
        "addr:street": "100 Feet Road",
        "brand": "Cromā",
        "brand:wikidata": "Q5187683",
        "name": "Cromā",
        "name:kn": "ಕ್ರೋಮ",
        "shop": "electronics"
      }
    },
    {
      "type": "node",
      "id": 1420105853,
      "lat": 12.9698224,
      "lon": 77.6377171,
      "tags": {
        "amenity": "restaurant",
        "name": "Baan Phad Thai",
        "opening_hours": "Mo-Su 00:00-16:00,18:30-00:30"
      }
    },
    {
      "type": "node",
      "id": 1420105905,
      "lat": 12.9724613,
      "lon": 77.6391823,
      "tags": {
        "name": "Daily Bread",
        "shop": "bakery"
      }
    },
    {
      "type": "node",
      "id": 1462127091,
      "lat": 12.9819339,
      "lon": 77.6369876,
      "tags": {
        "amenity": "parking"
      }
    },
    {
      "type": "node",
      "id": 1474220540,
      "lat": 12.978234,
      "lon": 77.6426096,
      "tags": {
        "amenity": "restaurant",
        "cuisine": "international",
        "name": "Kobe Sizzler",
        "name:kn": "ಕೊಬೆ ಸಿಜ್ಲರ್"
      }
    },
    {
      "type": "node",
      "id": 1474220542,
      "lat": 12.9786184,
      "lon": 77.64187,
      "tags": {
        "amenity": "bank",
        "atm": "yes",
        "brand": "Karnataka Bank",
        "brand:wikidata": "Q2042632",
        "name": "Karnataka Bank",
        "name:kn": "ಕರ್ನಾಟಕ ಬ್ಯಾಂಕ್"
      }
    },
    {
      "type": "node",
      "id": 1474220543,
      "lat": 12.9782465,
      "lon": 77.6427852,
      "tags": {
        "amenity": "bank",
        "atm": "yes",
        "brand": "ICICI Bank",
        "brand:wikidata": "Q1653258",
        "name": "ICICI Bank",
        "name:en": "ICICI Bank",
        "name:kn": "ಐಸಿಐಸಿಐ ಬ್ಯಾಂಕು",
        "short_name": "ICICI",
        "website": "https://www.icicibank.com"
      }
    },
    {
      "type": "node",
      "id": 1474220544,
      "lat": 12.978729,
      "lon": 77.6439064,
      "tags": {
        "addr:street": "Chinmaya Mission Hospital Road",
        "amenity": "cafe",
        "cuisine": "coffee_shop",
        "name": "Beanlore Coffee Roasters",
        "takeaway": "yes"
      }
    },
    {
      "type": "node",
      "id": 1474220545,
      "lat": 12.9786454,
      "lon": 77.6425241,
      "tags": {
        "name": "P N Rao",
        "shop": "clothes",
        "wheelchair": "no"
      }
    },
    {
      "type": "node",
      "id": 1474220548,
      "lat": 12.9787052,
      "lon": 77.6443155,
      "tags": {
        "addr:street": "Chinmaya Mission Hospital Road",
        "amenity": "clinic",
        "name": "Heart lung clinic"
      }
    },
    {
      "type": "node",
      "id": 1474220550,
      "lat": 12.9783144,
      "lon": 77.6444829,
      "tags": {
        "addr:street": "Chinmaya Mission Hospital Road",
        "name": "Flying machine",
        "shop": "clothes"
      }
    },
    {
      "type": "node",
      "id": 1474220552,
      "lat": 12.978261,
      "lon": 77.6431384,
      "tags": {
        "addr:city": "Indira Nagar, Bangalore",
        "addr:postcode": "560038",
        "addr:street": "Chinmaya Mission Hospital Road",
        "amenity": "ice_cream",
        "brand": "Nature's Basket",
        "brand:wikidata": "Q28174237",
        "name": "Nature's Basket",
        "organic": "yes",
        "shop": "supermarket",
        "website": "https://www.naturesbasket.co.in/"
      }
    },
    {
      "type": "node",
      "id": 1474220554,
      "lat": 12.9786742,
      "lon": 77.6427655,
      "tags": {
        "addr:housenumber": "496",
        "addr:street": "CMH road",
        "amenity": "cafe",
        "brand": "Chai Point",
        "brand:wikidata": "Q28173415",
        "brand:wikipedia": "en:Café Coffee Day",
        "cuisine": "coffee_shop",
        "name": "Chai Point",
        "name:kn": "ಕೆಫೆ ಕಾಫೀ ಡೇ",
        "takeaway": "yes",
        "wheelchair": "limited"
      }
    },
    {
      "type": "node",
      "id": 1474220555,
      "lat": 12.9786597,
      "lon": 77.6424063,
      "tags": {
        "amenity": "clinic",
        "emergency": "no",
        "name": "Lotus Diagnostic centre"
      }
    },
    {
      "type": "node",
      "id": 1474220558,
      "lat": 12.9787161,
      "lon": 77.643658,
      "tags": {
        "addr:street": "Chinmaya Mission Hospital Road",
        "name": "People",
        "shop": "clothes"
      }
    },
    {
      "type": "node",
      "id": 1474220563,
      "lat": 12.9692201,
      "lon": 77.6411398,
      "tags": {
        "amenity": "bank",
        "atm": "yes",
        "brand": "Axis Bank",
        "brand:wikidata": "Q2003549",
        "brand:wikipedia": "en:Axis Bank",
        "name": "Axis Bank",
        "name:en": "Axis Bank",
        "name:kn": "ಅಕ್ಸಿಸ್ ಬ್ಯಾಂಕ್",
        "website": "https://www.axisbank.com"
      }
    },
    {
      "type": "node",
      "id": 1474220566,
      "lat": 12.9689232,
      "lon": 77.641585,
      "tags": {
        "addr:street": "100 Feet Road",
        "name": "Staples",
        "name:kn": "ಸ್ಟ್ಯಾಪ್ಲ್ಸ್",
        "shop": "hifi"
      }
    },
    {
      "type": "node",
      "id": 1474220576,
      "lat": 12.9786322,
      "lon": 77.642362,
      "tags": {
        "amenity": "pharmacy",
        "dispensing": "yes",
        "name": "Trust Medicals"
      }
    },
    {
      "type": "node",
      "id": 1474220578,
      "lat": 12.9785945,
      "lon": 77.6444292,
      "tags": {
        "amenity": "parking",
        "capacity": "10"
      }
    },
    {
      "type": "node",
      "id": 1474220580,
      "lat": 12.9786857,
      "lon": 77.6450948,
      "tags": {
        "amenity": "atm",
        "brand": "State Bank of India",
        "brand:wikidata": "Q1340361",
        "fee": "no",
        "name": "State Bank of India",
        "opening_hours": "24/7",
        "operator": "State Bank of India",
        "operator:wikidata": "Q1340361",
        "short_name": "SBI"
      }
    },
    {
      "type": "node",
      "id": 1474220581,
      "lat": 12.9783314,
      "lon": 77.6448308,
      "tags": {
        "amenity": "bank",
        "atm": "yes",
        "brand": "Andhra Bank",
        "brand:wikidata": "Q2003476",
        "brand:wikipedia": "en:Andhra Bank",
        "name": "Andhra Bank",
        "name:en": "Andhra Bank",
        "name:kn": "ಆಂಧ್ರ ಬ್ಯಾಂಕ್",
        "website": "https://www.andhrabank.in"
      }
    },
    {
      "type": "node",
      "id": 1474220586,
      "lat": 12.9689844,
      "lon": 77.6415777,
      "tags": {
        "addr:street": "100 Feet Road",
        "amenity": "atm",
        "brand": "Citibank",
        "brand:wikidata": "Q857063",
        "name": "Citibank",
        "operator": "Citibank",
        "operator:wikidata": "Q857063",
        "short_name": "Citi"
      }
    },
    {
      "type": "node",
      "id": 1474220589,
      "lat": 12.9787241,
      "lon": 77.6440375,
      "tags": {
        "name": "Planet fashion",
        "shop": "clothes"
      }
    },
    {
      "type": "node",
      "id": 1474254691,
      "lat": 12.9707243,
      "lon": 77.6414981,
      "tags": {
        "addr:street": "100 Feet Road",
        "name": "Shrushti Jewelry",
        "payment:credit_cards": "yes",
        "payment:debit_cards": "yes",
        "shop": "jewelry"
      }
    },
    {
      "type": "node",
      "id": 1474254693,
      "lat": 12.9695059,
      "lon": 77.6415616,
      "tags": {
        "name": "Viveks",
        "name:kn": "ವಿವೇಕ್ಸ್",
        "shop": "hifi"
      }
    },
    {
      "type": "node",
      "id": 1474254702,
      "lat": 12.9689476,
      "lon": 77.6416265,
      "tags": {
        "addr:street": "100 Feet Road",
        "name": "Arrow",
        "name:kn": "ಅರ್ರೊ",
        "shop": "clothes"
      }
    },
    {
      "type": "node",
      "id": 1474254705,
      "lat": 12.9713714,
      "lon": 77.6409298,
      "tags": {
        "addr:street": "100 Feet Road",
        "brand": "Van Heusen",
        "brand:wikidata": "Q67551865",
        "check_date": "2024-02-18",
        "clothes": "men",
        "name": "Van Heusen",
        "name:kn": "ವ್ಯಾನ್ ಹುಸೇನ್",
        "shop": "clothes"
      }
    },
    {
      "type": "node",
      "id": 1474254709,
      "lat": 12.9709774,
      "lon": 77.6410458,
      "tags": {
        "addr:street": "100 Feet Road( S K Karim Khan Road)",
        "name": "Erwan Thai SPA",
        "shop": "beauty"
      }
    },
    {
      "type": "node",
      "id": 1474254711,
      "lat": 12.968363,
      "lon": 77.6416279,
      "tags": {
        "amenity": "place_of_worship",
        "check_date": "2023-10-08",
        "name": "Methodist Church",
        "name:kn": "ಮೆತೊಡಿಸ್ಟ್‌ ಚರ್ಚ್",
        "religion": "christian"
      }
    },
    {
      "type": "node",
      "id": 1474254715,
      "lat": 12.9709206,
      "lon": 77.6410529,
      "tags": {
        "amenity": "bar",
        "name": "Salt Edition 1"
      }
    },
    {
      "type": "node",
      "id": 1474254719,
      "lat": 12.9705339,
      "lon": 77.6415074,
      "tags": {
        "amenity": "bank",
        "atm": "no",
        "brand": "State Bank of India",
        "brand:wikidata": "Q1340361",
        "brand:wikipedia": "en:State Bank of India",
        "check_date": "2023-10-08",
        "name": "State Bank of India",
        "name:kn": "ಭಾರತೀಯ ಸ್ಟೇಟ್ ಬ್ಯಾಂಕ್",
        "short_name": "SBI"
      }
    },
    {
      "type": "node",
      "id": 1474258840,
      "lat": 12.977996,
      "lon": 77.6409891,
      "tags": {
        "addr:street": "100 Feet Road",
        "brand": "Nandini",
        "brand:wikidata": "Q124374212",
        "name": "Nandini",
        "shop": "dairy"
      }
    },
    {
      "type": "node",
      "id": 1474258844,
      "lat": 12.9761276,
      "lon": 77.6412139,
      "tags": {
        "addr:street": "100 Feet Road(S K Karim Khan Road)",
        "amenity": "cafe",
        "brand": "Gloria Jean's",
        "brand:wikidata": "Q2666365",
        "cuisine": "coffee_shop",
        "name": "Gloria Jean's",
        "official_name": "Gloria Jean's Coffees",
        "takeaway": "yes"
      }
    },
    {
      "type": "node",
      "id": 1474258846,
      "lat": 12.9762078,
      "lon": 77.6412027,
      "tags": {
        "addr:street": "100 Feet Road(S K Karim Khan Road)",
        "name": "Reebok Junior",
        "shop": "hifi"
      }
    },
    {
      "type": "node",
      "id": 1474258851,
      "lat": 12.9763902,
      "lon": 77.6407811,
      "tags": {
        "check_date": "2024-02-18",
        "name": "Indian Terrain",
        "shop": "clothes"
      }
    },
    {
      "type": "node",
      "id": 1474258857,
      "lat": 12.9773859,
      "lon": 77.6411324,
      "tags": {
        "addr:street": "100 Feet Road(S K Karim Khan Road)",
        "check_date": "2025-06-16",
        "name": "Karachi Bakery",
        "payment:cash": "yes",
        "payment:credit_cards": "yes",
        "payment:debit_cards": "yes",
        "shop": "bakery",
        "source": "survey"
      }
    },
    {
      "type": "node",
      "id": 1655553583,
      "lat": 12.9657761,
      "lon": 77.6365089,
      "tags": {
        "name": "Anveshanam",
        "shop": "travel_agency"
      }
    },
    {
      "type": "node",
      "id": 1655556504,
      "lat": 12.9653458,
      "lon": 77.6380532,
      "tags": {
        "amenity": "nursing_home",
        "name": "Enhanced Healthcare"
      }
    },
    {
      "type": "node",
      "id": 1655556505,
      "lat": 12.965378,
      "lon": 77.6379902,
      "tags": {
        "leisure": "fitness_centre",
        "name": "Fitness One",
        "name:hi": "फिटनेस वन",
        "name:kn": "ಫಿಟ್ ನೆಸ್ ಒನ್"
      }
    },
    {
      "type": "node",
      "id": 1655556512,
      "lat": 12.9664535,
      "lon": 77.6363465,
      "tags": {
        "addr:district": "Bengaluru Urban",
        "addr:full": "270, 3Road Cross, Domlur 2nd Stage",
        "addr:postcode": "560071",
        "addr:state": "Karnataka",
        "addr:street": "3rd Cross Road",
        "amenity": "clinic",
        "name": "Vital Medi Health Care Pvt Ltd",
        "source": "OpenGovernmentData",
        "wheelchair": "yes"
      }
    },
    {
      "type": "node",
      "id": 1808798770,
      "lat": 12.9781131,
      "lon": 77.6385256,
      "tags": {
        "addr:street": "Chinmaya Mission Hospital Road",
        "amenity": "fast_food",
        "brand": "McDonald's",
        "brand:pa": "ਮੈਕਡੋਨਲਡ’ਜ਼",
        "brand:ur": "مکڈونلڈز",
        "brand:wikidata": "Q38076",
        "brand:wikipedia": "en:McDonald's",
        "brand:wikipedia:pa": "ਮੈਕਡੋਨਲਡ’ਜ਼",
        "brand:wikipedia:ur": "مکڈونلڈز",
        "check_date": "2023-02-13",
        "cuisine": "burger",
        "diet:vegetarian": "yes",
        "name": "McDonald's",
        "name:kn": "ಮ್ಯಾಕ್‌ಡೊನಾಲ್ಡ್ಸ್",
        "name:pa": "ਮੈਕਡੋਨਲਡ’ਜ਼",
        "name:ur": "مکڈونلڈز",
        "takeaway": "yes"
      }
    },
    {
      "type": "node",
      "id": 1857028750,
      "lat": 12.9683415,
      "lon": 77.638885,
      "tags": {
        "brand": "HOPCOMS",
        "brand:wikidata": "Q22908959",
        "name": "HOPCOMS",
        "name:kn": "ಹಾಪ್ ಕಾಮ್ಸ್",
        "shop": "greengrocer"
      }
    },
    {
      "type": "node",
      "id": 1857042208,
      "lat": 12.9683642,
      "lon": 77.6397574,
      "tags": {
        "name": "Best Bakes",
        "shop": "bakery"
      }
    },
    {
      "type": "node",
      "id": 1923665125,
      "lat": 12.9794113,
      "lon": 77.6406278,
      "tags": {
        "addr:city": "Bengaluru",
        "addr:housenumber": "298",
        "addr:postcode": "560038",
        "addr:street": "100 Feet Road",
        "amenity": "pub",
        "check_date": "2023-12-30",
        "dog": "leashed",
        "email": "toitblr@toit.in",
        "int_name": "Toit Brewpub",
        "microbrewery": "yes",
        "name": "Toit",
        "operator": "Toit.",
        "payment:cash": "yes",
        "payment:mastercard": "yes",
        "payment:visa": "yes",
        "pets": "yes",
        "phone": "+91 901 971 3388",
        "smoking": "isolated",
        "website": "https://toit.in/",
        "wheelchair": "limited"
      }
    },
    {
      "type": "node",
      "id": 1941640770,
      "lat": 12.9726902,
      "lon": 77.6389158,
      "tags": {
        "amenity": "kindergarten",
        "name": "Serra PreSchool"
      }
    },
    {
      "type": "node",
      "id": 2198198184,
      "lat": 12.9785916,
      "lon": 77.6410932,
      "tags": {
        "name": "Jealous21",
        "shop": "clothes",
        "source": "Ladys Wear"
      }
    },
    {
      "type": "node",
      "id": 2198198185,
      "lat": 12.9785979,
      "lon": 77.6417142,
      "tags": {
        "amenity": "atm",
        "brand": "Citibank",
        "brand:wikidata": "Q857063",
        "fee": "CITI Bank ATM",
        "name": "Citibank",
        "name:kn": "ಸಿಟಿಬ್ಯಾಂಕ್",
        "operator": "Citibank",
        "operator:wikidata": "Q857063",
        "short_name": "Citi"
      }
    },
    {
      "type": "node",
      "id": 2198227768,
      "lat": 12.9785966,
      "lon": 77.6416464,
      "tags": {
        "name": "Mobile Store",
        "shop": "convenience"
      }
    },
    {
      "type": "node",
      "id": 2198260998,
      "lat": 12.9781244,
      "lon": 77.6412763,
      "tags": {
        "amenity": "fountain"
      }
    },
    {
      "type": "node",
      "id": 2198260999,
      "lat": 12.9778055,
      "lon": 77.641338,
      "tags": {
        "amenity": "bench",
        "backrest": "yes"
      }
    },
    {
      "type": "node",
      "id": 2198261001,
      "lat": 12.9779043,
      "lon": 77.6414673,
      "tags": {
        "amenity": "bench",
        "backrest": "yes"
      }
    },
    {
      "type": "node",
      "id": 2198288187,
      "lat": 12.9776993,
      "lon": 77.6411427,
      "tags": {
        "addr:street": "Old Syndicate Bank Road",
        "air_conditioning": "no",
        "amenity": "fast_food",
        "check_date": "2025-06-16",
        "cuisine": "indian",
        "diet:vegetarian": "only",
        "internet_access": "no",
        "name": "99 Dosa",
        "name:kn": "೯೯ ದೋಸೆ",
        "payment:cards": "no",
        "payment:cash": "yes",
        "payment:credit_cards": "no",
        "payment:debit_cards": "no",
        "source": "survey",
        "wheelchair": "yes"
      }
    },
    {
      "type": "node",
      "id": 2198288204,
      "lat": 12.978669,
      "lon": 77.6440415,
      "tags": {
        "addr:street": "Chinmaya Mission Hospital Road",
        "amenity": "restaurant",
        "diet:vegetarian": "only",
        "name": "Mast Kalander",
        "name:kn": "ಮಸ್ತ್ ಕಲಂದರ್"
      }
    },
    {
      "type": "node",
      "id": 2198288211,
      "lat": 12.9782524,
      "lon": 77.6429753,
      "tags": {
        "branch": "Mobile",
        "brand": "Samsung",
        "brand:wikidata": "Q20718",
        "name": "Samsung",
        "shop": "electronics"
      }
    },
    {
      "type": "node",
      "id": 2271731924,
      "lat": 12.9776613,
      "lon": 77.6416286,
      "tags": {
        "addr:street": "1st Cross Road",
        "amenity": "fast_food",
        "name": "Momo"
      }
    },
    {
      "type": "node",
      "id": 2309203423,
      "lat": 12.9779398,
      "lon": 77.6443888,
      "tags": {
        "name": "Decor Destination",
        "shop": "furniture"
      }
    },
    {
      "type": "node",
      "id": 2312872639,
      "lat": 12.9786968,
      "lon": 77.638473,
      "tags": {
        "amenity": "pharmacy",
        "name": "Sri Sai Pharma"
      }
    },
    {
      "type": "node",
      "id": 2619404185,
      "lat": 12.976532,
      "lon": 77.640741,
      "tags": {
        "brand": "Samsung",
        "brand:wikidata": "Q20718",
        "brand:wikipedia": "en:Samsung Electronics",
        "name": "Samsung",
        "name:kn": "ಸ್ಯಾಮ್‌ಸಂಗ್",
        "shop": "electronics"
      }
    },
    {
      "type": "node",
      "id": 2901080141,
      "lat": 12.9714443,
      "lon": 77.6350673,
      "tags": {
        "amenity": "restaurant",
        "name": "Khan Saheb"
      }
    },
    {
      "type": "node",
      "id": 3016052471,
      "lat": 12.9741271,
      "lon": 77.6455425,
      "tags": {
        "amenity": "diagnostic_centre",
        "name": "Vijaya Diagnostic Center",
        "note": "Diagnostic tests",
        "source": "survey"
      }
    },
    {
      "type": "node",
      "id": 3016090371,
      "lat": 12.9719534,
      "lon": 77.641362,
      "tags": {
        "amenity": "bank",
        "atm": "no",
        "brand": "State Bank of India",
        "brand:wikidata": "Q1340361",
        "brand:wikipedia": "en:State Bank of India",
        "check_date": "2023-10-08",
        "name": "State Bank of India",
        "name:kn": "ಭಾರತೀಯ ಸ್ಟೇಟ್ ಬ್ಯಾಂಕ್",
        "operator": "State bank of India",
        "short_name": "SBI"
      }
    },
    {
      "type": "node",
      "id": 3198716239,
      "lat": 12.9662697,
      "lon": 77.6361076,
      "tags": {
        "addr:street": "3rd Cross Road",
        "amenity": "kindergarten",
        "name": "Jamati Montessri"
      }
    },
    {
      "type": "node",
      "id": 3198716241,
      "lat": 12.9661149,
      "lon": 77.6363934,
      "tags": {
        "addr:street": "3rd Cross Road",
        "amenity": "clinic",
        "name": "Ojus Medicare"
      }
    },
    {
      "type": "node",
      "id": 3198716242,
      "lat": 12.9661911,
      "lon": 77.636518,
      "tags": {
        "addr:street": "3rd Cross Road",
        "amenity": "kindergarten",
        "name": "Rainbow Playschool"
      }
    },
    {
      "type": "node",
      "id": 3198981167,
      "lat": 12.9772096,
      "lon": 77.639037,
      "tags": {
        "amenity": "bank",
        "atm": "yes",
        "name": "Central Bank"
      }
    },
    {
      "type": "node",
      "id": 3198992833,
      "lat": 12.9773806,
      "lon": 77.6389902,
      "tags": {
        "amenity": "bank",
        "atm": "yes",
        "brand": "Punjab National Bank",
        "brand:wikidata": "Q2743499",
        "name": "Punjab National Bank",
        "name:kn": "ಪಂಜಾಬ ರಾಷ್ಟ್ರೀಯ ಬ್ಯಾಂಕ್"
      }
    },
    {
      "type": "node",
      "id": 3214129173,
      "lat": 12.9781152,
      "lon": 77.6369674,
      "tags": {
        "name": "Smart Line",
        "shop": "clothes"
      }
    },
    {
      "type": "node",
      "id": 3280223481,
      "lat": 12.9671468,
      "lon": 77.6412417,
      "tags": {
        "amenity": "pub",
        "contact:instagram": "senditbob",
        "delivery": "yes",
        "name": "Bob's Bar",
        "outdoor_seating": "yes",
        "takeaway": "yes",
        "toilets": "yes"
      }
    },
    {
      "type": "node",
      "id": 3309380179,
      "lat": 12.9821515,
      "lon": 77.6387449,
      "tags": {
        "amenity": "atm",
        "brand": "Axis Bank",
        "brand:wikidata": "Q2003549",
        "name": "Axis Bank",
        "name:kn": "ಅಕ್ಸಿಸ್ ಬ್ಯಾಂಕ್",
        "operator": "Axis Bank",
        "operator:wikidata": "Q2003549"
      }
    },
    {
      "type": "node",
      "id": 3362040053,
      "lat": 12.9673907,
      "lon": 77.6420498,
      "tags": {
        "amenity": "dentist",
        "healthcare": "dentist",
        "name": "Dr.Paul's Dental Healthcare"
      }
    },
    {
      "type": "node",
      "id": 3362040055,
      "lat": 12.9676644,
      "lon": 77.6429248,
      "tags": {
        "amenity": "clinic",
        "healthcare": "clinic",
        "name": "Indiranagar Specialist Center",
        "operator": "Private"
      }
    },
    {
      "type": "node",
      "id": 3369857851,
      "lat": 12.9805426,
      "lon": 77.6405571,
      "tags": {
        "amenity": "restaurant",
        "name": "MTR 1924",
        "wheelchair": "yes"
      }
    },
    {
      "type": "node",
      "id": 3369884079,
      "lat": 12.9781461,
      "lon": 77.6417223,
      "tags": {
        "addr:street": "Chinmaya Mission Hospital Road",
        "shop": "motorcycle"
      }
    },
    {
      "type": "node",
      "id": 3369890731,
      "lat": 12.9781425,
      "lon": 77.6387579,
      "tags": {
        "addr:street": "Chinmaya Mission Hospital Road",
        "amenity": "cafe",
        "brand": "Cafe Coffee Day",
        "brand:wikidata": "Q5017235",
        "brand:wikipedia": "en:Café Coffee Day",
        "cuisine": "coffee_shop",
        "diet:vegetarian": "yes",
        "internet_access": "wlan",
        "name": "Cafe Coffee Day",
        "name:kn": "ಕಫೆ ಕಾಫಿ ಡೇ",
        "takeaway": "yes"
      }
    },
    {
      "type": "node",
      "id": 3369890732,
      "lat": 12.9781375,
      "lon": 77.638642,
      "tags": {
        "addr:city": "Bangalore",
        "addr:postcode": "560038",
        "addr:street": "Chinmaya Mission Hospital Road",
        "amenity": "restaurant",
        "capacity": "60",
        "cuisine": "indian",
        "diet:vegetarian": "yes",
        "name": "Tadka Singh",
        "opening_hours": "12:00-22:30",
        "phone": "+91 76761 21212",
        "smoking": "no",
        "website": "http://www.tadka-singh.in/"
      }
    },
    {
      "type": "node",
      "id": 3369894894,
      "lat": 12.9758255,
      "lon": 77.6447678,
      "tags": {
        "amenity": "toilets"
      }
    },
    {
      "type": "node",
      "id": 3369894895,
      "lat": 12.975857,
      "lon": 77.6444886,
      "tags": {
        "amenity": "recycling",
        "recycling_type": "centre"
      }
    },
    {
      "type": "node",
      "id": 3369898146,
      "lat": 12.9753399,
      "lon": 77.638329,
      "tags": {
        "amenity": "place_of_worship",
        "name": "Sri Shaneshwara Sai Temple",
        "religion": "hindu"
      }
    },
    {
      "type": "node",
      "id": 3369902068,
      "lat": 12.9790015,
      "lon": 77.6369614,
      "tags": {
        "shop": "florist"
      }
    },
    {
      "type": "node",
      "id": 3369906181,
      "lat": 12.9812255,
      "lon": 77.6368206,
      "tags": {
        "name": "Time Pass",
        "name:kn": "ಟೈಂ ಪಾಸ್",
        "shop": "convenience"
      }
    },
    {
      "type": "node",
      "id": 3369909138,
      "lat": 12.9767331,
      "lon": 77.6365444,
      "tags": {
        "addr:street": "Indiranagar Double Road",
        "amenity": "dentist",
        "healthcare": "dentist",
        "name": "Mascot Speciality Dental Clinic"
      }
    },
    {
      "type": "node",
      "id": 3369909139,
      "lat": 12.9758453,
      "lon": 77.636445,
      "tags": {
        "addr:housenumber": "#778",
        "leisure": "sports_centre",
        "name": "Stay Fit"
      }
    },
    {
      "type": "node",
      "id": 3369921219,
      "lat": 12.9757846,
      "lon": 77.6361056,
      "tags": {
        "addr:housenumber": "1312",
        "addr:street": "Indiranagar Double Road",
        "amenity": "bank",
        "brand": "Punjab & Sind Bank",
        "brand:en": "Punjab & Sind Bank",
        "brand:hi": "पंजाब एण्ड सिंध बैंक",
        "brand:ur": "پنجاب اینڈ سندھ بینک",
        "brand:website": "https://punjabandsindbank.co.in/",
        "brand:wikidata": "Q2003302",
        "name": "Punjab & Sind Bank",
        "name:en": "Punjab & Sind Bank",
        "name:hi": "पंजाब एण्ड सिंध बैंक",
        "name:pa": "ਪੰਜਾਬ ਐਂਡ ਸਿੰਧ ਬੈਂਕ",
        "name:ur": "پنجاب اینڈ سندھ بینک"
      }
    },
    {
      "type": "node",
      "id": 3369932146,
      "lat": 12.97857,
      "lon": 77.6406932,
      "tags": {
        "name": "The Mobile Store Lounge",
        "shop": "mobile_phone"
      }
    },
    {
      "type": "node",
      "id": 3369932147,
      "lat": 12.9794797,
      "lon": 77.6406313,
      "tags": {
        "name": "drops total spirits",
        "shop": "tobacco",
        "wheelchair": "limited"
      }
    },
    {
      "type": "node",
      "id": 3369937900,
      "lat": 12.978243,
      "lon": 77.6404269,
      "tags": {
        "amenity": "police",
        "check_date": "2025-08-15",
        "name": "Indiranagar Traffic Police Station"
      }
    },
    {
      "type": "node",
      "id": 3369937901,
      "lat": 12.9782505,
      "lon": 77.6405667,
      "tags": {
        "addr:street": "Chinmaya Mission Hospital Road",
        "name": "Spice Hotspot",
        "shop": "electronics"
      }
    },
    {
      "type": "node",
      "id": 3369940348,
      "lat": 12.9810232,
      "lon": 77.637136,
      "tags": {
        "branch": "Select",
        "brand": "Bridgestone",
        "brand:wikidata": "Q179433",
        "craft": "car_repair",
        "name": "Bridgestone",
        "name:kn": "ಬ್ರಿಡ್ಜ್‌ಸ್ಟೋನ್ ಸೆಲೆಕ್ಟ್",
        "shop": "tyres"
      }
    },
    {
      "type": "node",
      "id": 3369940349,
      "lat": 12.9810472,
      "lon": 77.6371441,
      "tags": {
        "addr:city": "Bangalore",
        "addr:housenumber": "218",
        "addr:postcode": "560038",
        "addr:street": "Indiranagar Double Road",
        "amenity": "restaurant",
        "brand": "Chinita",
        "brand:wikidata": "Q124374771",
        "capacity": "40",
        "cuisine": "mexican",
        "delivery": "yes",
        "name": "Chinita",
        "name:kn": "ಚಿನಿಟ",
        "opening_hours": "Tu-Su 12:30-15:30,19:30-23:00",
        "phone": "+91 96865 51896",
        "smoking": "no",
        "takeaway": "yes",
        "website": "https://www.chinita.in/"
      }
    },
    {
      "type": "node",
      "id": 3369940351,
      "lat": 12.9811616,
      "lon": 77.6371262,
      "tags": {
        "addr:street": "2nd Main",
        "amenity": "restaurant",
        "capacity": "100",
        "cuisine": "regional",
        "name": "Paakashala",
        "outdoor_seating": "no",
        "smoking": "no"
      }
    },
    {
      "type": "node",
      "id": 3369957255,
      "lat": 12.9789322,
      "lon": 77.6393645,
      "tags": {
        "amenity": "studio",
        "leisure": "dance",
        "name": "Dance Lab",
        "phone": "9845189281"
      }
    },
    {
      "type": "node",
      "id": 3369957256,
      "lat": 12.9789913,
      "lon": 77.6393703,
      "tags": {
        "name": "First Look Color & Style Salon",
        "phone": "08041222623",
        "shop": "hairdresser",
        "website": "http://www.firstlooksalons.com"
      }
    },
    {
      "type": "node",
      "id": 3369957258,
      "lat": 12.9797703,
      "lon": 77.6393433,
      "tags": {
        "amenity": "restaurant",
        "name": "Dosa Camp"
      }
    },
    {
      "type": "node",
      "id": 3369957259,
      "lat": 12.9792701,
      "lon": 77.6393682,
      "tags": {
        "amenity": "college",
        "name": "Kairalee Nikethan Education Trust"
      }
    },
    {
      "type": "node",
      "id": 3369957261,
      "lat": 12.9796946,
      "lon": 77.6393466,
      "tags": {
        "name": "Sri Lakshmi Venkateshwara Stationery & Condiments",
        "shop": "stationery"
      }
    },
    {
      "type": "node",
      "id": 3370003811,
      "lat": 12.9788158,
      "lon": 77.6365941,
      "tags": {
        "amenity": "restaurant",
        "cuisine": "Chettinad",
        "name": "Adupadi"
      }
    },
    {
      "type": "node",
      "id": 3370003812,
      "lat": 12.9783847,
      "lon": 77.6366104,
      "tags": {
        "name": "Famous Electronics",
        "shop": "electronics"
      }
    },
    {
      "type": "node",
      "id": 3370003813,
      "lat": 12.9792133,
      "lon": 77.6367087,
      "tags": {
        "amenity": "bank",
        "atm": "yes",
        "name": "Lakshmi Vilas Bank",
        "name:kn": "ಲಕ್ಷ್ಮಿ ವಿಲಾಸ ಬಾಂಕ್"
      }
    },
    {
      "type": "node",
      "id": 3370005706,
      "lat": 12.9757769,
      "lon": 77.6435288,
      "tags": {
        "amenity": "post_box"
      }
    },
    {
      "type": "node",
      "id": 3370020255,
      "lat": 12.9781775,
      "lon": 77.6422383,
      "tags": {
        "addr:street": "Chinmaya Mission Hospital Road",
        "name": "Chumbak",
        "shop": "gift",
        "wheelchair": "no"
      }
    },
    {
      "type": "node",
      "id": 3370020256,
      "lat": 12.9781816,
      "lon": 77.6426659,
      "tags": {
        "amenity": "pharmacy",
        "healthcare": "pharmacy",
        "name": "Himalaya"
      }
    },
    {
      "type": "node",
      "id": 3370020257,
      "lat": 12.9782871,
      "lon": 77.6426631,
      "tags": {
        "amenity": "restaurant",
        "cuisine": "indian",
        "name": "Lajawaab"
      }
    },
    {
      "type": "node",
      "id": 3370020258,
      "lat": 12.9783091,
      "lon": 77.6431202,
      "tags": {
        "name": "Nokia Care",
        "shop": "electronics"
      }
    },
    {
      "type": "node",
      "id": 3370020259,
      "lat": 12.9782063,
      "lon": 77.6431582,
      "tags": {
        "amenity": "restaurant",
        "cuisine": "indian",
        "name": "Rasa India"
      }
    },
    {
      "type": "node",
      "id": 3370023217,
      "lat": 12.9818761,
      "lon": 77.6392402,
      "tags": {
        "amenity": "post_office",
        "name": "First Flight Couriers Ltd.",
        "website": "https://firstflight.net/"
      }
    },
    {
      "type": "node",
      "id": 3370023218,
      "lat": 12.9816228,
      "lon": 77.6392476,
      "tags": {
        "amenity": "fast_food",
        "name": "Nakshatra Condiments Mess & Fast Food"
      }
    },
    {
      "type": "node",
      "id": 3370023222,
      "lat": 12.9817781,
      "lon": 77.6392319,
      "tags": {
        "addr:city": "Bangalore",
        "addr:housenumber": "3",
        "addr:postcode": "560038",
        "addr:street": "9th Cross",
        "amenity": "post_office",
        "name": "The Professional Couriers"
      }
    },
    {
      "type": "node",
      "id": 3370023223,
      "lat": 12.9816772,
      "lon": 77.6392319,
      "tags": {
        "addr:city": "Bangalore",
        "addr:housenumber": "2",
        "addr:postcode": "560038",
        "addr:street": "9th Cross",
        "name": "Woofs & Meows",
        "phone": "919886645468",
        "shop": "pet"
      }
    },
    {
      "type": "node",
      "id": 3370028599,
      "lat": 12.9783994,
      "lon": 77.6443108,
      "tags": {
        "addr:street": "Chinmaya Mission Hospital Road",
        "amenity": "restaurant",
        "cuisine": "german",
        "name": "Cafe Max"
      }
    },
    {
      "type": "node",
      "id": 3370028600,
      "lat": 12.9782063,
      "lon": 77.6443594,
      "tags": {
        "amenity": "library",
        "name": "Max Muller Bhavan",
        "name:kn": "ಮಾಕ್ಸ್ ಮುಲ್ಲರ್ ಭವನ"
      }
    },
    {
      "type": "node",
      "id": 3370028601,
      "lat": 12.978257,
      "lon": 77.6443355,
      "tags": {
        "addr:street": "Chinmaya Mission Hospital Road",
        "amenity": "theatre",
        "name": "Max Muller Bhavan",
        "name:kn": "ಮಾಕ್ಸ್ ಮುಲ್ಲರ್ ಭವನ"
      }
    },
    {
      "type": "node",
      "id": 3370028613,
      "lat": 12.9774833,
      "lon": 77.6390511,
      "tags": {
        "name": "Cruise and Travel",
        "shop": "travel_agency"
      }
    },
    {
      "type": "node",
      "id": 3370028964,
      "lat": 12.9787352,
      "lon": 77.6370118,
      "tags": {
        "amenity": "bank",
        "atm": "yes",
        "brand": "Bank of Baroda",
        "brand:wikidata": "Q2003797",
        "brand:wikipedia": "en:Bank of Baroda",
        "name": "Bank of Baroda",
        "name:en": "Bank of Baroda",
        "name:kn": "ಬ್ಯಾಂಕ್ ಆಫ್ ಬರೊಡಾ",
        "short_name": "BoB",
        "website": "http://www.bankofbaroda.com"
      }
    },
    {
      "type": "node",
      "id": 3370028965,
      "lat": 12.978961,
      "lon": 77.636588,
      "tags": {
        "amenity": "restaurant",
        "check_date": "2024-10-01",
        "cuisine": "Calcutta",
        "name": "Esplanade"
      }
    },
    {
      "type": "node",
      "id": 3370028966,
      "lat": 12.9786317,
      "lon": 77.636934,
      "tags": {
        "name": "Himalayan Gift Store",
        "shop": "gift"
      }
    },
    {
      "type": "node",
      "id": 3370028967,
      "lat": 12.9783896,
      "lon": 77.637303,
      "tags": {
        "name": "Kartik's Mithai Shoppe",
        "shop": "confectionery"
      }
    },
    {
      "type": "node",
      "id": 3370028968,
      "lat": 12.9784409,
      "lon": 77.6375845,
      "tags": {
        "addr:district": "Bengaluru Urban",
        "addr:full": "No. 324, Cmh Road Indiranagar 1st Stage Next To Vijaya Bank Building",
        "addr:postcode": "560038",
        "addr:state": "Karnataka",
        "amenity": "hospital",
        "healthcare": "hospital",
        "name": "Motherhood Hospital(Unit Of Rhea Healthcare Pvt Ltd)",
        "name:kn": "ಮದರ್‌ಹುಡ್",
        "source": "OpenGovernmentData"
      }
    },
    {
      "type": "node",
      "id": 3370028970,
      "lat": 12.9784108,
      "lon": 77.6370964,
      "tags": {
        "branch": "Mobile Store",
        "brand": "Samsung",
        "brand:wikidata": "Q20718",
        "name": "Samsung",
        "shop": "electronics"
      }
    },
    {
      "type": "node",
      "id": 3370028972,
      "lat": 12.9784149,
      "lon": 77.6370616,
      "tags": {
        "name": "The Wearhouse",
        "shop": "clothes"
      }
    },
    {
      "type": "node",
      "id": 3370043509,
      "lat": 12.9786044,
      "lon": 77.6387723,
      "tags": {
        "name": "Dhanya",
        "opening_hours": "Mo-Sa 11:00-20:30",
        "shop": "stationery"
      }
    },
    {
      "type": "node",
      "id": 3370054594,
      "lat": 12.9782563,
      "lon": 77.6447177,
      "tags": {
        "addr:street": "Chinmaya Mission Hospital Road",
        "leisure": "sports_centre",
        "name": "Healing Arts Centre"
      }
    },
    {
      "type": "node",
      "id": 3370054596,
      "lat": 12.9782252,
      "lon": 77.644835,
      "tags": {
        "addr:street": "Chinmaya Mission Hospital Road",
        "brand": "Thomas Cook",
        "brand:wikidata": "Q2141800",
        "brand:wikipedia": "en:Thomas Cook Group",
        "name": "Thomas Cook",
        "name:kn": "ತೋಮಸ್ ಕುಕ್",
        "shop": "travel_agency"
      }
    },
    {
      "type": "node",
      "id": 3370054597,
      "lat": 12.9782601,
      "lon": 77.6448569,
      "tags": {
        "name": "YLG Salon & Spa",
        "shop": "hairdresser"
      }
    },
    {
      "type": "node",
      "id": 3370055419,
      "lat": 12.9819953,
      "lon": 77.6392223,
      "tags": {
        "name": "MedPlus",
        "name:kn": "ಮೆಡ್ ಪ್ಲಸ್",
        "shop": "chemist"
      }
    },
    {
      "type": "node",
      "id": 3370055424,
      "lat": 12.98229,
      "lon": 77.6395362,
      "tags": {
        "name": "Airtel",
        "name:kn": "ಏರ್ಟೆಲ್",
        "shop": "mobile_phone"
      }
    },
    {
      "type": "node",
      "id": 3370083355,
      "lat": 12.9823857,
      "lon": 77.6380474,
      "tags": {
        "amenity": "bank",
        "atm": "yes",
        "brand": "Canara Bank",
        "brand:en": "Canara Bank",
        "brand:hi": "केनरा बैंक",
        "brand:kn": "ಕೆನರಾ ಬ್ಯಾಂಕ್",
        "brand:pa": "ਕੇਨਰਾ ਬੈਂਕ",
        "brand:pnb": "کینرا بینک",
        "brand:ur": "کینرا بینک",
        "brand:wikidata": "Q2003777",
        "brand:wikipedia": "en:Canara Bank",
        "brand:wikipedia:pa": "ਕੇਨਰਾ ਬੈਂਕ",
        "name": "Canara Bank",
        "name:en": "Canara Bank",
        "name:hi": "केनरा बैंक",
        "name:kn": "ಕೆನರಾ ಬ್ಯಾಂಕ್",
        "name:pa": "ਕੇਨਰਾ ਬੈਂਕ",
        "name:pnb": "کینرا بینک",
        "name:ur": "کینرا بینک",
        "website": "https://www.canarabank.com/"
      }
    },
    {
      "type": "node",
      "id": 3370083356,
      "lat": 12.9823745,
      "lon": 77.6378264,
      "tags": {
        "amenity": "bank",
        "atm": "yes",
        "brand": "Punjab National Bank",
        "brand:wikidata": "Q2743499",
        "name": "Punjab National Bank",
        "name:en": "Punjab National Bank",
        "name:kn": "ಪಂಜಾಬ ರಾಷ್ಟ್ರೀಯ ಬ್ಯಾಂಕ್",
        "short_name": "PNB",
        "website": "https://www.pnbindia.in"
      }
    },
    {
      "type": "node",
      "id": 3370084884,
      "lat": 12.9783475,
      "lon": 77.6452371,
      "tags": {
        "addr:city": "Bengaluru",
        "addr:housenumber": "#723",
        "addr:postcode": "560038",
        "addr:street": "1st Floor, Chinmaya Mission Hospital Road, 1st Stage, Indira Nagar, Above Siemens Showroom",
        "amenity": "clinic",
        "name": "Nationwide",
        "phone": "080 4121 5150"
      }
    },
    {
      "type": "node",
      "id": 3370092496,
      "lat": 12.9781403,
      "lon": 77.6361744,
      "tags": {
        "name": "Boots",
        "shop": "shoes"
      }
    },
    {
      "type": "node",
      "id": 3370092498,
      "lat": 12.9781069,
      "lon": 77.6359334,
      "tags": {
        "addr:street": "Chinmaya Mission Hospital Road",
        "brand": "Manyavar",
        "brand:wikidata": "Q24906783",
        "name": "Manyavar",
        "shop": "clothes"
      }
    },
    {
      "type": "node",
      "id": 3370092500,
      "lat": 12.9788527,
      "lon": 77.6363096,
      "tags": {
        "name": "Sri Krishna Sweets",
        "shop": "confectionery"
      }
    },
    {
      "type": "node",
      "id": 3370094147,
      "lat": 12.9780057,
      "lon": 77.6431739,
      "tags": {
        "amenity": "school",
        "name": "Casa de Bambeino Montessori"
      }
    },
    {
      "type": "node",
      "id": 3370095850,
      "lat": 12.9773153,
      "lon": 77.6411712,
      "tags": {
        "addr:street": "100 Feet Road(S K Karim Khan Road)",
        "name": "River",
        "shop": "motorcycle",
        "wheelchair": "no"
      }
    },
    {
      "type": "node",
      "id": 3370102640,
      "lat": 12.977381,
      "lon": 77.6412653,
      "tags": {
        "leisure": "fitness_centre"
      }
    },
    {
      "type": "node",
      "id": 3370102641,
      "lat": 12.9772751,
      "lon": 77.641272,
      "tags": {
        "amenity": "bank",
        "atm": "yes",
        "brand": "Canara Bank",
        "brand:en": "Canara Bank",
        "brand:hi": "केनरा बैंक",
        "brand:kn": "ಕೆನರಾ ಬ್ಯಾಂಕ್",
        "brand:pa": "ਕੇਨਰਾ ਬੈਂਕ",
        "brand:pnb": "کینرا بینک",
        "brand:ur": "کینرا بینک",
        "brand:wikidata": "Q2003777",
        "brand:wikipedia": "en:Syndicate Bank",
        "name": "Canara Bank",
        "name:en": "Canara Bank",
        "name:hi": "केनरा बैंक",
        "name:kn": "ಕೆನರಾ ಬ್ಯಾಂಕ್",
        "name:pa": "ਕੇਨਰਾ ਬੈਂਕ",
        "name:pnb": "کینرا بینک",
        "name:ur": "کینرا بینک",
        "website": "https://www.syndicatebank.in"
      }
    },
    {
      "type": "node",
      "id": 3370103263,
      "lat": 12.9774886,
      "lon": 77.6441388,
      "tags": {
        "addr:housenumber": "277",
        "leisure": "sports_centre",
        "name": "Total Yoga",
        "sport": "yoga"
      }
    },
    {
      "type": "node",
      "id": 3370115616,
      "lat": 12.9821416,
      "lon": 77.6395695,
      "tags": {
        "name": "Cut & Create Unisex Salon",
        "shop": "hairdresser"
      }
    },
    {
      "type": "node",
      "id": 3370115618,
      "lat": 12.9821282,
      "lon": 77.6395715,
      "tags": {
        "amenity": "restaurant",
        "name": "Istanbul Doner Turkish Grill"
      }
    },
    {
      "type": "node",
      "id": 3370115620,
      "lat": 12.9816712,
      "lon": 77.6402228,
      "tags": {
        "addr:city": "Bangalore",
        "addr:housenumber": "264",
        "addr:street": "6th Cross",
        "name": "N.R. Bombay Ladies Taylor",
        "shop": "tailor"
      }
    },
    {
      "type": "node",
      "id": 3370164256,
      "lat": 12.9736663,
      "lon": 77.642755,
      "tags": {
        "addr:street": "6th Main Road",
        "name": "Citizen",
        "payment:credit_cards": "yes",
        "payment:debit_cards": "yes",
        "shop": "watches"
      }
    },
    {
      "type": "node",
      "id": 3370164257,
      "lat": 12.9737223,
      "lon": 77.6435195,
      "tags": {
        "amenity": "dentist",
        "name": "Ivory Dental Care"
      }
    },
    {
      "type": "node",
      "id": 3370164258,
      "lat": 12.9752448,
      "lon": 77.6437883,
      "tags": {
        "addr:street": "4th Main Road",
        "amenity": "clinic",
        "name": "Maple Clinic"
      }
    },
    {
      "type": "node",
      "id": 3370164259,
      "lat": 12.9737407,
      "lon": 77.6421569,
      "tags": {
        "amenity": "spa",
        "name": "O2 Spa"
      }
    },
    {
      "type": "node",
      "id": 3370164260,
      "lat": 12.9737172,
      "lon": 77.6435692,
      "tags": {
        "amenity": "clinic",
        "healthcare": "clinic",
        "name": "Rajan's Speech & Hearing Center",
        "payment:credit_cards": "yes",
        "payment:debit_cards": "yes",
        "shop": "hearing_aids"
      }
    },
    {
      "type": "node",
      "id": 3370164261,
      "lat": 12.9737687,
      "lon": 77.643565,
      "tags": {
        "amenity": "clinic",
        "check_date": "2023-10-08",
        "healthcare": "clinic",
        "name": "Retina Clinic"
      }
    },
    {
      "type": "node",
      "id": 3370164262,
      "lat": 12.9737944,
      "lon": 77.6435121,
      "tags": {
        "name": "Sakhin",
        "payment:credit_cards": "yes",
        "payment:debit_cards": "yes",
        "shop": "clothes"
      }
    },
    {
      "type": "node",
      "id": 3370164263,
      "lat": 12.9738071,
      "lon": 77.6432342,
      "tags": {
        "addr:street": "6th Main Road",
        "name": "Shree Mithai",
        "shop": "confectionery"
      }
    },
    {
      "type": "node",
      "id": 3370167135,
      "lat": 12.9737451,
      "lon": 77.6415863,
      "tags": {
        "amenity": "school",
        "name": "DQ Labs"
      }
    },
    {
      "type": "node",
      "id": 3370171472,
      "lat": 12.9808875,
      "lon": 77.6391191,
      "tags": {
        "amenity": "dentist",
        "name": "Dental Care Centre"
      }
    },
    {
      "type": "node",
      "id": 3370171473,
      "lat": 12.9804418,
      "lon": 77.6391466,
      "tags": {
        "amenity": "restaurant",
        "cuisine": "indian",
        "name": "Durga Andhra Mess (Veg/Non-Veg)",
        "name:kn": "ದುರ್ಗ ಆಂದ್ರ ಮೆಸ್"
      }
    },
    {
      "type": "node",
      "id": 3370171475,
      "lat": 12.9822114,
      "lon": 77.6391056,
      "tags": {
        "amenity": "restaurant",
        "name": "Food Town"
      }
    },
    {
      "type": "node",
      "id": 3370171478,
      "lat": 12.9821708,
      "lon": 77.6391056,
      "tags": {
        "amenity": "juice_bar",
        "name": "Kwality Juice Center"
      }
    },
    {
      "type": "node",
      "id": 3370171479,
      "lat": 12.9788524,
      "lon": 77.6391984,
      "tags": {
        "amenity": "community_centre",
        "name": "Parimala Sabhangana"
      }
    },
    {
      "type": "node",
      "id": 3370171480,
      "lat": 12.9820581,
      "lon": 77.6396986,
      "tags": {
        "amenity": "pharmacy",
        "name": "Sagar Ayur Pharma"
      }
    },
    {
      "type": "node",
      "id": 3370171481,
      "lat": 12.978665,
      "lon": 77.6392036,
      "tags": {
        "amenity": "place_of_worship",
        "check_date": "2025-08-15",
        "name": "Shri Aanjaneya Swamy Temple",
        "name:kn": "ಅಂಜನೇಯ ಸ್ವಾಮಿ ದೇವಸ್ಥಾನ",
        "religion": "hindu"
      }
    },
    {
      "type": "node",
      "id": 3370171482,
      "lat": 12.9787513,
      "lon": 77.6392057,
      "tags": {
        "amenity": "place_of_worship",
        "name": "Shri Venkateshwara Temple",
        "name:kn": "ವೆಂಕಟೇಶ್ವರ ದೇವಸ್ಥಾನ",
        "religion": "hindu"
      }
    },
    {
      "type": "node",
      "id": 3370189993,
      "lat": 12.9739797,
      "lon": 77.6414178,
      "tags": {
        "addr:street": "6th Main Road",
        "name": "Cross Currents",
        "shop": "clothes"
      }
    },
    {
      "type": "node",
      "id": 3370230942,
      "lat": 12.9820577,
      "lon": 77.6404784,
      "tags": {
        "amenity": "dentist",
        "name": "Athos",
        "phone": "7813004040",
        "website": "http://www.athoz.org"
      }
    },
    {
      "type": "node",
      "id": 3370230944,
      "lat": 12.9791963,
      "lon": 77.6403166,
      "tags": {
        "amenity": "dentist",
        "check_date": "2023-10-07",
        "name": "Beyond Smiles",
        "opening_hours": "Mo-Sa 09:00-21:00",
        "phone": "08025281309"
      }
    },
    {
      "type": "node",
      "id": 3370230949,
      "lat": 12.9808189,
      "lon": 77.6409999,
      "tags": {
        "amenity": "fast_food",
        "cuisine": "chicken",
        "name": "Five Star Cafe"
      }
    },
    {
      "type": "node",
      "id": 3370230950,
      "lat": 12.9815418,
      "lon": 77.6410162,
      "tags": {
        "amenity": "post_office",
        "check_date": "2025-03-12",
        "name": "India Post",
        "name:kn": "ಅಂಚೆ ಕಛೇರಿ",
        "operator": "India Post",
        "operator:wikidata": "Q3519720",
        "postal_code": "560038"
      }
    },
    {
      "type": "node",
      "id": 3370230955,
      "lat": 12.9786514,
      "lon": 77.6401219,
      "tags": {
        "name": "Positive Homeopathy",
        "shop": "chemist"
      }
    },
    {
      "type": "node",
      "id": 3370230956,
      "lat": 12.9790182,
      "lon": 77.6401145,
      "tags": {
        "name": "Pradeep Junior Tattoos",
        "shop": "tattoo",
        "website": "http://www.juniortattoos.com"
      }
    },
    {
      "type": "node",
      "id": 3370230959,
      "lat": 12.9810383,
      "lon": 77.6410084,
      "tags": {
        "leisure": "spa",
        "name": "Sparha",
        "shop": "beauty"
      }
    },
    {
      "type": "node",
      "id": 3370230961,
      "lat": 12.9789682,
      "lon": 77.640117,
      "tags": {
        "name": "kia",
        "shop": "clothes"
      }
    },
    {
      "type": "node",
      "id": 3370230962,
      "lat": 12.9801857,
      "lon": 77.641008,
      "tags": {
        "amenity": "bank",
        "name": "kotak"
      }
    },
    {
      "type": "node",
      "id": 3370230964,
      "lat": 12.9801511,
      "lon": 77.6410051,
      "tags": {
        "amenity": "atm"
      }
    },
    {
      "type": "node",
      "id": 3370242727,
      "lat": 12.9772794,
      "lon": 77.6379286,
      "tags": {
        "amenity": "dentist",
        "name": "Baba Dental care"
      }
    },
    {
      "type": "node",
      "id": 3370244392,
      "lat": 12.9762645,
      "lon": 77.6376528,
      "tags": {
        "amenity": "hospital",
        "healthcare": "hospital",
        "name": "Respiratory and womens health clinic."
      }
    },
    {
      "type": "node",
      "id": 3370279041,
      "lat": 12.9770253,
      "lon": 77.6362533,
      "tags": {
        "addr:street": "Indiranagar Double Road (Paramahansa Yogananda road)",
        "amenity": "school",
        "name": "CNK Reddy College of Business Management."
      }
    },
    {
      "type": "node",
      "id": 3370279042,
      "lat": 12.9772724,
      "lon": 77.636354,
      "tags": {
        "addr:street": "Indiranagar Double Road (Paramahansa Yogananda road)",
        "amenity": "money_transfer",
        "brand": "Western Union",
        "brand:wikidata": "Q861042",
        "brand:wikipedia": "en:Western Union",
        "name": "Western Union"
      }
    },
    {
      "type": "node",
      "id": 3370279043,
      "lat": 12.9774668,
      "lon": 77.6363765,
      "tags": {
        "addr:street": "Indiranagar Double Road (Paramahansa Yogananda road)",
        "amenity": "restaurant",
        "cuisine": "indian",
        "name": "Nagarjuna",
        "name:kn": "ನಾಗಾರ್ಜುನ"
      }
    },
    {
      "type": "node",
      "id": 3370279044,
      "lat": 12.9766951,
      "lon": 77.6362278,
      "tags": {
        "addr:street": "Indiranagar Double Road (Paramahansa Yogananda road)",
        "amenity": "hospital",
        "healthcare": "hospital",
        "name": "Rashmi Hospital",
        "name:kn": "ರಶ್ಮಿ ಆಸ್ಪತ್ರೆ"
      }
    },
    {
      "type": "node",
      "id": 3370279045,
      "lat": 12.9772103,
      "lon": 77.6363398,
      "tags": {
        "addr:street": "Indiranagar Double Road (Paramahansa Yogananda road)",
        "amenity": "bank",
        "brand": "Western Union",
        "brand:wikidata": "Q861042",
        "brand:wikipedia": "en:Western Union",
        "name": "Western Union"
      }
    },
    {
      "type": "node",
      "id": 3370279046,
      "lat": 12.9768501,
      "lon": 77.6363291,
      "tags": {
        "air_conditioning": "yes",
        "description": "Our focus is on design innovation and promotion of handcrafted products made by skilled artisans using natural inputs which sustains and preserves the environment. We are dedicated towards preserving rich and vibrant traditional Indian art.",
        "name": "Jute Cottage",
        "payment:all": "yes",
        "shop": "gift",
        "source": "survey;local knowledge;gps;aerial imagery",
        "website": "https://www.jutecottage.co.in/"
      }
    },
    {
      "type": "node",
      "id": 3370283251,
      "lat": 12.9755127,
      "lon": 77.6360648,
      "tags": {
        "addr:housenumber": "1314",
        "addr:street": "Indiranagar Double Road (Paramahansa Yogananda road)",
        "amenity": "restaurant",
        "name": "Imperial Restaurant"
      }
    },
    {
      "type": "node",
      "id": 3370283252,
      "lat": 12.9754268,
      "lon": 77.6359973,
      "tags": {
        "addr:housenumber": "1315",
        "addr:street": "Indiranagar Double Road",
        "amenity": "clinic",
        "healthcare": "clinic",
        "name": "Speciality Clinic"
      }
    },
    {
      "type": "node",
      "id": 3370287787,
      "lat": 12.9754222,
      "lon": 77.636333,
      "tags": {
        "addr:street": "Indiranagar Double Road (Paramahansa Yogananda road)",
        "amenity": "clinic",
        "healthcare": "clinic",
        "name": "Dr.Spine Clinic"
      }
    },
    {
      "type": "node",
      "id": 3370387995,
      "lat": 12.9736904,
      "lon": 77.6420995,
      "tags": {
        "name": "Monarch Ergonomics",
        "payment:credit_cards": "yes",
        "payment:debit_cards": "yes",
        "shop": "furniture"
      }
    },
    {
      "type": "node",
      "id": 3370453171,
      "lat": 12.9741726,
      "lon": 77.6357187,
      "tags": {
        "addr:housenumber": "58",
        "amenity": "bar",
        "name": "Aishwarya Bar N Restaurant"
      }
    },
    {
      "type": "node",
      "id": 3370453172,
      "lat": 12.97475,
      "lon": 77.635825,
      "tags": {
        "amenity": "restaurant",
        "cuisine": "indian",
        "name": "Annapoorani"
      }
    },
    {
      "type": "node",
      "id": 3370453173,
      "lat": 12.9734836,
      "lon": 77.6357281,
      "tags": {
        "amenity": "hospital",
        "healthcare": "hospital",
        "name": "Netradama Eye Hospital",
        "name:kn": "ನೇತ್ರಧಾಮ ಕಣ್ಣಿನ ಆಸ್ಪತ್ರೆ"
      }
    },
    {
      "type": "node",
      "id": 3370455929,
      "lat": 12.9742234,
      "lon": 77.6359937,
      "tags": {
        "amenity": "pharmacy",
        "healthcare": "pharmacy",
        "name": "Healing Touch Pharma"
      }
    },
    {
      "type": "node",
      "id": 3370455932,
      "lat": 12.9741296,
      "lon": 77.6359555,
      "tags": {
        "amenity": "atm",
        "brand": "Axis Bank",
        "brand:wikidata": "Q2003549",
        "name": "Axis Bank",
        "operator": "Axis Bank",
        "operator:wikidata": "Q2003549"
      }
    },
    {
      "type": "node",
      "id": 3370468050,
      "lat": 12.978098,
      "lon": 77.6368529,
      "tags": {
        "amenity": "bank",
        "atm": "yes",
        "brand": "HDFC Bank",
        "brand:wikidata": "Q631047",
        "brand:wikipedia": "en:HDFC Bank",
        "name": "HDFC Bank",
        "name:kn": "ಎಚ್ ಡಿ ಎಫ್ ಸಿ",
        "short_name": "HDFC",
        "website": "https://www.hdfcbank.com"
      }
    },
    {
      "type": "node",
      "id": 3371304648,
      "lat": 12.9801713,
      "lon": 77.6405925,
      "tags": {
        "amenity": "restaurant",
        "name": "Barebones"
      }
    },
    {
      "type": "node",
      "id": 3371304651,
      "lat": 12.9816267,
      "lon": 77.6404828,
      "tags": {
        "amenity": "bank",
        "atm": "yes",
        "brand": "Federal Bank",
        "brand:wikidata": "Q2044983",
        "brand:wikipedia": "en:Federal Bank",
        "name": "Federal Bank",
        "name:en": "Federal Bank",
        "name:kn": "ಫೆಡೆರಲ್ ಬ್ಯಾಂಕ್",
        "website": "https://www.federalbank.co.in"
      }
    },
    {
      "type": "node",
      "id": 3371304652,
      "lat": 12.9817742,
      "lon": 77.640521,
      "tags": {
        "amenity": "bank",
        "atm": "yes",
        "brand": "Karur Vysya Bank",
        "brand:wikidata": "Q6373724",
        "brand:wikipedia": "en:Karur Vysya Bank",
        "name": "Karur Vysya Bank",
        "name:en": "Karur Vysya Bank",
        "name:kn": "ಕರೂರು ವೈಶ್ಯ ಬ್ಯಾಂಕ್",
        "short_name": "KVB",
        "website": "https://www.kvb.co.in"
      }
    },
    {
      "type": "node",
      "id": 3374295114,
      "lat": 12.9742587,
      "lon": 77.6361742,
      "tags": {
        "name": "Oxford office solutions",
        "shop": "stationery"
      }
    },
    {
      "type": "node",
      "id": 3374315087,
      "lat": 12.977444,
      "lon": 77.6367467,
      "tags": {
        "amenity": "college",
        "name": "K M J College Of Nursing."
      }
    },
    {
      "type": "node",
      "id": 3374385320,
      "lat": 12.9774045,
      "lon": 77.6408075,
      "tags": {
        "brand": "Nike",
        "brand:wikidata": "Q483915",
        "brand:wikipedia": "en:Nike, Inc.",
        "name": "Nike",
        "shop": "clothes"
      }
    },
    {
      "type": "node",
      "id": 3374572371,
      "lat": 12.9758083,
      "lon": 77.6412599,
      "tags": {
        "addr:street": "100 Feet Road(S K Karim Khan Road)",
        "amenity": "clinic",
        "healthcare": "clinic",
        "name": "Qi Spine Clinic"
      }
    },
    {
      "type": "node",
      "id": 3380959471,
      "lat": 12.9821972,
      "lon": 77.6388396,
      "tags": {
        "amenity": "restaurant",
        "level": "1",
        "name": "Punjabi Rasoi",
        "website": "https://www.thepunjabirasoi.com/"
      }
    },
    {
      "type": "node",
      "id": 3389064655,
      "lat": 12.9803043,
      "lon": 77.6354911,
      "tags": {
        "amenity": "clinic",
        "name": "Anjana Diagnostics"
      }
    },
    {
      "type": "node",
      "id": 3389064656,
      "lat": 12.981424,
      "lon": 77.6353009,
      "tags": {
        "addr:housenumber": "532",
        "amenity": "bank",
        "atm": "yes",
        "brand": "UCO Bank",
        "brand:wikidata": "Q2005310",
        "brand:wikipedia": "en:UCO Bank",
        "name": "UCO Bank",
        "name:en": "UCO Bank",
        "name:kn": "ಯೂಕೊ ಬ್ಯಾಂಕ್",
        "old_name": "United Commercial Bank",
        "website": "https://www.ucobank.com"
      }
    },
    {
      "type": "node",
      "id": 3389088975,
      "lat": 12.9818148,
      "lon": 77.6359452,
      "tags": {
        "amenity": "courthouse",
        "name": "Karnataka Administrative Tribunal",
        "name:kn": "ಕರ್ನಟಕ ಆದಳೆತ ನ್ಯಾಯಮಂಡಳಿ"
      }
    },
    {
      "type": "node",
      "id": 3389094364,
      "lat": 12.9824741,
      "lon": 77.6381006,
      "tags": {
        "amenity": "college",
        "name": "Business Excellence Institute"
      }
    },
    {
      "type": "node",
      "id": 3389118174,
      "lat": 12.982417,
      "lon": 77.6383557,
      "tags": {
        "amenity": "dentist",
        "name": "Devaki Dental Clinic"
      }
    },
    {
      "type": "node",
      "id": 3389118175,
      "lat": 12.9826128,
      "lon": 77.638292,
      "tags": {
        "amenity": "fast_food",
        "name": "Indira Food Court"
      }
    },
    {
      "type": "node",
      "id": 3389118182,
      "lat": 12.9826636,
      "lon": 77.6386451,
      "tags": {
        "addr:housenumber": "631",
        "amenity": "doctors",
        "healthcare:speciality": "paediatrics",
        "name": "Dr NVS Krishnan"
      }
    },
    {
      "type": "node",
      "id": 3389118184,
      "lat": 12.9827342,
      "lon": 77.6396804,
      "tags": {
        "addr:housenumber": "640",
        "addr:street": "1st Main",
        "amenity": "clinic",
        "name": "Samatvam Diabeties Center"
      }
    },
    {
      "type": "node",
      "id": 3389131740,
      "lat": 12.9822237,
      "lon": 77.6389424,
      "tags": {
        "name": "Harris Wines",
        "shop": "alcohol"
      }
    },
    {
      "type": "node",
      "id": 3389131741,
      "lat": 12.9822296,
      "lon": 77.6388622,
      "tags": {
        "brand": "LG",
        "brand:wikidata": "Q162345",
        "name": "LG",
        "shop": "electronics"
      }
    },
    {
      "type": "node",
      "id": 3389131742,
      "lat": 12.9821999,
      "lon": 77.6383332,
      "tags": {
        "amenity": "fast_food",
        "name": "Roll Khazana"
      }
    },
    {
      "type": "node",
      "id": 3389131746,
      "lat": 12.9822012,
      "lon": 77.6382936,
      "tags": {
        "amenity": "restaurant",
        "name": "Curries and Pickles"
      }
    },
    {
      "type": "node",
      "id": 3389138576,
      "lat": 12.9825619,
      "lon": 77.639917,
      "tags": {
        "amenity": "clinic"
      }
    },
    {
      "type": "node",
      "id": 3389142592,
      "lat": 12.9811714,
      "lon": 77.6379161,
      "tags": {
        "amenity": "clinic",
        "name": "Mangesh Clinic"
      }
    },
    {
      "type": "node",
      "id": 3389145031,
      "lat": 12.9819607,
      "lon": 77.6376747,
      "tags": {
        "amenity": "vendor",
        "vending": "coconut"
      }
    },
    {
      "type": "node",
      "id": 3389691978,
      "lat": 12.9783537,
      "lon": 77.635859,
      "tags": {
        "amenity": "bank",
        "atm": "yes",
        "brand": "Allahabad Bank",
        "brand:wikidata": "Q2018840",
        "brand:wikipedia": "en:Allahabad Bank",
        "name": "Allahabad Bank",
        "name:en": "Allahabad Bank",
        "name:kn": "ಅಲಹಾಬಾದ್ ಬ್ಯಾಂಕ",
        "website": "https://www.indianbank.in"
      }
    },
    {
      "type": "node",
      "id": 3389691979,
      "lat": 12.9783044,
      "lon": 77.6340737,
      "tags": {
        "addr:street": "Chinmaya Mission Hospital Road",
        "brand": "Bata",
        "brand:wikidata": "Q688082",
        "name": "Bata",
        "name:kn": "ಬಾಟಾ",
        "shop": "shoes"
      }
    },
    {
      "type": "node",
      "id": 3389691980,
      "lat": 12.9783163,
      "lon": 77.6352403,
      "tags": {
        "amenity": "atm",
        "brand": "ING",
        "brand:wikidata": "Q645708",
        "name": "ING",
        "operator": "ING",
        "operator:wikidata": "Q645708"
      }
    },
    {
      "type": "node",
      "id": 3390685871,
      "lat": 12.9781252,
      "lon": 77.6362378,
      "tags": {
        "addr:street": "Chinmaya Mission Hospital Road",
        "brand": "Kanti Sweets",
        "cuisine": "indian",
        "name": "Kanti Sweets",
        "name:kn": "ಕಾಂತಿಸ್ ಸ್ವೀಟ್ಸ್",
        "shop": "confectionery",
        "website": "https://www.kantisweets.com/"
      }
    },
    {
      "type": "node",
      "id": 3396327633,
      "lat": 12.9781479,
      "lon": 77.636548,
      "tags": {
        "name": "K.C.Das",
        "shop": "confectionery"
      }
    },
    {
      "type": "node",
      "id": 3396327634,
      "lat": 12.9780722,
      "lon": 77.636543,
      "tags": {
        "name": "Printo",
        "opening_hours": "Mo-Su 12:30-20:00",
        "shop": "copyshop",
        "website": "https://printo.in/"
      }
    },
    {
      "type": "node",
      "id": 3470923201,
      "lat": 12.9819249,
      "lon": 77.6395066,
      "tags": {
        "amenity": "restaurant",
        "cuisine": "regional",
        "name": "Annapoorneshwari Mess"
      }
    },
    {
      "type": "node",
      "id": 3470991526,
      "lat": 12.9812444,
      "lon": 77.6366402,
      "tags": {
        "amenity": "fast_food",
        "cuisine": "lassi",
        "name": "Chetty's Coffee",
        "name:kn": "ಲಸ್ಸಿ ಪಾರ್ಕ್"
      }
    },
    {
      "type": "node",
      "id": 3496426170,
      "lat": 12.9705433,
      "lon": 77.642076,
      "tags": {
        "amenity": "cafe",
        "name": "Chocolate Lounge"
      }
    },
    {
      "type": "node",
      "id": 3506436514,
      "lat": 12.9771423,
      "lon": 77.6376753,
      "tags": {
        "amenity": "marketplace",
        "name": "Nitin Stores",
        "name:en": "Nidhin Stores"
      }
    },
    {
      "type": "node",
      "id": 3513892495,
      "lat": 12.9814357,
      "lon": 77.6372798,
      "tags": {
        "amenity": "fast_food",
        "cuisine": "regional",
        "name": "New Shahi Kabab Roll Center",
        "name:kn": "ನ್ಯೂ ಶಾಂತಿ ಕಬಾಬ್ ರೋಲ್ ಸೆಂಟರ್",
        "takeaway": "yes"
      }
    },
    {
      "type": "node",
      "id": 3514613490,
      "lat": 12.9777681,
      "lon": 77.6388155,
      "tags": {
        "addr:city": "Bangalore",
        "addr:postcode": "560038",
        "addr:street": "4th Cross Road",
        "amenity": "clinic",
        "name": "Bhargavi Clinic",
        "phone": "+91 80 2528 9292",
        "website": "https://drshobhavenkat.com/"
      }
    },
    {
      "type": "node",
      "id": 3556033536,
      "lat": 12.9821981,
      "lon": 77.6380258,
      "tags": {
        "name": "Ashoka Tyre Centre",
        "shop": "tyres"
      }
    },
    {
      "type": "node",
      "id": 3556033537,
      "lat": 12.9821893,
      "lon": 77.638025,
      "tags": {
        "amenity": "bank",
        "atm": "yes",
        "name": "Bharath Co-Operative bank"
      }
    },
    {
      "type": "node",
      "id": 3556033538,
      "lat": 12.9821813,
      "lon": 77.6379375,
      "tags": {
        "name": "Fragrance - Designer florist",
        "shop": "gift"
      }
    },
    {
      "type": "node",
      "id": 3556033540,
      "lat": 12.9821438,
      "lon": 77.6379452,
      "tags": {
        "name": "KPN Travels",
        "shop": "travel_agency"
      }
    },
    {
      "type": "node",
      "id": 3556033541,
      "lat": 12.9821986,
      "lon": 77.6380654,
      "tags": {
        "name": "Panickers Tours and Travels",
        "shop": "travel_agency"
      }
    },
    {
      "type": "node",
      "id": 3556033543,
      "lat": 12.9821452,
      "lon": 77.6378514,
      "tags": {
        "name": "Sagar Travels",
        "shop": "travel_agency"
      }
    },
    {
      "type": "node",
      "id": 3556033544,
      "lat": 12.9823645,
      "lon": 77.6377565,
      "tags": {
        "name": "Sree Manjuatha Coffee",
        "shop": "coffee"
      }
    },
    {
      "type": "node",
      "id": 3556033545,
      "lat": 12.9821431,
      "lon": 77.637897,
      "tags": {
        "name": "Sri Mangala travels",
        "shop": "travel_agency"
      }
    },
    {
      "type": "node",
      "id": 3556046875,
      "lat": 12.9824022,
      "lon": 77.6376847,
      "tags": {
        "amenity": "cafe",
        "name": "Sree Manjunatha Coffee Bar"
      }
    },
    {
      "type": "node",
      "id": 3556046903,
      "lat": 12.9780369,
      "lon": 77.633104,
      "tags": {
        "addr:street": "Chinmaya Mission Hospital Road",
        "amenity": "fast_food",
        "name": "Kolkata Famous Chats"
      }
    },
    {
      "type": "node",
      "id": 3556046904,
      "lat": 12.9780309,
      "lon": 77.6331524,
      "tags": {
        "name": "Neha Fancy",
        "shop": "clothes"
      }
    },
    {
      "type": "node",
      "id": 3556046905,
      "lat": 12.9780448,
      "lon": 77.6332441,
      "tags": {
        "amenity": "pharmacy",
        "healthcare": "pharmacy",
        "name": "Swathi Medical Store"
      }
    },
    {
      "type": "node",
      "id": 3556052605,
      "lat": 12.978354,
      "lon": 77.6330514,
      "tags": {
        "addr:housenumber": "4",
        "addr:street": "17th F Cross",
        "amenity": "car_sharing",
        "operator": "SRS Travels"
      }
    },
    {
      "type": "node",
      "id": 3556052606,
      "lat": 12.9784407,
      "lon": 77.633075,
      "tags": {
        "addr:housenumber": "5",
        "addr:street": "17th F Cross",
        "name": "Bhuvavaneswari Traders",
        "shop": "kiosk"
      }
    },
    {
      "type": "node",
      "id": 3556052607,
      "lat": 12.9784851,
      "lon": 77.633077,
      "tags": {
        "addr:housenumber": "6",
        "addr:street": "17th F Cross",
        "amenity": "dentist",
        "healthcare": "dentist",
        "name": "Remuka Deltal Clinic"
      }
    },
    {
      "type": "node",
      "id": 3556052608,
      "lat": 12.9783956,
      "lon": 77.6330601,
      "tags": {
        "addr:housenumber": "4",
        "addr:street": "17th F Cross",
        "name": "Idea",
        "shop": "mobile_phone"
      }
    },
    {
      "type": "node",
      "id": 3556052609,
      "lat": 12.9785259,
      "lon": 77.63308,
      "tags": {
        "addr:housenumber": "7",
        "addr:street": "17th F Cross",
        "name": "Vodafume",
        "shop": "gift"
      }
    },
    {
      "type": "node",
      "id": 3556052614,
      "lat": 12.978308,
      "lon": 77.6330436,
      "tags": {
        "addr:housenumber": "3",
        "addr:street": "17th F Cross",
        "name": "Unibic Cookies",
        "shop": "confectionery"
      }
    },
    {
      "type": "node",
      "id": 3556072045,
      "lat": 12.978044,
      "lon": 77.6333101,
      "tags": {
        "addr:housenumber": "670",
        "addr:postcode": "560038",
        "addr:street": "Chinmaya Mission Hospital Road",
        "name": "Fuzzy Wuzzy Pet Store",
        "opening_hours": "Mo-Su 10:00-21:30",
        "phone": "+919986801449",
        "shop": "pet",
        "website": "https://fuzzywuzzy.in/"
      }
    },
    {
      "type": "node",
      "id": 3556098554,
      "lat": 12.9780345,
      "lon": 77.6339912,
      "tags": {
        "addr:street": "Chinmaya Mission Hospital Road",
        "name": "Fresh and Ground",
        "shop": "coffee"
      }
    },
    {
      "type": "node",
      "id": 3556098555,
      "lat": 12.9780446,
      "lon": 77.6339349,
      "tags": {
        "addr:street": "Chinmaya Mission Hospital Road",
        "name": "Padmavathi Bakers",
        "shop": "bakery"
      }
    },
    {
      "type": "node",
      "id": 3556098556,
      "lat": 12.9780309,
      "lon": 77.6337864,
      "tags": {
        "name": "Shabari Electricity Company",
        "shop": "electronics"
      }
    },
    {
      "type": "node",
      "id": 3556103331,
      "lat": 12.9782881,
      "lon": 77.6335861,
      "tags": {
        "addr:street": "Chinmaya Mission Hospital Road",
        "name": "BTC Bozzar",
        "shop": "furniture"
      }
    },
    {
      "type": "node",
      "id": 3556103332,
      "lat": 12.9782871,
      "lon": 77.6335425,
      "tags": {
        "addr:street": "Chinmaya Mission Hospital Road",
        "name": "Shoes City",
        "shop": "shoes"
      }
    },
    {
      "type": "node",
      "id": 3556103530,
      "lat": 12.9825704,
      "lon": 77.6382982,
      "tags": {
        "name": "AJS Telecom",
        "shop": "yes"
      }
    },
    {
      "type": "node",
      "id": 3556103531,
      "lat": 12.9826672,
      "lon": 77.6381036,
      "tags": {
        "amenity": "hospital",
        "name": "ALDOS Medical Service Pvt LTD"
      }
    },
    {
      "type": "node",
      "id": 3556103532,
      "lat": 12.9826388,
      "lon": 77.6381412,
      "tags": {
        "name": "Car Museum",
        "shop": "car"
      }
    },
    {
      "type": "node",
      "id": 3556103533,
      "lat": 12.9825295,
      "lon": 77.6382903,
      "tags": {
        "name": "Cuts & Curls Beauty Parlor",
        "shop": "beauty"
      }
    },
    {
      "type": "node",
      "id": 3556103538,
      "lat": 12.9827015,
      "lon": 77.63814,
      "tags": {
        "name": "Rebeni Beauty Salon",
        "shop": "beauty"
      }
    },
    {
      "type": "node",
      "id": 3556124473,
      "lat": 12.9822182,
      "lon": 77.6385728,
      "tags": {
        "amenity": "restaurant",
        "cuisine": "indian",
        "name": "Ambur Biriyani",
        "name:kn": "ಅಂಬುರ್ ಬಿರಿಯಾನಿ"
      }
    },
    {
      "type": "node",
      "id": 3556124475,
      "lat": 12.9821782,
      "lon": 77.6381107,
      "tags": {
        "amenity": "clinic",
        "name": "Cosmetic Dental clinic"
      }
    },
    {
      "type": "node",
      "id": 3556124476,
      "lat": 12.9822235,
      "lon": 77.6390347,
      "tags": {
        "amenity": "cafe",
        "name": "Juicea- Fresh juice and ice creams"
      }
    },
    {
      "type": "node",
      "id": 3556124477,
      "lat": 12.9822205,
      "lon": 77.6387775,
      "tags": {
        "name": "KSRTC Travel House",
        "shop": "travel_agency"
      }
    },
    {
      "type": "node",
      "id": 3556124478,
      "lat": 12.9821904,
      "lon": 77.6381375,
      "tags": {
        "name": "Lakshmi Electrical",
        "shop": "travel_agency"
      }
    },
    {
      "type": "node",
      "id": 3556124479,
      "lat": 12.9822393,
      "lon": 77.6388434,
      "tags": {
        "name": "Mahalakshmi Tours and Travels",
        "shop": "travel_agency"
      }
    },
    {
      "type": "node",
      "id": 3556124480,
      "lat": 12.9821489,
      "lon": 77.638143,
      "tags": {
        "name": "Moies Beauty and Hair Salon",
        "shop": "beauty"
      }
    },
    {
      "type": "node",
      "id": 3556124481,
      "lat": 12.98224,
      "lon": 77.6388146,
      "tags": {
        "name": "Profile Unisex Salon",
        "shop": "beauty"
      }
    },
    {
      "type": "node",
      "id": 3556124482,
      "lat": 12.9822182,
      "lon": 77.6385173,
      "tags": {
        "name": "Rajesh Travels",
        "shop": "travel_agency"
      }
    },
    {
      "type": "node",
      "id": 3556124483,
      "lat": 12.9822172,
      "lon": 77.6385545,
      "tags": {
        "name": "SRS Travels",
        "shop": "travel_agency"
      }
    },
    {
      "type": "node",
      "id": 3556124484,
      "lat": 12.9822049,
      "lon": 77.6383186,
      "tags": {
        "name": "Trinity Air Travelk and Tours Pvt LTD",
        "shop": "travel_agency"
      }
    },
    {
      "type": "node",
      "id": 3556124485,
      "lat": 12.9822166,
      "lon": 77.6385392,
      "tags": {
        "name": "Vijaya Nanda Travels",
        "shop": "travel_agency"
      }
    },
    {
      "type": "node",
      "id": 3556124491,
      "lat": 12.98224,
      "lon": 77.6387852,
      "tags": {
        "amenity": "atm",
        "brand": "ING Vysya ATM"
      }
    },
    {
      "type": "node",
      "id": 3556124492,
      "lat": 12.9822309,
      "lon": 77.6388012,
      "tags": {
        "amenity": "atm",
        "brand": "Kotak Mahindra ATM"
      }
    },
    {
      "type": "node",
      "id": 3556130016,
      "lat": 12.9824362,
      "lon": 77.6385585,
      "tags": {
        "leisure": "sports_centre",
        "name": "APPU Gym Factory"
      }
    },
    {
      "type": "node",
      "id": 3556130037,
      "lat": 12.9780926,
      "lon": 77.634514,
      "tags": {
        "addr:street": "Chinmaya Mission Hospital Road",
        "name": "Meena Jewellers",
        "shop": "jewelry"
      }
    },
    {
      "type": "node",
      "id": 3556130038,
      "lat": 12.9780934,
      "lon": 77.6343751,
      "tags": {
        "addr:street": "Chinmaya Mission Hospital Road",
        "name": "Mishra Peda",
        "shop": "confectionery"
      }
    },
    {
      "type": "node",
      "id": 3556130039,
      "lat": 12.978056,
      "lon": 77.6340881,
      "tags": {
        "addr:street": "Chinmaya Mission Hospital Road",
        "name": "Nokia",
        "shop": "mobile_phone"
      }
    },
    {
      "type": "node",
      "id": 3556130040,
      "lat": 12.9780941,
      "lon": 77.6345877,
      "tags": {
        "addr:street": "Chinmaya Mission Hospital Road",
        "name": "Prestige Smart Kitchen",
        "shop": "kitchen"
      }
    },
    {
      "type": "node",
      "id": 3556130041,
      "lat": 12.9780538,
      "lon": 77.6340458,
      "tags": {
        "addr:street": "Chinmaya Mission Hospital Road",
        "name": "Reliance",
        "shop": "mobile_phone"
      }
    },
    {
      "type": "node",
      "id": 3556133794,
      "lat": 12.9783722,
      "lon": 77.6358102,
      "tags": {
        "name": "Jockey Clotes",
        "shop": "clothes"
      }
    },
    {
      "type": "node",
      "id": 3556133795,
      "lat": 12.9783815,
      "lon": 77.6354826,
      "tags": {
        "amenity": "atm",
        "brand": "Kotak Mahindra Bank",
        "brand:wikidata": "Q2040404",
        "name": "Kotak Mahindra Bank",
        "operator": "Kotak Mahindra Bank",
        "operator:wikidata": "Q2040404"
      }
    },
    {
      "type": "node",
      "id": 3556157515,
      "lat": 12.9784278,
      "lon": 77.6378559,
      "tags": {
        "name": "MyToyz",
        "shop": "toys"
      }
    },
    {
      "type": "node",
      "id": 3556175593,
      "lat": 12.9780969,
      "lon": 77.634707,
      "tags": {
        "addr:street": "Chinmaya Mission Hospital Road",
        "name": "Classic Polo",
        "shop": "clothes"
      }
    },
    {
      "type": "node",
      "id": 3556175594,
      "lat": 12.9781064,
      "lon": 77.6348198,
      "tags": {
        "addr:street": "Chinmaya Mission Hospital Road",
        "amenity": "fast_food",
        "check_date": "2024-03-04",
        "cuisine": "juice",
        "internet_access": "no",
        "name": "Shree Ganesh Fruit Juice Centre",
        "payment:cards": "no",
        "payment:cash": "yes",
        "payment:credit_cards": "no",
        "payment:debit_cards": "no",
        "source": "local knowledge",
        "wheelchair": "no"
      }
    },
    {
      "type": "node",
      "id": 3556185054,
      "lat": 12.9781095,
      "lon": 77.6348789,
      "tags": {
        "name": "Deepa Stores",
        "shop": "general"
      }
    },
    {
      "type": "node",
      "id": 3556185055,
      "lat": 12.9781092,
      "lon": 77.6349664,
      "tags": {
        "addr:street": "Chinmaya Mission Hospital Road",
        "name": "Lakshmi Traders",
        "shop": "trade"
      }
    },
    {
      "type": "node",
      "id": 3556214252,
      "lat": 12.9801262,
      "lon": 77.6375401,
      "tags": {
        "name": "Aafreen's Beauty and hair salon",
        "name:kn": "ಆಫ್ರೀನ್ಸ್ ಬ್ಯೂಟಿ ಮತ್ತು ಹೇರ್ ಸಲೂನ್",
        "shop": "beauty"
      }
    },
    {
      "type": "node",
      "id": 3556214253,
      "lat": 12.9800601,
      "lon": 77.6386765,
      "tags": {
        "addr:city": "Bengaluru, Karnataka",
        "addr:housenumber": "No.119",
        "addr:postcode": "560038",
        "addr:street": "5th Main Rd, near Kairleenikethan School, Binnamangala, Stage 1, Indiranagar",
        "amenity": "pharmacy",
        "brand": "Apollo Pharmacy",
        "brand:wikidata": "Q62562612",
        "dispensing": "no",
        "healthcare": "pharmacy",
        "name": "Apollo Pharmacy",
        "name:kn": "ಅಪೊಲೋ ಫಾರ್ಮಸಿ"
      }
    },
    {
      "type": "node",
      "id": 3556214254,
      "lat": 12.9801411,
      "lon": 77.6374953,
      "tags": {
        "amenity": "university",
        "name": "FFE IT - Foundation for excellence india trust",
        "name:kn": "ಎಫ್ಎಫ್ಇಐಟಿ"
      }
    },
    {
      "type": "node",
      "id": 3556214255,
      "lat": 12.9801741,
      "lon": 77.6372856,
      "tags": {
        "amenity": "school",
        "name": "Info Era - Software training institute",
        "name:kn": "ಇನ್ಫೊ ಎರಾ - ತಂತ್ರಾಂಶ ತರಬೇತಿ ಸಂಸ್ಥೆ"
      }
    },
    {
      "type": "node",
      "id": 3556214256,
      "lat": 12.9801433,
      "lon": 77.6375204,
      "tags": {
        "name": "MHT Tours and travels",
        "name:kn": "ಎಂಎಚ್ಟಿ ಟೂರ್ಸ್ ಮತ್ತು ಟ್ರಾವೆಲ್ಸ್",
        "shop": "travel_agency"
      }
    },
    {
      "type": "node",
      "id": 3556214257,
      "lat": 12.9800773,
      "lon": 77.6385858,
      "tags": {
        "name": "Sree Dhanalakshmi Stores",
        "name:kn": "ಶ್ರೀಧನಲಕ್ಷ್ಮೀ ಸ್ಟೋರ್ಸ್",
        "shop": "convenience"
      }
    },
    {
      "type": "node",
      "id": 3556214259,
      "lat": 12.980055,
      "lon": 77.6385017,
      "tags": {
        "check_date": "2023-10-12",
        "name": "Sree sai rice corner",
        "name:kn": "ಶ್ರೀಸಾಯಿ ರೈಸ್ ಕಾರ್ನರ್",
        "shop": "convenience"
      }
    },
    {
      "type": "node",
      "id": 3556256975,
      "lat": 12.9801812,
      "lon": 77.6372616,
      "tags": {
        "amenity": "clinic",
        "name": "Health Total",
        "name:kn": "ಎಲ್ಥ್ ಟೋಟಲ್"
      }
    },
    {
      "type": "node",
      "id": 3556256976,
      "lat": 12.9811909,
      "lon": 77.6384214,
      "tags": {
        "name": "RR ladies tailor",
        "shop": "tailor"
      }
    },
    {
      "type": "node",
      "id": 3556256977,
      "lat": 12.9819807,
      "lon": 77.6383683,
      "tags": {
        "addr:street": "11th Cross Road",
        "air_conditioning": "yes",
        "amenity": "place_of_worship",
        "building": "yes",
        "denomination": "mormon",
        "name": "The Church of Jesus Christ of Latter-day Saints",
        "religion": "christian"
      }
    },
    {
      "type": "node",
      "id": 3556262809,
      "lat": 12.9800438,
      "lon": 77.6380403,
      "tags": {
        "amenity": "pharmacy",
        "name": "Sree Maruthi Medicals",
        "name:kn": "ಶ್ರೀ ಮಾರುತಿ ಮೆಡಿಕಲ್ಸ್"
      }
    },
    {
      "type": "node",
      "id": 3556263706,
      "lat": 12.9784446,
      "lon": 77.637751,
      "tags": {
        "amenity": "bank",
        "brand": "Vijaya Bank",
        "brand:wikidata": "Q2003171",
        "brand:wikipedia": "en:Vijaya Bank",
        "name": "Vijaya Bank",
        "name:kn": "ವಿಜಯ ಬ್ಯಾಂಕು"
      }
    },
    {
      "type": "node",
      "id": 3556265677,
      "lat": 12.980378,
      "lon": 77.6361915,
      "tags": {
        "name": "Ethic Attic",
        "shop": "clothes"
      }
    },
    {
      "type": "node",
      "id": 3556307815,
      "lat": 12.9781127,
      "lon": 77.6353438,
      "tags": {
        "addr:street": "Chinmaya Mission Hospital Road",
        "name": "Bombay Dyeing",
        "name:kn": "ಬೊಂಬೆ ಡೈಯಿಂಗ್",
        "shop": "clothes"
      }
    },
    {
      "type": "node",
      "id": 3556307816,
      "lat": 12.9781358,
      "lon": 77.6364714,
      "tags": {
        "name": "Deen Dayal Cloth Store",
        "shop": "clothes"
      }
    },
    {
      "type": "node",
      "id": 3556307817,
      "lat": 12.9781358,
      "lon": 77.6363184,
      "tags": {
        "addr:street": "Chinmaya Mission Hospital Road",
        "name": "Fashion Line",
        "shop": "clothes"
      }
    },
    {
      "type": "node",
      "id": 3556307818,
      "lat": 12.9781144,
      "lon": 77.6354969,
      "tags": {
        "addr:street": "Chinmaya Mission Hospital Road",
        "name": "Moto Adda",
        "service": "parts",
        "shop": "car"
      }
    },
    {
      "type": "node",
      "id": 3556307819,
      "lat": 12.9781006,
      "lon": 77.6352048,
      "tags": {
        "addr:street": "Chinmaya Mission Hospital Road",
        "name": "Philips Store",
        "shop": "electronics"
      }
    },
    {
      "type": "node",
      "id": 3556307820,
      "lat": 12.9781352,
      "lon": 77.6363827,
      "tags": {
        "name": "The Looks(Eye Care Center)",
        "shop": "yes"
      }
    },
    {
      "type": "node",
      "id": 3556307821,
      "lat": 12.9781052,
      "lon": 77.635083,
      "tags": {
        "addr:street": "Chinmaya Mission Hospital Road",
        "name": "Venkateshwara Tyre Center",
        "shop": "tyres"
      }
    },
    {
      "type": "node",
      "id": 3556341351,
      "lat": 12.9822569,
      "lon": 77.6393124,
      "tags": {
        "amenity": "restaurant",
        "cuisine": "indian",
        "name": "Al Zaid",
        "service": "insurance"
      }
    },
    {
      "type": "node",
      "id": 3556343976,
      "lat": 12.9787341,
      "lon": 77.6331219,
      "tags": {
        "name": "Now Fashion Lounge",
        "shop": "clothes"
      }
    },
    {
      "type": "node",
      "id": 3556364747,
      "lat": 12.9817047,
      "lon": 77.6399478,
      "tags": {
        "addr:housename": "Aramex",
        "amenity": "post_office"
      }
    },
    {
      "type": "node",
      "id": 3556364750,
      "lat": 12.9823138,
      "lon": 77.6399023,
      "tags": {
        "amenity": "library",
        "name": "Rajesh circulating library"
      }
    },
    {
      "type": "node",
      "id": 3556374643,
      "lat": 12.9790112,
      "lon": 77.6332114,
      "tags": {
        "name": "Arman Motors",
        "service": "parts",
        "shop": "car"
      }
    },
    {
      "type": "node",
      "id": 3556374644,
      "lat": 12.9791369,
      "lon": 77.633216,
      "tags": {
        "name": "DJ Seafoods",
        "shop": "seafood"
      }
    },
    {
      "type": "node",
      "id": 3556374645,
      "lat": 12.9788082,
      "lon": 77.6331514,
      "tags": {
        "butcher": "poultry",
        "name": "Eggies",
        "shop": "butcher"
      }
    },
    {
      "type": "node",
      "id": 3556379076,
      "lat": 12.9800955,
      "lon": 77.6398191,
      "tags": {
        "amenity": "cafe",
        "check_date": "2023-10-07",
        "name": "Le Cremosa",
        "shop": "bakery"
      }
    },
    {
      "type": "node",
      "id": 3563158193,
      "lat": 12.9786021,
      "lon": 77.6362648,
      "tags": {
        "brand": "Sony",
        "brand:wikidata": "Q41187",
        "name": "Sony",
        "shop": "electronics"
      }
    },
    {
      "type": "node",
      "id": 3621069745,
      "lat": 12.9794887,
      "lon": 77.6368354,
      "tags": {
        "shop": "florist"
      }
    },
    {
      "type": "node",
      "id": 3621069814,
      "lat": 12.9794887,
      "lon": 77.6370052,
      "tags": {
        "shop": "convenience"
      }
    },
    {
      "type": "node",
      "id": 3647031243,
      "lat": 12.979771,
      "lon": 77.6362441,
      "tags": {
        "amenity": "waste_basket"
      }
    },
    {
      "type": "node",
      "id": 3647032708,
      "lat": 12.9787928,
      "lon": 77.6354787,
      "tags": {
        "amenity": "waste_basket"
      }
    },
    {
      "type": "node",
      "id": 3647032709,
      "lat": 12.9787912,
      "lon": 77.6357687,
      "tags": {
        "amenity": "waste_basket"
      }
    },
    {
      "type": "node",
      "id": 3647032710,
      "lat": 12.979801,
      "lon": 77.635713,
      "tags": {
        "amenity": "waste_basket"
      }
    },
    {
      "type": "node",
      "id": 3647032711,
      "lat": 12.980164,
      "lon": 77.6357792,
      "tags": {
        "amenity": "waste_basket"
      }
    },
    {
      "type": "node",
      "id": 3647032712,
      "lat": 12.9801204,
      "lon": 77.6362903,
      "tags": {
        "amenity": "waste_basket"
      }
    },
    {
      "type": "node",
      "id": 3647035299,
      "lat": 12.9794667,
      "lon": 77.6355824,
      "tags": {
        "amenity": "bench"
      }
    },
    {
      "type": "node",
      "id": 3647035300,
      "lat": 12.9794251,
      "lon": 77.6355766,
      "tags": {
        "amenity": "bench"
      }
    },
    {
      "type": "node",
      "id": 3647035301,
      "lat": 12.9794979,
      "lon": 77.6355897,
      "tags": {
        "amenity": "bench"
      }
    },
    {
      "type": "node",
      "id": 3647035303,
      "lat": 12.9793306,
      "lon": 77.6355601,
      "tags": {
        "amenity": "bench"
      }
    },
    {
      "type": "node",
      "id": 3647035305,
      "lat": 12.9792286,
      "lon": 77.6355417,
      "tags": {
        "amenity": "bench"
      }
    },
    {
      "type": "node",
      "id": 3647035306,
      "lat": 12.9791965,
      "lon": 77.6355359,
      "tags": {
        "amenity": "bench"
      }
    },
    {
      "type": "node",
      "id": 3647035307,
      "lat": 12.9791558,
      "lon": 77.6355262,
      "tags": {
        "amenity": "bench"
      }
    },
    {
      "type": "node",
      "id": 3647035309,
      "lat": 12.9790887,
      "lon": 77.6355107,
      "tags": {
        "amenity": "bench"
      }
    },
    {
      "type": "node",
      "id": 3647035311,
      "lat": 12.9790377,
      "lon": 77.6354996,
      "tags": {
        "amenity": "bench"
      }
    },
    {
      "type": "node",
      "id": 3647035313,
      "lat": 12.9790025,
      "lon": 77.6354936,
      "tags": {
        "amenity": "bench"
      }
    },
    {
      "type": "node",
      "id": 3647035314,
      "lat": 12.9789839,
      "lon": 77.6354896,
      "tags": {
        "amenity": "bench"
      }
    },
    {
      "type": "node",
      "id": 3647035316,
      "lat": 12.9789291,
      "lon": 77.6354787,
      "tags": {
        "amenity": "bench"
      }
    },