{
  "area_name": "BHEL Layout",
  "osm_id": 8700678298,
  "osm_type": "node",
  "place_type": "neighbourhood",
  "amenity_count": 35,
  "amenities": [
    {
      "type": "node",
      "id": 3259732942,
      "lat": 12.9204553,
      "lon": 77.515172,
      "tags": {
        "addr:city": "BENGALURU",
        "addr:postcode": "560098",
        "addr:street": "1st Cross, 1st Main, 1st Phase, 5th Stage, BEML Layout",
        "name": "HP GAS",
        "operator": "Abhishek GAS Agency",
        "shop": "Distributor"
      }
    },
    {
      "type": "node",
      "id": 3259733378,
      "lat": 12.920322,
      "lon": 77.5161055,
      "tags": {
        "addr:city": "BENGALURU",
        "addr:housenumber": "1669",
        "addr:postcode": "560098",
        "addr:street": "I Main, I Phase, V Stage, BEML Layout, RajaRajeshwari Nagar",
        "name": "Nikhil Electricals",
        "operator": "Nikhil Electricals",
        "shop": "electrical"
      }
    },
    {
      "type": "node",
      "id": 3259780194,
      "lat": 12.9198566,
      "lon": 77.5142588,
      "tags": {
        "addr:city": "BENGALURU",
        "addr:postcode": "560098",
        "amenity": "bank",
        "name": "Apex Bank",
        "name:kn": "ಏಪೆಕ್ಸ್ ಬ್ಯಾಂಕ್",
        "opening_hours": "Mo-Fr 09:00-15:00;Sa 09:00-12:00",
        "operator": "APEX Bank"
      }
    },
    {
      "type": "node",
      "id": 3485239573,
      "lat": 12.9193173,
      "lon": 77.5041769,
      "tags": {
        "amenity": "cafe",
        "cuisine": "coffee_shop",
        "name": "Café Coffee Day",
        "name:kn": "ಕಫೆ ಕಾಫಿ ಡೇ"
      }
    },
    {
      "type": "node",
      "id": 3485273429,
      "lat": 12.9168148,
      "lon": 77.5040278,
      "tags": {
        "amenity": "parking",
        "designation": "Mindtree Official Parking Area for both two and four wheelers",
        "name": "Mindtree Global Village, Parking Area",
        "park_ride": "yes",
        "parking": "surface"
      }
    },
    {
      "type": "node",
      "id": 4210647484,
      "lat": 12.9201765,
      "lon": 77.5174169,
      "tags": {
        "emergency": "no",
        "name": "Ramesh Medicals",
        "shop": "medical_supply"
      }
    },
    {
      "type": "node",
      "id": 4210668285,
      "lat": 12.920166,
      "lon": 77.5173257,
      "tags": {
        "name": "ACE Iyengar",
        "shop": "deli"
      }
    },
    {
      "type": "node",
      "id": 4210668286,
      "lat": 12.9201189,
      "lon": 77.5177655,
      "tags": {
        "name": "Delhi Chats",
        "shop": "deli"
      }
    },
    {
      "type": "node",
      "id": 6944095850,
      "lat": 12.9162321,
      "lon": 77.5165567,
      "tags": {
        "addr:district": "Bengaluru Urban",
        "addr:full": "No-1406, 8Th Main, 7Th Cross 5Th Stage, 1st Phase,Beml Layout, Rajarajeswaringar",
        "addr:postcode": "560098",
        "addr:state": "Karnataka",
        "amenity": "clinic",
        "name": "Sudhanva Health Care",
        "source": "OpenGovernmentData"
      }
    },
    {
      "type": "node",
      "id": 9838551996,
      "lat": 12.9200603,
      "lon": 77.5108428,
      "tags": {
        "amenity": "place_of_worship",
        "name": "Anjaneya Temple",
        "religion": "hindu"
      }
    },
    {
      "type": "node",
      "id": 11757291185,
      "lat": 12.9095419,
      "lon": 77.5095467,
      "tags": {
        "amenity": "shelter",
        "shelter_type": "gazebo"
      }
    },
    {
      "type": "node",
      "id": 13013588706,
      "lat": 12.9112491,
      "lon": 77.5133944,
      "tags": {
        "amenity": "restaurant",
        "name": "154 Breakfast Club"
      }
    },
    {
      "type": "node",
      "id": 13130322035,
      "lat": 12.9227174,
      "lon": 77.5059164,
      "tags": {
        "leisure": "fitness_centre"
      }
    },
    {
      "type": "way",
      "id": 55685638,
      "center": {
        "lat": 12.9232,
        "lon": 77.5006374
      },
      "tags": {
        "alt_name": "Rashtreeya Vidyalaya College of Engineering",
        "amenity": "college",
        "full_name": "Rashtreeya Vidyalaya College of Engineering",
        "local_ref": "RVCE",
        "name": "R. V. College of Engineering",
        "name:kn": "ರಾಷ್ಟ್ರೀಯ ವಿದ್ಯಾಲಯ ತಾಂತ್ರಿಕ ಮಹಾವಿದ್ಯಾಲಯ",
        "short_name": "RVCE",
        "website": "https://rvce.edu.in",
        "wikidata": "Q7273419",
        "wikimedia_commons": "Category:R.V. College of Engineering",
        "wikipedia": "en:R.V. College of Engineering"
      }
    },
    {
      "type": "way",
      "id": 347481812,
      "center": {
        "lat": 12.9218063,
        "lon": 77.5087855
      },
      "tags": {
        "amenity": "place_of_worship",
        "building": "yes",
        "religion": "hindu"
      }
    },
    {
      "type": "way",
      "id": 348135295,
      "center": {
        "lat": 12.9095686,
        "lon": 77.5092011
      },
      "tags": {
        "addr:city": "Bengaluru",
        "addr:postcode": "560059",
        "addr:street": "KG Rd, Concord Garden City, Hemmigepura Ward 198, Rajarajeshwari Nagar",
        "amenity": "place_of_worship",
        "building": "yes",
        "name": "Shri Balamuri Vigneshwara Temple",
        "religion": "hindu"
      }
    },
    {
      "type": "way",
      "id": 348149826,
      "center": {
        "lat": 12.9244231,
        "lon": 77.5114174
      },
      "tags": {
        "amenity": "community_centre",
        "building": "yes",
        "name": "Meenakshi Kalyana Matapa",
        "name:kn": "ಮೀನಾಕ್ಷಿ ಕಲ್ಯಾಣ ಮಂಟಪ"
      }
    },
    {
      "type": "way",
      "id": 348250634,
      "center": {
        "lat": 12.9248553,
        "lon": 77.5113967
      },
      "tags": {
        "amenity": "community_centre",
        "building": "yes",
        "name": "Meenakshi Padmavathi Kalyana Matapa",
        "name:kn": "ಮೀನಾಕ್ಷಿ ಪದ್ಮಾವತಿ ಕಲ್ಯಾಣ ಮಂಟಪ"
      }
    },
    {
      "type": "way",
      "id": 362910765,
      "center": {
        "lat": 12.916814,
        "lon": 77.508714
      },
      "tags": {
        "leisure": "park"
      }
    },
    {
      "type": "way",
      "id": 729214193,
      "center": {
        "lat": 12.9109301,
        "lon": 77.5124248
      },
      "tags": {
        "leisure": "swimming_pool"
      }
    },
    {
      "type": "way",
      "id": 729214194,
      "center": {
        "lat": 12.9110479,
        "lon": 77.5119091
      },
      "tags": {
        "leisure": "pitch",
        "sport": "tennis"
      }
    },
    {
      "type": "way",
      "id": 770851392,
      "center": {
        "lat": 12.9252677,
        "lon": 77.5044626
      },
      "tags": {
        "addr:city": "Bengaluru",
        "addr:country": "IN",
        "addr:housenumber": "40",
        "addr:postcode": "560059",
        "addr:street": "Pattanagere Main Road",
        "amenity": "school",
        "email": "contact@gaflschool.com",
        "name": "Global Academy for Learning",
        "phone": "+91 88804 00900",
        "school:gender": "mixed",
        "website": "https://www.gaflschool.com/"
      }
    },
    {
      "type": "way",
      "id": 1120154288,
      "center": {
        "lat": 12.9126949,
        "lon": 77.5124865
      },
      "tags": {
        "addr:city": "Bengaluru",
        "addr:postcode": "560098",
        "addr:street": "Kenchenahalli Main Road",
        "amenity": "school",
        "education": "school",
        "name": "Shri Jnanakshi Vidyaniketan",
        "name:kn": "ಜ್ಞಾನಾಕ್ಷಿ ವಿದ್ಯಾನಿಕೇತನ"
      }
    },
    {
      "type": "way",
      "id": 1265721167,
      "center": {
        "lat": 12.9268513,
        "lon": 77.5125515
      },
      "tags": {
        "amenity": "place_of_worship",
        "landuse": "religious",
        "name": "Pyramid Temple",
        "religion": "hindu"
      }
    },
    {
      "type": "way",
      "id": 1265724895,
      "center": {
        "lat": 12.9176608,
        "lon": 77.5017965
      },
      "tags": {
        "access": "permissive",
        "amenity": "parking",
        "parking": "surface"
      }
    },
    {
      "type": "way",
      "id": 1265724922,
      "center": {
        "lat": 12.91304,
        "lon": 77.5073386
      },
      "tags": {
        "leisure": "park"
      }
    },
    {
      "type": "way",
      "id": 1265724925,
      "center": {
        "lat": 12.9095538,
        "lon": 77.5097798
      },
      "tags": {
        "leisure": "park"
      }
    },
    {
      "type": "way",
      "id": 1292114855,
      "center": {
        "lat": 12.9248933,
        "lon": 77.5043401
      },
      "tags": {
        "access": "private",
        "leisure": "swimming_pool"
      }
    },
    {
      "type": "way",
      "id": 1315659143,
      "center": {
        "lat": 12.9111596,
        "lon": 77.5096932
      },
      "tags": {
        "amenity": "college",
        "name": "Panchasheela Polytechnic School"
      }
    },
    {
      "type": "way",
      "id": 1327820764,
      "center": {
        "lat": 12.9220627,
        "lon": 77.5011313
      },
      "tags": {
        "leisure": "park"
      }
    },
    {
      "type": "way",
      "id": 1364433566,
      "center": {
        "lat": 12.9266958,
        "lon": 77.5070802
      },
      "tags": {
        "leisure": "park"
      }
    },
    {
      "type": "way",
      "id": 1364433567,
      "center": {
        "lat": 12.9263964,
        "lon": 77.5080296
      },
      "tags": {
        "leisure": "park"
      }
    },
    {
      "type": "way",
      "id": 1427923024,
      "center": {
        "lat": 12.912279,
        "lon": 77.5138731
      },
      "tags": {
        "amenity": "fuel",
        "brand": "Indian Oil",
        "brand:wikidata": "Q1289348",
        "name": "Indian Oil"
      }
    },
    {
      "type": "way",
      "id": 1428266426,
      "center": {
        "lat": 12.9245556,
        "lon": 77.508896
      },
      "tags": {
        "leisure": "garden"
      }
    },
    {
      "type": "way",
      "id": 1443186861,
      "center": {
        "lat": 12.9262121,
        "lon": 77.5102962
      },
      "tags": {
        "amenity": "place_of_worship",
        "landuse": "religious",
        "name": "Rajarajeshwari Temple",
        "name:kn": "ರಾಜರಾಜೇಶ್ವರಿ ದೇವಸ್ಥಾನ",
        "religion": "hindu"
      }
    }
  ]
}