{
  "area_name": "Jayantinagara",
  "osm_id": 440684547,
  "osm_type": "node",
  "place_type": "neighbourhood",
  "amenity_count": 71,
  "amenities": [
    {
      "type": "node",
      "id": 1725094661,
      "lat": 13.0198131,
      "lon": 77.666082,
      "tags": {
        "amenity": "place_of_worship",
        "name": "Ganesha temple",
        "name:kn": "ಗಣೇಶ ದೇವಸ್ಥಾನ",
        "religion": "hindu"
      }
    },
    {
      "type": "node",
      "id": 1725094663,
      "lat": 13.0249273,
      "lon": 77.6592607,
      "tags": {
        "brand": "Nilgiri's",
        "brand:wikidata": "Q17079567",
        "name": "Nilgiri's",
        "name:kn": "ನೀಲ್ಗಿರೀಸ್",
        "opening_hours": "Mo-Su 08:30-20:00",
        "shop": "supermarket"
      }
    },
    {
      "type": "node",
      "id": 1760701663,
      "lat": 13.020966,
      "lon": 77.6662986,
      "tags": {
        "amenity": "atm",
        "fee": "HDFC BANK ATM"
      }
    },
    {
      "type": "node",
      "id": 1760703149,
      "lat": 13.023316,
      "lon": 77.6647121,
      "tags": {
        "amenity": "place_of_worship",
        "name": "Hanuman Temple",
        "name:kn": "ಹನುಮಂತ ದೇವಸ್ಥಾನ",
        "religion": "hindu"
      }
    },
    {
      "type": "node",
      "id": 1760703805,
      "lat": 13.0215562,
      "lon": 77.6662295,
      "tags": {
        "amenity": "place_of_worship",
        "name": "Om Shakti Temple",
        "name:kn": "ಓಂ ಶಕ್ತಿ ದೇವಸ್ಥಾನ",
        "religion": "hindu"
      }
    },
    {
      "type": "node",
      "id": 3004219875,
      "lat": 13.0276893,
      "lon": 77.6616598,
      "tags": {
        "name": "Food Mart",
        "operator": "Food Mart",
        "shop": "supermarket"
      }
    },
    {
      "type": "node",
      "id": 4489968461,
      "lat": 13.021991,
      "lon": 77.6620866,
      "tags": {
        "addr:city": "bangalore",
        "addr:housenumber": "326",
        "addr:postcode": "560043",
        "addr:street": "Hrbr layout",
        "name": "Magic Mirror Unisex Spa & Salon",
        "opening_hours": "09:00-21:00",
        "phone": "080 2542 0424",
        "shop": "beauty"
      }
    },
    {
      "type": "node",
      "id": 4844863340,
      "lat": 13.0319862,
      "lon": 77.660617,
      "tags": {
        "name": "Shop ink",
        "name:en": "Shop ink",
        "shop": "supermarket"
      }
    },
    {
      "type": "node",
      "id": 4844863341,
      "lat": 13.0290724,
      "lon": 77.6635243,
      "tags": {
        "amenity": "restaurant",
        "name": "Biryani House",
        "name:en": "Biryani House"
      }
    },
    {
      "type": "node",
      "id": 4844863342,
      "lat": 13.0287244,
      "lon": 77.6638803,
      "tags": {
        "amenity": "restaurant",
        "name": "Kalleshwari Rice corner",
        "name:en": "Kalleshwari Rice corner"
      }
    },
    {
      "type": "node",
      "id": 4851692292,
      "lat": 13.0324535,
      "lon": 77.6713146,
      "tags": {
        "name": "Sai Kanda fruits and vegetables shop",
        "shop": "greengrocer"
      }
    },
    {
      "type": "node",
      "id": 4851692293,
      "lat": 13.0324901,
      "lon": 77.6713723,
      "tags": {
        "name": "Ambar Puncture Shop",
        "shop": "tyres"
      }
    },
    {
      "type": "node",
      "id": 4851692294,
      "lat": 13.0315352,
      "lon": 77.6696599,
      "tags": {
        "name": "Cauvery Bakery and Sweets",
        "shop": "bakery"
      }
    },
    {
      "type": "node",
      "id": 4851692295,
      "lat": 13.031594,
      "lon": 77.6697377,
      "tags": {
        "name": "Vision World",
        "shop": "optician"
      }
    },
    {
      "type": "node",
      "id": 4851692296,
      "lat": 13.0313613,
      "lon": 77.6693813,
      "tags": {
        "name": "Super Art Glass Enterprises",
        "shop": "hardware"
      }
    },
    {
      "type": "node",
      "id": 4851692297,
      "lat": 13.0311434,
      "lon": 77.6691847,
      "tags": {
        "amenity": "school",
        "name": "St George High School",
        "name:kn": "ಸೇಂಟ್ ಜಾರ್ಜ್ ಪ್ರೌಡಶಾಲೆ"
      }
    },
    {
      "type": "node",
      "id": 4851692298,
      "lat": 13.0310425,
      "lon": 77.6689617,
      "tags": {
        "amenity": "restaurant",
        "name": "Ruchi"
      }
    },
    {
      "type": "node",
      "id": 4851692299,
      "lat": 13.0309806,
      "lon": 77.6682208,
      "tags": {
        "amenity": "school",
        "name": "Sunshine Childrens Home and School"
      }
    },
    {
      "type": "node",
      "id": 4851692300,
      "lat": 13.0304629,
      "lon": 77.6669591,
      "tags": {
        "amenity": "car_wash",
        "name": "Sai Car Caare"
      }
    },
    {
      "type": "node",
      "id": 4851692301,
      "lat": 13.0302825,
      "lon": 77.6665431,
      "tags": {
        "name": "Sun Traders",
        "shop": "yes"
      }
    },
    {
      "type": "node",
      "id": 6947716900,
      "lat": 13.0276736,
      "lon": 77.6614188,
      "tags": {
        "addr:district": "Bengaluru Urban",
        "addr:full": "No.21,22,1st Floor,Horamavu Main Road",
        "addr:postcode": "560043",
        "addr:state": "Karnataka",
        "amenity": "hospital",
        "name": "Dr. Sailaja's Super Speciality Eye Hospital",
        "source": "OpenGovernmentData"
      }
    },
    {
      "type": "node",
      "id": 7507326236,
      "lat": 13.0309302,
      "lon": 77.6690791,
      "tags": {
        "amenity": "fuel",
        "brand": "Bharat Petroleum",
        "brand:wikidata": "Q854826",
        "name": "Bharat Petroleum",
        "operator": "Bharat Petroleum",
        "self_service": "no"
      }
    },
    {
      "type": "node",
      "id": 7507326237,
      "lat": 13.0328638,
      "lon": 77.671933,
      "tags": {
        "amenity": "place_of_worship",
        "name": "Hanuman",
        "name:kn": "ಹನುಮಂತ",
        "religion": "hindu"
      }
    },
    {
      "type": "node",
      "id": 7507326238,
      "lat": 13.0328037,
      "lon": 77.6717238,
      "tags": {
        "amenity": "place_of_worship",
        "name": "Shiva",
        "religion": "hindu"
      }
    },
    {
      "type": "node",
      "id": 7507326239,
      "lat": 13.0326731,
      "lon": 77.6715575,
      "tags": {
        "leisure": "fitness_centre"
      }
    },
    {
      "type": "node",
      "id": 7507326240,
      "lat": 13.0332767,
      "lon": 77.6715307,
      "tags": {
        "leisure": "playground"
      }
    },
    {
      "type": "node",
      "id": 7507326241,
      "lat": 13.0306139,
      "lon": 77.667848,
      "tags": {
        "amenity": "place_of_worship",
        "religion": "hindu"
      }
    },
    {
      "type": "node",
      "id": 7507326242,
      "lat": 13.0305173,
      "lon": 77.6673115,
      "tags": {
        "name": "shop right",
        "shop": "supermarket"
      }
    },
    {
      "type": "node",
      "id": 7507326243,
      "lat": 13.0305251,
      "lon": 77.6675932,
      "tags": {
        "amenity": "dentist",
        "healthcare": "dentist"
      }
    },
    {
      "type": "node",
      "id": 7572131821,
      "lat": 13.0258249,
      "lon": 77.6604922,
      "tags": {
        "addr:district": "Bengaluru Urban",
        "addr:full": "Kalkere Main Road, Horamavu, Bengaluru",
        "addr:postcode": "560113",
        "addr:state": "Karnataka",
        "amenity": "clinic",
        "name": "Arjun's Child Care Clinic",
        "source": "Local Knowledge"
      }
    },
    {
      "type": "node",
      "id": 7572131825,
      "lat": 13.0236149,
      "lon": 77.6586628,
      "tags": {
        "addr:district": "Bengaluru Urban",
        "addr:full": "Horamavu, Bengaluru",
        "addr:postcode": "560043",
        "addr:state": "Karnataka",
        "amenity": "clinic",
        "name": "Women's Speciality Polyclinic",
        "source": "Local Knowledge"
      }
    },
    {
      "type": "node",
      "id": 7572131832,
      "lat": 13.0281599,
      "lon": 77.6625832,
      "tags": {
        "addr:district": "Bengaluru Urban",
        "addr:full": "Horamavu, Bengaluru",
        "addr:postcode": "560113",
        "addr:state": "Karnataka",
        "amenity": "clinic",
        "name": "Sri Venkateshwara Clinic",
        "source": "Local Knowledge"
      }
    },
    {
      "type": "node",
      "id": 7572131833,
      "lat": 13.0239995,
      "lon": 77.6585299,
      "tags": {
        "addr:district": "Bengaluru Urban",
        "addr:full": "Horamavu, Near Banaswadi, Bengaluru",
        "addr:postcode": "560043",
        "addr:state": "Karnataka",
        "amenity": "hospital",
        "name": "Stroke Treatment Paralysis",
        "source": "Local Knowledge"
      }
    },
    {
      "type": "node",
      "id": 7572131835,
      "lat": 13.0283977,
      "lon": 77.6599575,
      "tags": {
        "addr:district": "Bengaluru Urban",
        "addr:full": "Banaswadi, Bengaluru",
        "addr:postcode": "560043",
        "addr:state": "Karnataka",
        "amenity": "hospital",
        "name": "Geriatric Hospitals",
        "source": "Local Knowledge"
      }
    },
    {
      "type": "node",
      "id": 7572131850,
      "lat": 13.024278,
      "lon": 77.6587297,
      "tags": {
        "addr:district": "Bengaluru Urban",
        "addr:full": "Ashirvad Colony, Horamavu, Bengaluru",
        "addr:postcode": "560043",
        "addr:state": "Karnataka",
        "amenity": "clinic",
        "name": "People's Clinic",
        "source": "Local Knowledge"
      }
    },
    {
      "type": "node",
      "id": 7572131854,
      "lat": 13.0236678,
      "lon": 77.6587012,
      "tags": {
        "addr:district": "Bengaluru Urban",
        "addr:full": "Amar Regency, Munireddy Layout, Horamavu, Bengaluru",
        "addr:postcode": "560043",
        "addr:state": "Karnataka",
        "amenity": "clinic",
        "name": "The Children's Clinic",
        "source": "Local Knowledge"
      }
    },
    {
      "type": "node",
      "id": 7572131859,
      "lat": 13.0308448,
      "lon": 77.6686663,
      "tags": {
        "addr:district": "Bengaluru Urban",
        "addr:full": "Kalkere, Bengaluru",
        "addr:postcode": "560016",
        "addr:state": "Karnataka",
        "amenity": "clinic",
        "name": "Urban Kids Clinic",
        "source": "Local Knowledge"
      }
    },
    {
      "type": "node",
      "id": 7572131869,
      "lat": 13.022726,
      "lon": 77.658252,
      "tags": {
        "addr:district": "Bengaluru Urban",
        "addr:full": "Ashirvad Colony, Horamavu, Bengaluru",
        "addr:postcode": "560043",
        "addr:state": "Karnataka",
        "amenity": "clinic",
        "name": "Motherhoodclinic",
        "source": "Local Knowledge"
      }
    },
    {
      "type": "node",
      "id": 7572131880,
      "lat": 13.0219021,
      "lon": 77.65971,
      "tags": {
        "addr:district": "Bengaluru Urban",
        "addr:full": "Nandanam Colony, Kallumantapa, Horamavu, Bengaluru",
        "addr:postcode": "560043",
        "addr:state": "Karnataka",
        "amenity": "clinic",
        "name": "Shubham Ayurvedic Clinic",
        "source": "Local Knowledge"
      }
    },
    {
      "type": "node",
      "id": 7572131897,
      "lat": 13.0255719,
      "lon": 77.6599541,
      "tags": {
        "addr:district": "Bengaluru Urban",
        "addr:full": "Horamavu Banaswadi, Horamavu, Bengaluru",
        "addr:postcode": "560043",
        "addr:state": "Karnataka",
        "amenity": "clinic",
        "name": "Nava Chaithanya Clinic",
        "source": "Local Knowledge"
      }
    },
    {
      "type": "node",
      "id": 7572131899,
      "lat": 13.0234596,
      "lon": 77.6587343,
      "tags": {
        "addr:district": "Bengaluru Urban",
        "addr:full": "Horamavu, Bengaluru",
        "addr:postcode": "560043",
        "addr:state": "Karnataka",
        "amenity": "clinic",
        "name": "Lifespan Diabetic Clinic",
        "source": "Local Knowledge"
      }
    },
    {
      "type": "node",
      "id": 7605605797,
      "lat": 13.0291681,
      "lon": 77.6691999,
      "tags": {
        "addr:city": "Bengaluru",
        "addr:housenumber": "Survey no 505/1 & 505/2",
        "addr:postcode": "560043",
        "addr:street": "Kalkere Village, K.R. Puram Hobli, Bangalore South Taluk",
        "leisure": "park",
        "name": "Cumins Sports park",
        "operator": "Cumins"
      }
    },
    {
      "type": "node",
      "id": 12260379389,
      "lat": 13.0287091,
      "lon": 77.6634042,
      "tags": {
        "brand": "Kanti Sweets",
        "brand:wikidata": "Q124374180",
        "name": "Kanti Sweets",
        "shop": "confectionery"
      }
    },
    {
      "type": "node",
      "id": 12538036889,
      "lat": 13.0276892,
      "lon": 77.6624314,
      "tags": {
        "addr:city": "Bengaluru",
        "addr:district": "Bengaluru Urban",
        "addr:postcode": "560043",
        "addr:street": "Horamavu Main Rd, Ashirvad Colony, Horamavu",
        "amenity": "bank",
        "brand": "State Bank of India",
        "brand:wikidata": "Q1340361",
        "name": "State Bank of India",
        "short_name": "SBI"
      }
    },
    {
      "type": "node",
      "id": 12985410879,
      "lat": 13.0267913,
      "lon": 77.6658288,
      "tags": {
        "addr:floor": "G",
        "amenity": "place_of_worship",
        "check_date": "2025-07-07",
        "level": "0",
        "religion": "hindu"
      }
    },
    {
      "type": "node",
      "id": 12985410880,
      "lat": 13.0265206,
      "lon": 77.6658185,
      "tags": {
        "addr:floor": "G",
        "amenity": "place_of_worship",
        "check_date": "2025-07-07",
        "level": "0",
        "name": "Sri Chamundeswari Temple",
        "name:en": "Sri Chamundeswari Temple",
        "religion": "hindu"
      }
    },
    {
      "type": "way",
      "id": 37592665,
      "center": {
        "lat": 13.0312504,
        "lon": 77.6696022
      },
      "tags": {
        "amenity": "college",
        "name": "Saint John's Academy of Management Studies"
      }
    },
    {
      "type": "way",
      "id": 239716193,
      "center": {
        "lat": 13.0313671,
        "lon": 77.6685691
      },
      "tags": {
        "addr:city": "KALKERE",
        "addr:street": "Kalkere Main Road;Horamavu Main Road",
        "amenity": "school",
        "name": "Sunshine School"
      }
    },
    {
      "type": "way",
      "id": 239716960,
      "center": {
        "lat": 13.0330113,
        "lon": 77.6735548
      },
      "tags": {
        "amenity": "school",
        "name": "Kalkere Government High School",
        "name:kn": "ಕಾಲ್ಕೆರೆ ಸರ್ಕಾರಿ ಪ್ರೌಢ ಶಾಲೆ"
      }
    },
    {
      "type": "way",
      "id": 814167242,
      "center": {
        "lat": 13.0291464,
        "lon": 77.669209
      },
      "tags": {
        "addr:city": "Bengaluru",
        "addr:housenumber": "Survey no 505/1 & 505/2",
        "addr:postcode": "560043",
        "addr:street": "Kalkere Village, K.R. Puram Hobli, Bangalore South Taluk",
        "leisure": "park",
        "name": "Cumins Sports Park",
        "opening_hours": "sunrise-sunset",
        "opening_hours:covid19": "closed",
        "operator": "Cumins Genesis"
      }
    },
    {
      "type": "way",
      "id": 1082662449,
      "center": {
        "lat": 13.0286527,
        "lon": 77.6650662
      },
      "tags": {
        "leisure": "swimming_pool"
      }
    },
    {
      "type": "way",
      "id": 1266460872,
      "center": {
        "lat": 13.0361217,
        "lon": 77.6699629
      },
      "tags": {
        "amenity": "school"
      }
    },
    {
      "type": "way",
      "id": 1322091226,
      "center": {
        "lat": 13.0323557,
        "lon": 77.6600139
      },
      "tags": {
        "amenity": "fuel",
        "brand": "Hindustan Petroleum",
        "brand:wikidata": "Q1619375",
        "name": "HP Petrol Pump",
        "official_name": "Hindustan Petroleum",
        "operator": "HPCL"
      }
    },
    {
      "type": "way",
      "id": 1322091227,
      "center": {
        "lat": 13.0299353,
        "lon": 77.6624162
      },
      "tags": {
        "amenity": "fuel",
        "brand": "Nayara",
        "brand:wikidata": "Q5399377",
        "name": "Nayara Essar Petrol Pump",
        "operator": "Nayara"
      }
    },
    {
      "type": "way",
      "id": 1324924809,
      "center": {
        "lat": 13.0300681,
        "lon": 77.6621769
      },
      "tags": {
        "building": "yes",
        "name": "Reliance Smartpoint",
        "shop": "mall",
        "source": "microsoft/BuildingFootprints"
      }
    },
    {
      "type": "way",
      "id": 1324924810,
      "center": {
        "lat": 13.0286576,
        "lon": 77.663343
      },
      "tags": {
        "building": "yes",
        "name": "VDS Complex",
        "shop": "yes",
        "source": "microsoft/BuildingFootprints"
      }
    },
    {
      "type": "way",
      "id": 1324924811,
      "center": {
        "lat": 13.0280364,
        "lon": 77.6642559
      },
      "tags": {
        "amenity": "restaurant",
        "building": "yes",
        "cuisine": "regional;south_indian",
        "diet:vegetarian": "yes",
        "name": "Udupi Gardenia Jayantinagar",
        "source": "microsoft/BuildingFootprints"
      }
    },
    {
      "type": "way",
      "id": 1324924815,
      "center": {
        "lat": 13.034161,
        "lon": 77.6719542
      },
      "tags": {
        "amenity": "place_of_worship",
        "building": "yes",
        "name": "Kalkere Sri Shankara Matha",
        "religion": "hindu",
        "source": "microsoft/BuildingFootprints"
      }
    },
    {
      "type": "way",
      "id": 1346107775,
      "center": {
        "lat": 13.0355679,
        "lon": 77.6587929
      },
      "tags": {
        "leisure": "park",
        "name": "Horamavu Agara Lake Park"
      }
    },
    {
      "type": "way",
      "id": 1346910005,
      "center": {
        "lat": 13.0261629,
        "lon": 77.6564647
      },
      "tags": {
        "amenity": "school",
        "name": "Sri Chaitanya School"
      }
    },
    {
      "type": "way",
      "id": 1346910006,
      "center": {
        "lat": 13.0269962,
        "lon": 77.6569341
      },
      "tags": {
        "amenity": "college",
        "name": "Sri Chaitanya PU College, Horamavu"
      }
    },
    {
      "type": "way",
      "id": 1415079188,
      "center": {
        "lat": 13.0252205,
        "lon": 77.6699248
      },
      "tags": {
        "leisure": "swimming_pool"
      }
    },
    {
      "type": "way",
      "id": 1415079189,
      "center": {
        "lat": 13.0250852,
        "lon": 77.6700388
      },
      "tags": {
        "leisure": "pitch",
        "sport": "basketball"
      }
    },
    {
      "type": "way",
      "id": 1415079192,
      "center": {
        "lat": 13.0261391,
        "lon": 77.6681095
      },
      "tags": {
        "leisure": "pitch",
        "sport": "tennis"
      }
    },
    {
      "type": "way",
      "id": 1415079193,
      "center": {
        "lat": 13.0252068,
        "lon": 77.6692877
      },
      "tags": {
        "amenity": "school",
        "check_date": "2025-07-07",
        "name": "Sri Chaitanya Techno School",
        "name:en": "Sri Chaitanya Techno School",
        "operator:type": "private"
      }
    },
    {
      "type": "way",
      "id": 1415079194,
      "center": {
        "lat": 13.0247312,
        "lon": 77.669619
      },
      "tags": {
        "amenity": "school"
      }
    },
    {
      "type": "way",
      "id": 1423887067,
      "center": {
        "lat": 13.0203776,
        "lon": 77.6656371
      },
      "tags": {
        "amenity": "school"
      }
    },
    {
      "type": "way",
      "id": 1424040646,
      "center": {
        "lat": 13.0208322,
        "lon": 77.663039
      },
      "tags": {
        "access": "private",
        "leisure": "swimming_pool"
      }
    },
    {
      "type": "way",
      "id": 1424040647,
      "center": {
        "lat": 13.0210729,
        "lon": 77.6642644
      },
      "tags": {
        "access": "private",
        "leisure": "swimming_pool"
      }
    },
    {
      "type": "way",
      "id": 1424040648,
      "center": {
        "lat": 13.0214293,
        "lon": 77.6643388
      },
      "tags": {
        "access": "private",
        "leisure": "pitch",
        "sport": "tennis"
      }
    },
    {
      "type": "way",
      "id": 1425204394,
      "center": {
        "lat": 13.0203726,
        "lon": 77.6656727
      },
      "tags": {
        "leisure": "pitch"
      }
    }
  ]
}