{
  "area_name": "Jnana Bharathi Ward",
  "osm_id": 19884607,
  "osm_type": "relation",
  "place_type": "administrative",
  "amenity_count": 82,
  "amenities": [
    {
      "type": "node",
      "id": 1420968783,
      "lat": 12.9327721,
      "lon": 77.5031212,
      "tags": {
        "amenity": "parking"
      }
    },
    {
      "type": "node",
      "id": 1463521815,
      "lat": 12.9433773,
      "lon": 77.5044892,
      "tags": {
        "amenity": "place_of_worship",
        "name": "Muneshwara Temple",
        "name:kn": "ಮುನೇಶ್ವರ ದೇವಸ್ಥಾನ",
        "religion": "hindu"
      }
    },
    {
      "type": "node",
      "id": 1463525671,
      "lat": 12.9377048,
      "lon": 77.50855,
      "tags": {
        "amenity": "school",
        "name": "Vice Chancellor's Lodge"
      }
    },
    {
      "type": "node",
      "id": 1778854791,
      "lat": 12.9570377,
      "lon": 77.5026901,
      "tags": {
        "amenity": "fuel",
        "brand": "HP",
        "name": "Petrol Station"
      }
    },
    {
      "type": "node",
      "id": 3713424290,
      "lat": 12.935519,
      "lon": 77.5020395,
      "tags": {
        "addr:city": "Bengaluru",
        "addr:postcode": "560060",
        "addr:street": "Near Govenment Press",
        "amenity": "place_of_worship",
        "name": "Vinayaka Temple",
        "name:kn": "ವಿನಾಯಕ ದೇವಸ್ಥಾನ",
        "religion": "hindu"
      }
    },
    {
      "type": "node",
      "id": 3713450648,
      "lat": 12.9433024,
      "lon": 77.5055822,
      "tags": {
        "addr:city": "Bengaluru",
        "addr:postcode": "560060",
        "addr:street": "University Road",
        "amenity": "cafe",
        "name": "University Cafeteria"
      }
    },
    {
      "type": "node",
      "id": 4216745289,
      "lat": 12.9501733,
      "lon": 77.4984777,
      "tags": {
        "addr:housenumber": "42/49",
        "addr:postcode": "560056",
        "addr:street": "Mariyappana Palya Main Road",
        "email": "2decopark@gmail.com",
        "name": "Decopark",
        "opening_hours": "Mo-Sa 10:00-13:00, 14:00-06:00",
        "phone": "08023241418",
        "shop": "hardware"
      }
    },
    {
      "type": "node",
      "id": 5502001425,
      "lat": 12.9532911,
      "lon": 77.5001951,
      "tags": {
        "addr:street": "Kengeri Main Road",
        "amenity": "place_of_worship",
        "name": "Shri Laxmi Narasimha Swamy Temple",
        "name:kn": "ಲಕ್ಶ್ಮಿ ನರಸಿಂಹ ಸ್ವಾಮಿ ದೇವಸ್ಥಾನ",
        "religion": "hindu"
      }
    },
    {
      "type": "node",
      "id": 6815596343,
      "lat": 12.9264213,
      "lon": 77.500273,
      "tags": {
        "addr:city": "Bengaluru",
        "addr:country": "IN",
        "addr:housenumber": "3rd & 4th Floor, White Palace Hotel & Convention Centre",
        "addr:postcode": "560056",
        "addr:street": "Mysore Road",
        "amenity": "pub",
        "microbrewery": "yes",
        "name": "Brew Kings",
        "outdoor_seating": "yes",
        "website": "https://brewkingsbangalore.com/"
      }
    },
    {
      "type": "node",
      "id": 6937844482,
      "lat": 12.9517481,
      "lon": 77.4939886,
      "tags": {
        "addr:district": "Bengaluru Urban",
        "addr:full": "#43/2, 3Road Cross, OppositeSaroja Memorial School, Jnanajyothi Nagar, Ullal Main Road",
        "addr:postcode": "560056",
        "addr:state": "Karnataka",
        "amenity": "hospital",
        "name": "Abhay Hospital",
        "name:kn": "ಅಭಯ ಆಸ್ಪತ್ರೆ",
        "source": "OpenGovernmentData"
      }
    },
    {
      "type": "node",
      "id": 6948187839,
      "lat": 12.95119,
      "lon": 77.4918039,
      "tags": {
        "addr:district": "Mysuru",
        "addr:full": "34/1, Ta.Ra.Su. Circla Yadavagiri",
        "addr:postcode": "570020",
        "addr:state": "Karnataka",
        "amenity": "hospital",
        "name": "Sankalpa Hospital",
        "name:kn": "ಸಂಕಲ್ಪ ಆಸ್ಪತ್ರೆ",
        "source": "OpenGovernmentData"
      }
    },
    {
      "type": "node",
      "id": 7289130232,
      "lat": 12.9316197,
      "lon": 77.5062449,
      "tags": {
        "amenity": "atm",
        "brand": "UCO Bank",
        "check_date": "2022-11-25",
        "operator": "UCO Bank"
      }
    },
    {
      "type": "node",
      "id": 7695518285,
      "lat": 12.9454491,
      "lon": 77.509215,
      "tags": {
        "addr:postcode": "560056",
        "addr:street": "Gandhi Marg",
        "amenity": "college",
        "name": "Department of Geology",
        "opening_hours": "Mo-Sa 09:00-18:00"
      }
    },
    {
      "type": "node",
      "id": 9654252397,
      "lat": 12.9519232,
      "lon": 77.4995649,
      "tags": {
        "amenity": "clinic",
        "name": "Sri Ganesha Clinic"
      }
    },
    {
      "type": "node",
      "id": 10218082461,
      "lat": 12.9285826,
      "lon": 77.5028976,
      "tags": {
        "amenity": "fuel",
        "brand": "Bharat Petroleum",
        "brand:wikidata": "Q854826",
        "check_date": "2022-11-25",
        "compressed_air": "yes",
        "fuel:diesel": "yes",
        "fuel:petrol": "yes",
        "name": "Bharat Petroleum",
        "name:kn": "ಭಾರತ್ ಪೆಟ್ರೋಲಿಯಂ",
        "self_service": "no",
        "source": "survey"
      }
    },
    {
      "type": "node",
      "id": 12087229010,
      "lat": 12.9606513,
      "lon": 77.4880845,
      "tags": {
        "name": "All Season Market",
        "opening_hours": "07:00-22:00",
        "shop": "supermarket",
        "survey:date": "2024-08-01"
      }
    },
    {
      "type": "node",
      "id": 12087229011,
      "lat": 12.9580734,
      "lon": 77.4875539,
      "tags": {
        "amenity": "restaurant",
        "name": "Soda Factory",
        "opening_hours": "Mo-Sa 11:30-01:00",
        "phone": "+91 97394 77877",
        "survey:date": "2024-08-01",
        "website": "https://thesodafactory.in/"
      }
    },
    {
      "type": "node",
      "id": 12145547063,
      "lat": 12.9294303,
      "lon": 77.5039923,
      "tags": {
        "amenity": "fuel",
        "brand": "Hindustan Petroleum",
        "brand:wikidata": "Q1619375",
        "name": "HP",
        "official_name": "Hindustan Petroleum"
      }
    },
    {
      "type": "node",
      "id": 12456171483,
      "lat": 12.9521586,
      "lon": 77.4994998,
      "tags": {
        "name": "A to Z",
        "shop": "supermarket"
      }
    },
    {
      "type": "node",
      "id": 12456171488,
      "lat": 12.9518674,
      "lon": 77.498944,
      "tags": {
        "name": "Lotus Mobiles",
        "shop": "mobile_phone"
      }
    },
    {
      "type": "node",
      "id": 12456171493,
      "lat": 12.9519538,
      "lon": 77.4987844,
      "tags": {
        "amenity": "bank",
        "name": "The Bengaluru City Co-operative Bank"
      }
    },
    {
      "type": "node",
      "id": 12456171494,
      "lat": 12.9521165,
      "lon": 77.4980883,
      "tags": {
        "alt_name": "Kentucky Fried Chicken",
        "alt_name:en": "Kentucky Fried Chicken",
        "alt_name:hi": "केंटुकी फ्राइड चिकन",
        "alt_name:pa": "ਕੈਂਟੁਕੀ ਫ੍ਰਾਈਡ ਚਿਕਨ",
        "alt_name:pnb": "کینٹکی فرائیڈ چکن",
        "alt_name:ur": "کینٹکی فرائیڈ چکن",
        "amenity": "fast_food",
        "brand": "KFC",
        "brand:en": "KFC",
        "brand:hi": "केएफसी",
        "brand:pa": "ਕੇਐਫਸੀ",
        "brand:pnb": "کے ایف سی",
        "brand:ur": "کے ایف سی",
        "brand:wikidata": "Q524757",
        "cuisine": "chicken",
        "name": "KFC",
        "name:en": "KFC",
        "name:hi": "केएफसी",
        "name:pa": "ਕੇਐਫਸੀ",
        "name:pnb": "کے ایف سی",
        "name:ur": "کے ایف سی",
        "takeaway": "yes"
      }
    },
    {
      "type": "node",
      "id": 12456171495,
      "lat": 12.95208,
      "lon": 77.4977918,
      "tags": {
        "shop": "supermarket"
      }
    },
    {
      "type": "node",
      "id": 12456210414,
      "lat": 12.9511672,
      "lon": 77.4948779,
      "tags": {
        "name": "Mangaluru Stores",
        "shop": "supermarket"
      }
    },
    {
      "type": "node",
      "id": 12456210415,
      "lat": 12.9511792,
      "lon": 77.4943916,
      "tags": {
        "amenity": "fast_food",
        "brand": "Domino's",
        "brand:wikidata": "Q839466",
        "cuisine": "pizza",
        "name": "Domino's",
        "takeaway": "yes"
      }
    },
    {
      "type": "node",
      "id": 12456237502,
      "lat": 12.9511626,
      "lon": 77.4944233,
      "tags": {
        "name": "Spin Unisex Salon",
        "shop": "hairdresser"
      }
    },
    {
      "type": "node",
      "id": 12456237565,
      "lat": 12.9543928,
      "lon": 77.497201,
      "tags": {
        "amenity": "pharmacy",
        "healthcare": "pharmacy",
        "name": "Janasuraksha Medicals"
      }
    },
    {
      "type": "node",
      "id": 12456237570,
      "lat": 12.9546117,
      "lon": 77.4967995,
      "tags": {
        "name": "Surya Department Store",
        "shop": "supermarket"
      }
    },
    {
      "type": "node",
      "id": 12456237571,
      "lat": 12.9544913,
      "lon": 77.4967574,
      "tags": {
        "amenity": "pharmacy",
        "healthcare": "pharmacy",
        "name": "Kesari Medicals"
      }
    },
    {
      "type": "node",
      "id": 12456237572,
      "lat": 12.954568,
      "lon": 77.4964584,
      "tags": {
        "name": "Manjunatha Condiments",
        "shop": "convenience"
      }
    },
    {
      "type": "node",
      "id": 12651764011,
      "lat": 12.9519863,
      "lon": 77.4989075,
      "tags": {
        "addr:city": "Bengaluru",
        "addr:postcode": "560056",
        "addr:street": "Ullal Main Road",
        "amenity": "hospital",
        "healthcare": "hospital",
        "healthcare:speciality": "gynaecology",
        "mobile": "09980816643",
        "name": "Shri Mokambika Women's Clinic, Child care and Nethralaya",
        "note": "Plus Code: XF2X+QJ Bengaluru, Karnataka"
      }
    },
    {
      "type": "node",
      "id": 12651764012,
      "lat": 12.9519538,
      "lon": 77.4990341,
      "tags": {
        "addr:city": "Bengaluru",
        "addr:postcode": "560056",
        "addr:street": "Ullal Main Road",
        "amenity": "hospital",
        "healthcare": "hospital",
        "healthcare:speciality": "diagnostic_centre;blood_check;scanning;x-ray;ecg;laboratory",
        "mobile": "9972629415",
        "name": "Suraksha Diagnostic Centre",
        "opening_hours": "Mo-Sa 07:00-21:00,Su 07:00-14:00"
      }
    },
    {
      "type": "node",
      "id": 12651764013,
      "lat": 12.9520053,
      "lon": 77.4988224,
      "tags": {
        "addr:city": "Bengaluru",
        "addr:housenumber": "8",
        "addr:postcode": "560056",
        "addr:street": "Ullal Main Road",
        "name": "Rekha Hardware and Ceramics",
        "note": "Plus code: XF2X+VG Bengaluru, Karnataka",
        "opening_hours": "Mo-Su 08:00-20:00",
        "payment:cards": "yes",
        "payment:contactless": "yes",
        "phone": "99000000796",
        "shop": "hardware"
      }
    },
    {
      "type": "node",
      "id": 12651764014,
      "lat": 12.9519575,
      "lon": 77.4984766,
      "tags": {
        "addr:city": "Bengaluru",
        "addr:housenumber": "11",
        "addr:postcode": "560056",
        "addr:street": "2nd main road, Ullal Main Road",
        "name": "MS Bakery",
        "note": "XF2X+Q9 Bengaluru, Karnataka",
        "opening_hours": "Mo-Su 07:00-21:00",
        "phone": "8310082660",
        "shop": "bakery"
      }
    },
    {
      "type": "way",
      "id": 128624631,
      "center": {
        "lat": 12.9324122,
        "lon": 77.5041669
      },
      "tags": {
        "addr:postcode": "560059",
        "addr:street": "Mysore Road",
        "addr:unit": "8th Mile",
        "alt_name": "Indian Statistical Institute, Bangalore Centre",
        "amenity": "university",
        "barrier": "wall",
        "name": "Indian Statistical Institute",
        "operator:type": "public",
        "short_name": "ISI Bangalore"
      }
    },
    {
      "type": "way",
      "id": 139525035,
      "center": {
        "lat": 12.9463378,
        "lon": 77.5131659
      },
      "tags": {
        "leisure": "pitch",
        "sport": "soccer"
      }
    },
    {
      "type": "way",
      "id": 139525037,
      "center": {
        "lat": 12.9456426,
        "lon": 77.5154449
      },
      "tags": {
        "leisure": "pitch",
        "sport": "basketball"
      }
    },
    {
      "type": "way",
      "id": 139525039,
      "center": {
        "lat": 12.9438334,
        "lon": 77.5139056
      },
      "tags": {
        "leisure": "track"
      }
    },
    {
      "type": "way",
      "id": 139525042,
      "center": {
        "lat": 12.9463831,
        "lon": 77.5131684
      },
      "tags": {
        "leisure": "track"
      }
    },
    {
      "type": "way",
      "id": 139525046,
      "center": {
        "lat": 12.9463473,
        "lon": 77.5141477
      },
      "tags": {
        "leisure": "pitch",
        "sport": "hockey"
      }
    },
    {
      "type": "way",
      "id": 139525047,
      "center": {
        "lat": 12.9395071,
        "lon": 77.5005416
      },
      "tags": {
        "leisure": "track"
      }
    },
    {
      "type": "way",
      "id": 168105379,
      "center": {
        "lat": 12.9258463,
        "lon": 77.4993799
      },
      "tags": {
        "addr:postcode": "560059",
        "addr:street": "Mysore Road",
        "amenity": "college",
        "name": "Bangalore Institute of Management Studies"
      }
    },
    {
      "type": "way",
      "id": 248031124,
      "center": {
        "lat": 12.9302966,
        "lon": 77.502963
      },
      "tags": {
        "leisure": "park",
        "name": "ISI Park"
      }
    },
    {
      "type": "way",
      "id": 329462121,
      "center": {
        "lat": 12.9532049,
        "lon": 77.5000117
      },
      "tags": {
        "amenity": "community_centre",
        "building": "yes",
        "name": "Sri Venkateshwara Marriage Hall"
      }
    },
    {
      "type": "way",
      "id": 329465077,
      "center": {
        "lat": 12.9563325,
        "lon": 77.5059592
      },
      "tags": {
        "amenity": "theatre",
        "name": "Kalagrama Open Auditorium"
      }
    },
    {
      "type": "way",
      "id": 330321125,
      "center": {
        "lat": 12.9515827,
        "lon": 77.4876548
      },
      "tags": {
        "amenity": "school",
        "name": "Vidyanikethan Public School",
        "name:kn": "ವಿದ್ಯಾನಿಕೇತನ ಶಾಲೆ"
      }
    },
    {
      "type": "way",
      "id": 335710800,
      "center": {
        "lat": 12.9446893,
        "lon": 77.5050242
      },
      "tags": {
        "amenity": "library",
        "building": "yes",
        "name": "Dr. Babasaheb Ambedkar Central Library",
        "name:kn": "ಡಾ.ಬಾಬಾಸಾಹೇಬ್ ಅಂಬೇಡ್ಕರ್ ಕೇಂದ್ರ ಗ್ರಂಥಾಲಯ"
      }
    },
    {
      "type": "way",
      "id": 348169755,
      "center": {
        "lat": 12.9571952,
        "lon": 77.5051856
      },
      "tags": {
        "amenity": "theatre",
        "building": "yes",
        "name": "Kalagrama Auditorium"
      }
    },
    {
      "type": "way",
      "id": 348224514,
      "center": {
        "lat": 12.9332131,
        "lon": 77.5083663
      },
      "tags": {
        "amenity": "place_of_worship",
        "building": "yes",
        "check_date": "2022-11-25",
        "religion": "hindu"
      }
    },
    {
      "type": "way",
      "id": 348248061,
      "center": {
        "lat": 12.9319643,
        "lon": 77.5026152
      },
      "tags": {
        "amenity": "restaurant",
        "building": "yes",
        "level": "0",
        "operator": "Indian Statistical Institute, Bangalore",
        "self_service": "yes",
        "toilets:access": "customers",
        "wheelchair": "yes"
      }
    },
    {
      "type": "way",
      "id": 350050412,
      "center": {
        "lat": 12.9593269,
        "lon": 77.4859416
      },
      "tags": {
        "amenity": "place_of_worship",
        "building": "yes",
        "religion": "hindu"
      }
    },
    {
      "type": "way",
      "id": 367194821,
      "center": {
        "lat": 12.933761,
        "lon": 77.5038475
      },
      "tags": {
        "leisure": "pitch",
        "name": "Football Ground",
        "name:kn": "ಫುಟ್ಬಾಲ್ ಆಟದ ಮೈದಾನ",
        "sport": "soccer"
      }
    },
    {
      "type": "way",
      "id": 367419482,
      "center": {
        "lat": 12.9395975,
        "lon": 77.5006838
      },
      "tags": {
        "leisure": "pitch",
        "lit": "no",
        "name": "University Grounds",
        "sport": "athletics",
        "surface": "unpaved"
      }
    },
    {
      "type": "way",
      "id": 504193652,
      "center": {
        "lat": 12.9440466,
        "lon": 77.5155114
      },
      "tags": {
        "leisure": "pitch",
        "sport": "field_hockey"
      }
    },
    {
      "type": "way",
      "id": 513025075,
      "center": {
        "lat": 12.9253736,
        "lon": 77.4985971
      },
      "tags": {
        "amenity": "school",
        "name": "Orchard International School"
      }
    },
    {
      "type": "way",
      "id": 560713513,
      "center": {
        "lat": 12.9254839,
        "lon": 77.4990373
      },
      "tags": {
        "access": "private",
        "leisure": "playground"
      }
    },
    {
      "type": "way",
      "id": 639323952,
      "center": {
        "lat": 12.9405549,
        "lon": 77.5021368
      },
      "tags": {
        "access": "permissive",
        "leisure": "swimming_pool",
        "name": "Swimming Pool",
        "name:kn": "ಈಜುಕೊಳ"
      }
    },
    {
      "type": "way",
      "id": 639323953,
      "center": {
        "lat": 12.9405653,
        "lon": 77.5021194
      },
      "tags": {
        "leisure": "sports_centre",
        "sport": "swimming"
      }
    },
    {
      "type": "way",
      "id": 639323959,
      "center": {
        "lat": 12.9449086,
        "lon": 77.5058437
      },
      "tags": {
        "leisure": "pitch",
        "name": "CWECK Cricket Ground",
        "sport": "cricket",
        "surface": "compacted"
      }
    },
    {
      "type": "way",
      "id": 665219925,
      "center": {
        "lat": 12.9263252,
        "lon": 77.500057
      },
      "tags": {
        "addr:city": "Bengaluru",
        "addr:country": "IN",
        "addr:hamlet": "Pattanagere",
        "addr:street": "Mysore Road",
        "amenity": "community_centre",
        "building": "commercial",
        "building:levels": "4",
        "name": "White Palace Convention Centre",
        "phone": "+91 76 8700 8700, +91 74111 11011",
        "website": "http://whitepalacebangalore.com/"
      }
    },
    {
      "type": "way",
      "id": 742634561,
      "center": {
        "lat": 12.9453679,
        "lon": 77.5147864
      },
      "tags": {
        "leisure": "pitch",
        "sport": "soccer"
      }
    },
    {
      "type": "way",
      "id": 764568262,
      "center": {
        "lat": 12.9323412,
        "lon": 77.5033026
      },
      "tags": {
        "leisure": "garden"
      }
    },
    {
      "type": "way",
      "id": 886184271,
      "center": {
        "lat": 12.9280584,
        "lon": 77.4993664
      },
      "tags": {
        "amenity": "monastery",
        "name": "Shanthi Sadhana, FISI",
        "name:kn": "ಶಾಂತಿ ಸದನ"
      }
    },
    {
      "type": "way",
      "id": 886184273,
      "center": {
        "lat": 12.926725,
        "lon": 77.49845
      },
      "tags": {
        "addr:full": "46/4, Valagerehalli, Kengeri, Kengeri, Dubasi Palya, Kengeri Satellite Town, Bengaluru, Karnataka",
        "addr:state": "Karnataka",
        "amenity": "college",
        "name": "St. Anthony's PU College",
        "name:kn": "ದರ್ಶನ್ ಕಾಲೇಜ್"
      }
    },
    {
      "type": "way",
      "id": 1050578229,
      "center": {
        "lat": 12.9566063,
        "lon": 77.5057463
      },
      "tags": {
        "amenity": "college",
        "name": "National School of Drama, Bengaluru",
        "short_name": "NSD Bengaluru"
      }
    },
    {
      "type": "way",
      "id": 1134260322,
      "center": {
        "lat": 12.9442837,
        "lon": 77.51498
      },
      "tags": {
        "leisure": "pitch",
        "sport": "tennis"
      }
    },
    {
      "type": "way",
      "id": 1134831506,
      "center": {
        "lat": 12.9354153,
        "lon": 77.5100279
      },
      "tags": {
        "amenity": "fire_station",
        "name": "Nagarbhavi Fire Station",
        "name:kn": "ನಾಗರಭಾವಿ ಅಗ್ನಿಶಾಮಕ ಠಾಣೆ"
      }
    },
    {
      "type": "way",
      "id": 1241556749,
      "center": {
        "lat": 12.9654757,
        "lon": 77.4948624
      },
      "tags": {
        "leisure": "park",
        "name": "Malathhalli Lake Park"
      }
    },
    {
      "type": "way",
      "id": 1241557219,
      "center": {
        "lat": 12.9587423,
        "lon": 77.4857919
      },
      "tags": {
        "leisure": "park"
      }
    },
    {
      "type": "way",
      "id": 1286468237,
      "center": {
        "lat": 12.9297245,
        "lon": 77.5045873
      },
      "tags": {
        "amenity": "fuel",
        "brand": "Nayara",
        "brand:wikidata": "Q1360409",
        "check_date": "2023-10-08",
        "name": "Nayara",
        "self_service": "no"
      }
    },
    {
      "type": "way",
      "id": 1286468238,
      "center": {
        "lat": 12.9295595,
        "lon": 77.5039161
      },
      "tags": {
        "amenity": "fuel",
        "compressed_air": "yes",
        "name": "Hindustan Petroleum",
        "name:kn": "ಹಿಂದುಸ್ತಾನ್ ಪೆಟ್ರೋಲಿಯಂ",
        "operator": "Hindustan Petroleum"
      }
    },
    {
      "type": "way",
      "id": 1296085039,
      "center": {
        "lat": 12.9546652,
        "lon": 77.4887442
      },
      "tags": {
        "leisure": "park"
      }
    },
    {
      "type": "way",
      "id": 1296085053,
      "center": {
        "lat": 12.9518186,
        "lon": 77.4891204
      },
      "tags": {
        "leisure": "park"
      }
    },
    {
      "type": "way",
      "id": 1296085055,
      "center": {
        "lat": 12.951245,
        "lon": 77.4882209
      },
      "tags": {
        "leisure": "pitch",
        "sport": "tennis"
      }
    },
    {
      "type": "way",
      "id": 1318025690,
      "center": {
        "lat": 12.935799,
        "lon": 77.5122322
      },
      "tags": {
        "access": "customers",
        "amenity": "parking",
        "parking": "surface"
      }
    },
    {
      "type": "way",
      "id": 1346660770,
      "center": {
        "lat": 12.951504,
        "lon": 77.4948533
      },
      "tags": {
        "amenity": "fuel"
      }
    },
    {
      "type": "way",
      "id": 1346660776,
      "center": {
        "lat": 12.9514257,
        "lon": 77.5006605
      },
      "tags": {
        "addr:city": "Bengaluru",
        "addr:postcode": "560056",
        "addr:street": "Jnanabharathi Campus, Gnana Bharathi",
        "amenity": "place_of_worship",
        "name": "Sri Vidya Ganapathi Temple",
        "religion": "hindu"
      }
    },
    {
      "type": "way",
      "id": 1346663812,
      "center": {
        "lat": 12.9549457,
        "lon": 77.498041
      },
      "tags": {
        "building": "yes",
        "fee": "yes",
        "leisure": "sports_centre",
        "name": "Vayu Badminton Arena",
        "sport": "badminton"
      }
    },
    {
      "type": "way",
      "id": 1346663824,
      "center": {
        "lat": 12.9557545,
        "lon": 77.4984176
      },
      "tags": {
        "amenity": "place_of_worship",
        "building": "yes",
        "name": "Gowrishawara Swamy Temple",
        "religion": "hindu"
      }
    },
    {
      "type": "way",
      "id": 1370235945,
      "center": {
        "lat": 12.9570354,
        "lon": 77.5078334
      },
      "tags": {
        "leisure": "sports_centre"
      }
    },
    {
      "type": "way",
      "id": 1377355335,
      "center": {
        "lat": 12.9410421,
        "lon": 77.5031936
      },
      "tags": {
        "leisure": "park"
      }
    },
    {
      "type": "way",
      "id": 1412647480,
      "center": {
        "lat": 12.9521523,
        "lon": 77.5000518
      },
      "tags": {
        "amenity": "place_of_worship",
        "building": "yes",
        "religion": "hindu"
      }
    }
  ]
}