{
  "area_name": "Kankanpalya",
  "osm_id": 12161093396,
  "osm_type": "node",
  "place_type": "neighbourhood",
  "amenity_count": 535,
  "amenities": [
    {
      "type": "node",
      "id": 303938132,
      "lat": 12.9365895,
      "lon": 77.5804447,
      "tags": {
        "addr:street": "Elephant Cave Road",
        "amenity": "fuel",
        "brand": "Bharat Petroleum",
        "brand:wikidata": "Q854826",
        "name": "Bharat Petroleum",
        "name:kn": "ಭಾರತ್ ಪೆಟ್ರೋಲಿಯಂ",
        "operator": "Bharat Petroleum"
      }
    },
    {
      "type": "node",
      "id": 582384953,
      "lat": 12.9376734,
      "lon": 77.5802836,
      "tags": {
        "addr:district": "Bengaluru Urban",
        "addr:full": "202, R.V.Road",
        "addr:postcode": "560001",
        "addr:state": "Karnataka",
        "addr:street": "Rashtriya Vidyalaya Road",
        "amenity": "hospital",
        "email": "info@Bengaluruhospital.co.in",
        "healthcare": "hospital",
        "name": "Bengaluru Hospital, Susruta Medical Aid AndResearch Home Limited",
        "name:kn": "ಬೆಂಗಳೂರು ಆಸ್ಪತ್ರೆ",
        "operator:type": "private",
        "source": "OpenGovernmentData",
        "website": "http://dpal.kar.nic.in/Kanunu%20padakosha%20PDF%20Files/Recognised%20Hospitals.pdf"
      }
    },
    {
      "type": "node",
      "id": 676872647,
      "lat": 12.9478734,
      "lon": 77.580172,
      "tags": {
        "amenity": "toilets",
        "check_date": "2022-08-11",
        "fee": "yes",
        "wheelchair": "no"
      }
    },
    {
      "type": "node",
      "id": 683352653,
      "lat": 12.9484631,
      "lon": 77.5798653,
      "tags": {
        "amenity": "atm",
        "brand": "Citibank",
        "brand:wikidata": "Q857063",
        "name": "Citibank",
        "name:kn": "ಸಿಟಿಬ್ಯಾಂಕ್",
        "operator": "Citibank",
        "operator:wikidata": "Q857063",
        "short_name": "Citi",
        "wheelchair": "no"
      }
    },
    {
      "type": "node",
      "id": 683352686,
      "lat": 12.950253,
      "lon": 77.5868038,
      "tags": {
        "amenity": "toilets"
      }
    },
    {
      "type": "node",
      "id": 769214710,
      "lat": 12.9431459,
      "lon": 77.5893564,
      "tags": {
        "amenity": "place_of_worship",
        "name": "Ganesha Statue",
        "name:kn": "ಗಣೇಶ ಮೂರ್ತಿ",
        "religion": "hindu"
      }
    },
    {
      "type": "node",
      "id": 769215247,
      "lat": 12.9429538,
      "lon": 77.5927317,
      "tags": {
        "amenity": "place_of_worship",
        "name": "Masjid Abu Bakr (RAA)",
        "religion": "muslim"
      }
    },
    {
      "type": "node",
      "id": 769216417,
      "lat": 12.9364329,
      "lon": 77.583477,
      "tags": {
        "amenity": "hospital",
        "healthcare": "hospital",
        "name": "Ramakrishna Nursing Home and Hospital"
      }
    },
    {
      "type": "node",
      "id": 1015924266,
      "lat": 12.9340338,
      "lon": 77.5874849,
      "tags": {
        "amenity": "school",
        "name": "Saraswati Vidya Mandir",
        "name:kn": "ಸರಸ್ವತಿ ವಿದ್ಯ ಮಂದಿರ"
      }
    },
    {
      "type": "node",
      "id": 1015924313,
      "lat": 12.9387689,
      "lon": 77.5841184,
      "tags": {
        "amenity": "school",
        "name": "Community English High School"
      }
    },
    {
      "type": "node",
      "id": 1018894416,
      "lat": 12.9355883,
      "lon": 77.5808383,
      "tags": {
        "addr:street": "Elephant Cave Road",
        "amenity": "library",
        "name": "City Central Library",
        "name:kn": "ನಗರ ಗ್ರಂಥಾಲಯ"
      }
    },
    {
      "type": "node",
      "id": 1085786951,
      "lat": 12.9452313,
      "lon": 77.5861734,
      "tags": {
        "addr:street": "Siddapura Road",
        "amenity": "hospital",
        "name": "Lalbagh Nursing Home",
        "name:kn": "ಲಾಲ್ಬಾಗ್ ನರ್ಸಿಂಗ್ ಹೋಂ"
      }
    },
    {
      "type": "node",
      "id": 1438212033,
      "lat": 12.9367955,
      "lon": 77.5907094,
      "tags": {
        "amenity": "hospital",
        "designation": "Sanatorium",
        "emergency": "no",
        "name": "SDS Tuberculosis Research Centre and Rajiv Gandhi Institute of Chest diseases",
        "research": "medical"
      }
    },
    {
      "type": "node",
      "id": 1438212038,
      "lat": 12.9450769,
      "lon": 77.5903688,
      "tags": {
        "amenity": "place_of_worship",
        "denomination": "sunni",
        "name": "Masjid e Inayat",
        "name:kn": "ಮಸ್ಜಿದ್ ಎ ಇನಯತ್",
        "religion": "muslim"
      }
    },
    {
      "type": "node",
      "id": 1438214050,
      "lat": 12.9365,
      "lon": 77.582432,
      "tags": {
        "amenity": "bank",
        "atm": "yes",
        "brand": "HDFC Bank",
        "brand:wikidata": "Q631047",
        "brand:wikipedia": "en:HDFC Bank",
        "name": "HDFC Bank",
        "name:kn": "ಎಚ್ ಡಿ ಎಫ್ ಸಿ",
        "short_name": "HDFC",
        "website": "https://www.hdfcbank.com"
      }
    },
    {
      "type": "node",
      "id": 1440255877,
      "lat": 12.9353703,
      "lon": 77.582448,
      "tags": {
        "amenity": "place_of_worship",
        "name": "Temple",
        "religion": "hindu"
      }
    },
    {
      "type": "node",
      "id": 1440255888,
      "lat": 12.9353912,
      "lon": 77.5827887,
      "tags": {
        "amenity": "place_of_worship",
        "denomination": "sunni",
        "name:kn": "ಮಸೀದಿ",
        "religion": "muslim"
      }
    },
    {
      "type": "node",
      "id": 1440343668,
      "lat": 12.942614,
      "lon": 77.5854533,
      "tags": {
        "addr:district": "Bengaluru Urban",
        "addr:full": "34, 10Th Main 1st Block, Jayanagar",
        "addr:postcode": "560011",
        "addr:state": "Karnataka",
        "amenity": "hospital",
        "name": "Maiya Multispecialty Hospital",
        "source": "OpenGovernmentData",
        "wheelchair": "yes"
      }
    },
    {
      "type": "node",
      "id": 1440343675,
      "lat": 12.9433387,
      "lon": 77.5850711,
      "tags": {
        "amenity": "cafe",
        "brand": "Cafe Coffee Day",
        "brand:wikidata": "Q5017235",
        "check_date": "2025-07-12",
        "cuisine": "coffee_shop",
        "name": "Cafe Coffee Day",
        "name:kn": "ಕಫೆ ಕಾಫಿ ಡೇ",
        "takeaway": "yes"
      }
    },
    {
      "type": "node",
      "id": 1449021351,
      "lat": 12.9420282,
      "lon": 77.5802856,
      "tags": {
        "addr:city": "Bangalore",
        "addr:postcode": "560004",
        "addr:street": "Rashtriya Vidyalaya Road",
        "amenity": "fuel",
        "brand": "Indian Oil",
        "brand:wikidata": "Q1289348",
        "brand:wikipedia": "en:Indian Oil Corporation",
        "compressed_air": "yes",
        "name": "Indian Oil",
        "name:kn": "ಇಂಡಿಯನ್ ಆಯಿಲ್"
      }
    },
    {
      "type": "node",
      "id": 1466730665,
      "lat": 12.948348,
      "lon": 77.5807071,
      "tags": {
        "amenity": "fountain"
      }
    },
    {
      "type": "node",
      "id": 1473817640,
      "lat": 12.9347018,
      "lon": 77.583688,
      "tags": {
        "name": "Malabhar Gold",
        "shop": "jewelry"
      }
    },
    {
      "type": "node",
      "id": 1474244814,
      "lat": 12.9425192,
      "lon": 77.5854098,
      "tags": {
        "amenity": "fast_food",
        "check_date": "2025-07-12",
        "diet:vegetarian": "only",
        "name": "Cafe Sangam @ Maiyas",
        "name:kn": "ಅಡಿಗಾಸ್"
      }
    },
    {
      "type": "node",
      "id": 1474244819,
      "lat": 12.9425654,
      "lon": 77.5854098,
      "tags": {
        "amenity": "pharmacy",
        "dispensing": "no",
        "name": "Maiyya's Pharmacy"
      }
    },
    {
      "type": "node",
      "id": 1474257927,
      "lat": 12.9383815,
      "lon": 77.5849061,
      "tags": {
        "name": "Pai International",
        "shop": "hifi"
      }
    },
    {
      "type": "node",
      "id": 1474257931,
      "lat": 12.9368706,
      "lon": 77.5847432,
      "tags": {
        "name": "Sri Devi International",
        "shop": "hifi"
      }
    },
    {
      "type": "node",
      "id": 1474259226,
      "lat": 12.9364201,
      "lon": 77.5828954,
      "tags": {
        "addr:district": "Bengaluru Urban",
        "addr:full": "806/1, 15Th Cross 3Road Block Jayanagar",
        "addr:postcode": "560011",
        "addr:state": "Karnataka",
        "amenity": "clinic",
        "dispensing": "no",
        "healthcare": "clinic",
        "name": "Ramkrishna Nursing Home",
        "source": "OpenGovernmentData"
      }
    },
    {
      "type": "node",
      "id": 1685654244,
      "lat": 12.9417196,
      "lon": 77.5853932,
      "tags": {
        "name": "Girias Electronics",
        "shop": "electronics"
      }
    },
    {
      "type": "node",
      "id": 1685659803,
      "lat": 12.9395349,
      "lon": 77.5853734,
      "tags": {
        "diet:vegetarian": "only",
        "name": "Simpli Namdhari's",
        "organic": "only",
        "shop": "supermarket",
        "website": "https://www.simplinamdharis.com/",
        "wheelchair": "limited"
      }
    },
    {
      "type": "node",
      "id": 1719371357,
      "lat": 12.938312,
      "lon": 77.5843066,
      "tags": {
        "addr:postcode": "560011",
        "addr:street": "9th Main",
        "amenity": "school",
        "name": "Sree Rama Vidyalaya",
        "name:kn": "ಶ್ರೀ ರಾಮ ವಿದ್ಯಾಲಯ"
      }
    },
    {
      "type": "node",
      "id": 1719597042,
      "lat": 12.9352377,
      "lon": 77.589655,
      "tags": {
        "addr:district": "Bengaluru Urban",
        "addr:full": "Jaya Nager",
        "addr:postcode": "560011",
        "addr:state": "Karnataka",
        "amenity": "clinic",
        "emergency": "no",
        "name": "Vikram Eye Clinic",
        "name:kn": "ವಿಕ್ರಮ್ ಕಣ್ಣಿನ ಆಸ್ಪತ್ರೆ",
        "source": "OpenGovernmentData"
      }
    },
    {
      "type": "node",
      "id": 1794017010,
      "lat": 12.9452338,
      "lon": 77.579897,
      "tags": {
        "addr:street": "Rashtriya Vidyalaya Road",
        "name": "Madhiraa",
        "shop": "alcohol"
      }
    },
    {
      "type": "node",
      "id": 1815963298,
      "lat": 12.9334671,
      "lon": 77.5833269,
      "tags": {
        "amenity": "restaurant",
        "name": "The Guha",
        "name:kn": "ದಿ ಗುಹ"
      }
    },
    {
      "type": "node",
      "id": 1905152108,
      "lat": 12.9411061,
      "lon": 77.5850591,
      "tags": {
        "amenity": "hospital",
        "emergency": "no",
        "name": "Kottakkal Arya Vaidya Sala",
        "source": "survey"
      }
    },
    {
      "type": "node",
      "id": 1905152109,
      "lat": 12.9410968,
      "lon": 77.5853528,
      "tags": {
        "amenity": "bank",
        "atm": "yes",
        "brand": "Andhra Bank",
        "brand:wikidata": "Q2003476",
        "brand:wikipedia": "en:Andhra Bank",
        "name": "Andhra Bank",
        "name:en": "Andhra Bank",
        "name:kn": "ಆಂಧ್ರ ಬ್ಯಾಂಕ್",
        "source": "survey",
        "website": "https://www.andhrabank.in"
      }
    },
    {
      "type": "node",
      "id": 2057197440,
      "lat": 12.9491655,
      "lon": 77.5798273,
      "tags": {
        "amenity": "restaurant",
        "cuisine": "indian",
        "name": "Kamat",
        "name:kn": "ಕಾಮತ್",
        "operator": "Kamat",
        "wheelchair": "no"
      }
    },
    {
      "type": "node",
      "id": 2057197603,
      "lat": 12.9479149,
      "lon": 77.5794869,
      "tags": {
        "amenity": "fuel",
        "brand": "Bharat Petroleum",
        "brand:wikidata": "Q854826",
        "name": "Bharat Petroleum",
        "name:kn": "ಭಾರತ್ ಪೆಟ್ರೋಲಿಯಂ",
        "operator": "Bharat Petroleum"
      }
    },
    {
      "type": "node",
      "id": 2076240844,
      "lat": 12.937055,
      "lon": 77.5784773,
      "tags": {
        "amenity": "atm",
        "brand": "Citibank",
        "brand:wikidata": "Q857063",
        "name": "Citibank",
        "opening_hours": "24/7",
        "operator": "Citibank",
        "operator:wikidata": "Q857063",
        "short_name": "Citi"
      }
    },
    {
      "type": "node",
      "id": 2405794811,
      "lat": 12.9444702,
      "lon": 77.5847747,
      "tags": {
        "amenity": "college",
        "name": "Horticulture Training Center"
      }
    },
    {
      "type": "node",
      "id": 2405825519,
      "lat": 12.9439037,
      "lon": 77.5819302,
      "tags": {
        "amenity": "waste_basket",
        "check_date": "2023-12-30",
        "source": "survey"
      }
    },
    {
      "type": "node",
      "id": 2405825526,
      "lat": 12.9439687,
      "lon": 77.5807339,
      "tags": {
        "amenity": "waste_basket",
        "source": "survey"
      }
    },
    {
      "type": "node",
      "id": 2405825551,
      "lat": 12.9448672,
      "lon": 77.5803081,
      "tags": {
        "amenity": "waste_basket",
        "source": "survey"
      }
    },
    {
      "type": "node",
      "id": 2405825652,
      "lat": 12.9463416,
      "lon": 77.5802948,
      "tags": {
        "amenity": "waste_basket",
        "source": "survey"
      }
    },
    {
      "type": "node",
      "id": 2405825692,
      "lat": 12.946762,
      "lon": 77.5878507,
      "tags": {
        "amenity": "toilets",
        "check_date": "2023-12-30",
        "fee": "no",
        "wheelchair": "limited"
      }
    },
    {
      "type": "node",
      "id": 2405825701,
      "lat": 12.9469828,
      "lon": 77.5878466,
      "tags": {
        "amenity": "bench",
        "backrest": "yes",
        "source": "survey"
      }
    },
    {
      "type": "node",
      "id": 2405825703,
      "lat": 12.9470536,
      "lon": 77.5876073,
      "tags": {
        "amenity": "bench",
        "source": "survey"
      }
    },
    {
      "type": "node",
      "id": 2405825716,
      "lat": 12.9471294,
      "lon": 77.5803062,
      "tags": {
        "amenity": "waste_basket",
        "source": "survey"
      }
    },
    {
      "type": "node",
      "id": 2405825725,
      "lat": 12.9472067,
      "lon": 77.5879731,
      "tags": {
        "amenity": "bench",
        "backrest": "yes",
        "source": "survey"
      }
    },
    {
      "type": "node",
      "id": 2405825735,
      "lat": 12.9473435,
      "lon": 77.5880273,
      "tags": {
        "amenity": "bench",
        "backrest": "yes",
        "source": "survey"
      }
    },
    {
      "type": "node",
      "id": 2405825763,
      "lat": 12.9477956,
      "lon": 77.5877137,
      "tags": {
        "amenity": "bench",
        "backrest": "yes",
        "source": "survey"
      }
    },
    {
      "type": "node",
      "id": 2405825764,
      "lat": 12.9478144,
      "lon": 77.5875842,
      "tags": {
        "amenity": "waste_basket",
        "check_date": "2023-12-30",
        "source": "survey"
      }
    },
    {
      "type": "node",
      "id": 2405825767,
      "lat": 12.9478271,
      "lon": 77.5863571,
      "tags": {
        "amenity": "waste_basket",
        "source": "survey"
      }
    },
    {
      "type": "node",
      "id": 2405825768,
      "lat": 12.947839,
      "lon": 77.5877187,
      "tags": {
        "amenity": "bench",
        "backrest": "yes",
        "source": "survey"
      }
    },
    {
      "type": "node",
      "id": 2405825771,
      "lat": 12.9478509,
      "lon": 77.5864907,
      "tags": {
        "amenity": "waste_basket",
        "source": "survey"
      }
    },
    {
      "type": "node",
      "id": 2405825778,
      "lat": 12.9478878,
      "lon": 77.5803242,
      "tags": {
        "amenity": "waste_basket",
        "source": "survey"
      }
    },
    {
      "type": "node",
      "id": 2405825782,
      "lat": 12.9482156,
      "lon": 77.5804124,
      "tags": {
        "amenity": "waste_basket",
        "source": "survey"
      }
    },
    {
      "type": "node",
      "id": 2405825783,
      "lat": 12.9482178,
      "lon": 77.588168,
      "tags": {
        "amenity": "bench",
        "backrest": "yes",
        "source": "survey"
      }
    },
    {
      "type": "node",
      "id": 2405825785,
      "lat": 12.9482347,
      "lon": 77.5881112,
      "tags": {
        "amenity": "bench",
        "backrest": "yes",
        "source": "survey"
      }
    },
    {
      "type": "node",
      "id": 2405825786,
      "lat": 12.9483029,
      "lon": 77.5881244,
      "tags": {
        "amenity": "bench",
        "backrest": "yes",
        "source": "survey"
      }
    },
    {
      "type": "node",
      "id": 2405825792,
      "lat": 12.948499,
      "lon": 77.5805392,
      "tags": {
        "amenity": "bench",
        "source": "survey"
      }
    },
    {
      "type": "node",
      "id": 2405825793,
      "lat": 12.9485333,
      "lon": 77.5805682,
      "tags": {
        "amenity": "bench",
        "source": "survey"
      }
    },
    {
      "type": "node",
      "id": 2405825795,
      "lat": 12.9485561,
      "lon": 77.5806108,
      "tags": {
        "amenity": "bench",
        "source": "survey"
      }
    },
    {
      "type": "node",
      "id": 2405825799,
      "lat": 12.9487692,
      "lon": 77.5807426,
      "tags": {
        "amenity": "waste_basket",
        "source": "survey"
      }
    },
    {
      "type": "node",
      "id": 2405825801,
      "lat": 12.9489742,
      "lon": 77.581104,
      "tags": {
        "amenity": "waste_basket",
        "source": "survey"
      }
    },
    {
      "type": "node",
      "id": 2405825802,
      "lat": 12.9491435,
      "lon": 77.5814435,
      "tags": {
        "amenity": "waste_basket",
        "source": "survey"
      }
    },
    {
      "type": "node",
      "id": 2405825810,
      "lat": 12.9497025,
      "lon": 77.5824372,
      "tags": {
        "amenity": "waste_basket",
        "source": "survey"
      }
    },
    {
      "type": "node",
      "id": 2405825812,
      "lat": 12.950308,
      "lon": 77.5825568,
      "tags": {
        "amenity": "waste_basket",
        "source": "survey"
      }
    },
    {
      "type": "node",
      "id": 2405825815,
      "lat": 12.9508018,
      "lon": 77.5827007,
      "tags": {
        "amenity": "waste_basket",
        "source": "survey"
      }
    },
    {
      "type": "node",
      "id": 2405825820,
      "lat": 12.9510578,
      "lon": 77.5829803,
      "tags": {
        "amenity": "place_of_worship",
        "religion": "hindu"
      }
    },
    {
      "type": "node",
      "id": 2727216487,
      "lat": 12.9366237,
      "lon": 77.5854643,
      "tags": {
        "amenity": "post_office",
        "name": "Madhavan Park",
        "name:kn": "ಮಾಧವನ್ ಉದ್ಯಾನವನ",
        "operator": "India Post",
        "operator:wikidata": "Q3519720"
      }
    },
    {
      "type": "node",
      "id": 2727216490,
      "lat": 12.9366244,
      "lon": 77.5855576,
      "tags": {
        "amenity": "post_box",
        "operator": "India Post",
        "operator:wikidata": "Q3519720"
      }
    },
    {
      "type": "node",
      "id": 2727229635,
      "lat": 12.9378458,
      "lon": 77.5852753,
      "tags": {
        "amenity": "cafe",
        "check_date": "2025-09-28",
        "name": "Ground Up Coffee",
        "takeaway": "yes"
      }
    },
    {
      "type": "node",
      "id": 2727229636,
      "lat": 12.9397673,
      "lon": 77.5849176,
      "tags": {
        "brand": "Cromā",
        "brand:wikidata": "Q5187683",
        "check_date": "2025-07-12",
        "name": "Cromā",
        "name:kn": "ಕ್ರೋಮ",
        "shop": "electronics"
      }
    },
    {
      "type": "node",
      "id": 2727229637,
      "lat": 12.9409838,
      "lon": 77.5850433,
      "tags": {
        "amenity": "cafe",
        "name": "Cuppa"
      }
    },
    {
      "type": "node",
      "id": 2727229640,
      "lat": 12.9399806,
      "lon": 77.5853659,
      "tags": {
        "amenity": "clinic",
        "name": "Manasa Medical Centre",
        "name:kn": "ಮಾನಸ ಚಿಕಿತ್ಸಾಲಯ"
      }
    },
    {
      "type": "node",
      "id": 2727229641,
      "lat": 12.9386425,
      "lon": 77.5849439,
      "tags": {
        "name": "Reliance digital Xpress",
        "shop": "hifi"
      }
    },
    {
      "type": "node",
      "id": 2727229642,
      "lat": 12.9403807,
      "lon": 77.585232,
      "tags": {
        "amenity": "post_box",
        "name:kn": "ಅಂಚೆ ಕಛೇರಿ",
        "operator": "India Post",
        "operator:wikidata": "Q3519720"
      }
    },
    {
      "type": "node",
      "id": 3118790626,
      "lat": 12.9368412,
      "lon": 77.5837992,
      "tags": {
        "name": "Malabar Gold",
        "shop": "jewelry"
      }
    },
    {
      "type": "node",
      "id": 3118804213,
      "lat": 12.9394505,
      "lon": 77.5839294,
      "tags": {
        "alt_name": "Goli Vada Pav No.1",
        "amenity": "fast_food",
        "brand": "Goli Vada Pav",
        "brand:wikidata": "Q5580697",
        "cuisine": "indian",
        "name": "Goli Vada Pav",
        "name:kn": "ಗೋಲಿ ವಡ ಪಾವ್",
        "takeaway": "yes"
      }
    },
    {
      "type": "node",
      "id": 3118804214,
      "lat": 12.9395055,
      "lon": 77.5839162,
      "tags": {
        "amenity": "fast_food",
        "check_date:opening_hours": "2023-10-22",
        "cuisine": "indian",
        "name": "Karnataka Bhel House",
        "opening_hours": "16:00-21:00"
      }
    },
    {
      "type": "node",
      "id": 3148484487,
      "lat": 12.9400476,
      "lon": 77.5828215,
      "tags": {
        "name": "Veena Musicals Service Center",
        "shop": "musical_instrument"
      }
    },
    {
      "type": "node",
      "id": 3148484488,
      "lat": 12.9393363,
      "lon": 77.5824542,
      "tags": {
        "name": "New Veena Musicals",
        "shop": "musical_instrument"
      }
    },
    {
      "type": "node",
      "id": 3395243170,
      "lat": 12.9365182,
      "lon": 77.583828,
      "tags": {
        "name": "V V Silks and Sarees",
        "shop": "clothes"
      }
    },
    {
      "type": "node",
      "id": 3395246645,
      "lat": 12.9365401,
      "lon": 77.5838134,
      "tags": {
        "amenity": "clinic",
        "name": "We Care Homeopathy"
      }
    },
    {
      "type": "node",
      "id": 3401948659,
      "lat": 12.9402766,
      "lon": 77.58412,
      "tags": {
        "addr:street": "9th Main Road",
        "name": "Nandini Milk Shoppe",
        "operator": "Mother Dairy",
        "shop": "dairy"
      }
    },
    {
      "type": "node",
      "id": 3401950347,
      "lat": 12.9416428,
      "lon": 77.5842724,
      "tags": {
        "addr:street": "4th Cross Road",
        "name": "Sagar Vajra",
        "shop": "jewelry"
      }
    },
    {
      "type": "node",
      "id": 3401950349,
      "lat": 12.940504,
      "lon": 77.5840047,
      "tags": {
        "name": "Arnav",
        "shop": "jewelry"
      }
    },
    {
      "type": "node",
      "id": 3401950350,
      "lat": 12.9402086,
      "lon": 77.5839778,
      "tags": {
        "addr:street": "9th Main Road",
        "leisure": "sports_centre",
        "name": "Studio Venus",
        "note": "Aerobics, dance"
      }
    },
    {
      "type": "node",
      "id": 3401952831,
      "lat": 12.9404021,
      "lon": 77.584112,
      "tags": {
        "addr:street": "9th Main Road",
        "brand": "HOPCOMS",
        "brand:wikidata": "Q22908959",
        "name": "HOPCOMS",
        "name:kn": "ಹಾಪ್ ಕಾಮ್ಸ್",
        "shop": "greengrocer"
      }
    },
    {
      "type": "node",
      "id": 3401975611,
      "lat": 12.9382238,
      "lon": 77.5838823,
      "tags": {
        "amenity": "clinic",
        "name": "Jnanakshi Eye Clinic"
      }
    },
    {
      "type": "node",
      "id": 3401984695,
      "lat": 12.937957,
      "lon": 77.5840951,
      "tags": {
        "amenity": "place_of_worship",
        "name": "Sri Kodanda Rama Swamy Sannidhi",
        "name:kn": "ಕೋದಂಡರಾಮ ಸ್ವಾಮಿ ಸನ್ನಿಧಿ",
        "religion": "hindu"
      }
    },
    {
      "type": "node",
      "id": 3401984696,
      "lat": 12.9377783,
      "lon": 77.5841061,
      "tags": {
        "amenity": "community_centre",
        "name": "Ayodhya Kalyana Mantapa",
        "name:kn": "ಅಯೋಧ್ಯೆಯ ಕಲ್ಯಾಣ ಮಂಟಪ"
      }
    },
    {
      "type": "node",
      "id": 3401984697,
      "lat": 12.9374577,
      "lon": 77.584109,
      "tags": {
        "name": "Bharat TVS",
        "shop": "motorcycle"
      }
    },
    {
      "type": "node",
      "id": 3401984698,
      "lat": 12.9397408,
      "lon": 77.5829526,
      "tags": {
        "name": "Suhas Medicals",
        "shop": "chemist"
      }
    },
    {
      "type": "node",
      "id": 3401984699,
      "lat": 12.9392065,
      "lon": 77.5827357,
      "tags": {
        "amenity": "atm",
        "brand": "Canara Bank",
        "brand:en": "Canara Bank",
        "brand:hi": "केनरा बैंक",
        "brand:kn": "ಕೆನರಾ ಬ್ಯಾಂಕ್",
        "brand:pa": "ਕੇਨਰਾ ਬੈਂਕ",
        "brand:pnb": "کینرا بینک",
        "brand:ur": "کینرا بینک",
        "brand:wikidata": "Q2003777",
        "brand:wikipedia": "en:Canara Bank",
        "brand:wikipedia:pa": "ਕੇਨਰਾ ਬੈਂਕ",
        "name": "Canara Bank",
        "name:en": "Canara Bank",
        "name:hi": "केनरा बैंक",
        "name:kn": "ಕೆನರಾ ಬ್ಯಾಂಕ್",
        "name:pa": "ਕੇਨਰਾ ਬੈਂਕ",
        "name:pnb": "کینرا بینک",
        "name:ur": "کینرا بینک",
        "operator": "Canara Bank",
        "operator:wikidata": "Q2003777"
      }
    },
    {
      "type": "node",
      "id": 3401984951,
      "lat": 12.9390863,
      "lon": 77.5827169,
      "tags": {
        "amenity": "community_centre",
        "name": "Samaj Seva Sangha",
        "name:kn": "ಸಮಾಜ ಸೇವಾ ಸಂಘ"
      }
    },
    {
      "type": "node",
      "id": 3401986202,
      "lat": 12.9379857,
      "lon": 77.5828269,
      "tags": {
        "name": "Raghavendra Medicals",
        "shop": "chemist"
      }
    },
    {
      "type": "node",
      "id": 3401988084,
      "lat": 12.9382066,
      "lon": 77.582902,
      "tags": {
        "amenity": "dentist",
        "name": "Dental Health Clinic"
      }
    },
    {
      "type": "node",
      "id": 3401988085,
      "lat": 12.9381478,
      "lon": 77.5828269,
      "tags": {
        "amenity": "atm",
        "brand": "Bank of India",
        "brand:wikidata": "Q2004439",
        "name": "Bank of India",
        "operator": "Bank of India",
        "operator:wikidata": "Q2004439"
      }
    },
    {
      "type": "node",
      "id": 3453283476,
      "lat": 12.9424031,
      "lon": 77.5802815,
      "tags": {
        "addr:city": "Bangalore",
        "addr:postcode": "560004",
        "addr:street": "Rashtriya Vidyalaya Road",
        "name": "SPG Infotech",
        "operator": "Anjanadri",
        "shop": "computer"
      }
    },
    {
      "type": "node",
      "id": 3832792606,
      "lat": 12.9365007,
      "lon": 77.5811501,
      "tags": {
        "level": "0",
        "name": "Impronta@11",
        "shop": "Printer"
      }
    },
    {
      "type": "node",
      "id": 3832797416,
      "lat": 12.9369895,
      "lon": 77.5810697,
      "tags": {
        "level": "0,1,2",
        "name": "PSR Silks",
        "shop": "clothes"
      }
    },
    {
      "type": "node",
      "id": 3832797417,
      "lat": 12.9372349,
      "lon": 77.581058,
      "tags": {
        "level": "0,1",
        "name": "Nandini Silks",
        "shop": "clothes"
      }
    },
    {
      "type": "node",
      "id": 3832798964,
      "lat": 12.936898,
      "lon": 77.5810241,
      "tags": {
        "amenity": "parking",
        "capacity": "3",
        "parking": "surface"
      }
    },
    {
      "type": "node",
      "id": 3832806735,
      "lat": 12.9368947,
      "lon": 77.5819858,
      "tags": {
        "addr:street": "7th Main Road",
        "brand": "Josco Jewellers",
        "brand:wikidata": "Q99521002",
        "level": "0",
        "name": "Josco Jewellers",
        "shop": "jewelry"
      }
    },
    {
      "type": "node",
      "id": 3832806736,
      "lat": 12.9368818,
      "lon": 77.5820785,
      "tags": {
        "amenity": "clinic",
        "level": "1",
        "name": "Healios"
      }
    },
    {
      "type": "node",
      "id": 3832812311,
      "lat": 12.9370584,
      "lon": 77.5819902,
      "tags": {
        "amenity": "post_office",
        "level": "0",
        "name": "Blue Dart-DHL Couriers",
        "operator": "DHL"
      }
    },
    {
      "type": "node",
      "id": 4173858166,
      "lat": 12.9476142,
      "lon": 77.5797544,
      "tags": {
        "amenity": "restaurant",
        "cuisine": "indian",
        "name": "Meera Delicacy"
      }
    },
    {
      "type": "node",
      "id": 4254080490,
      "lat": 12.940402,
      "lon": 77.5766481,
      "tags": {
        "amenity": "atm",
        "brand": "Federal Bank",
        "brand:wikidata": "Q2044983",
        "name": "Federal Bank",
        "operator": "Federal Bank",
        "operator:wikidata": "Q2044983"
      }
    },
    {
      "type": "node",
      "id": 4254094089,
      "lat": 12.9404668,
      "lon": 77.5757675,
      "tags": {
        "addr:postcode": "560004",
        "addr:street": "Deewan Madhava Rao Road",
        "amenity": "bank",
        "brand": "IDBI Bank",
        "brand:wikidata": "Q3633485",
        "brand:wikipedia": "en:IDBI Bank",
        "name": "IDBI Bank",
        "name:kn": "ಐಡಿಬಿಐ ಬ್ಯಾಂಕ್",
        "old_name": "Industrial Development Bank of India",
        "opening_hours": "Mo-Fr 10:00-16:00; Sa 10:00-12:00",
        "short_name": "IDBI",
        "website": "https://www.idbi.com"
      }
    },
    {
      "type": "node",
      "id": 4255663990,
      "lat": 12.9398043,
      "lon": 77.5755209,
      "tags": {
        "name": "Cake Yard",
        "shop": "bakery"
      }
    },
    {
      "type": "node",
      "id": 4349370589,
      "lat": 12.9434782,
      "lon": 77.5817744,
      "tags": {
        "amenity": "place_of_worship",
        "name": "Siddharda Ashrama"
      }
    },
    {
      "type": "node",
      "id": 4349371191,
      "lat": 12.9434737,
      "lon": 77.5829251,
      "tags": {
        "amenity": "place_of_worship"
      }
    },
    {
      "type": "node",
      "id": 4349376591,
      "lat": 12.9450878,
      "lon": 77.5857378,
      "tags": {
        "name": "Naati Terracota Store",
        "shop": "gift"
      }
    },
    {
      "type": "node",
      "id": 4362723794,
      "lat": 12.9453043,
      "lon": 77.5798656,
      "tags": {
        "amenity": "pharmacy",
        "healthcare": "pharmacy",
        "name": "Basavangudi Medical Centre"
      }
    },
    {
      "type": "node",
      "id": 4362762990,
      "lat": 12.9437347,
      "lon": 77.5799634,
      "tags": {
        "amenity": "atm",
        "operator": "Lakshmi Nivas Bank"
      }
    },
    {
      "type": "node",
      "id": 4362765797,
      "lat": 12.9472769,
      "lon": 77.5799705,
      "tags": {
        "amenity": "atm",
        "brand": "Bank of Baroda",
        "brand:wikidata": "Q2003797",
        "name": "Bank of Baroda",
        "operator": "Bank of Baroda",
        "operator:wikidata": "Q2003797"
      }
    },
    {
      "type": "node",
      "id": 4362770794,
      "lat": 12.9382297,
      "lon": 77.5802736,
      "tags": {
        "amenity": "bar",
        "name": "South Point"
      }
    },
    {
      "type": "node",
      "id": 4362807789,
      "lat": 12.947717,
      "lon": 77.5798294,
      "tags": {
        "amenity": "atm",
        "operator": "Lakshmi Vilas Bank"
      }
    },
    {
      "type": "node",
      "id": 4445214907,
      "lat": 12.9394749,
      "lon": 77.5776672,
      "tags": {
        "addr:city": "Bangalore",
        "addr:housenumber": "2/2",
        "addr:postcode": "560004",
        "addr:street": "Pattalamma Temple Road, 3rd Block, Jaya Nagar East",
        "amenity": "restaurant",
        "cuisine": "regional",
        "delivery": "yes",
        "name": "Cafe Mondo",
        "opening_hours": "11:00-23:00",
        "phone": "080 4208 8686",
        "smoking": "no",
        "takeaway": "yes"
      }
    },
    {
      "type": "node",
      "id": 4445298694,
      "lat": 12.9387861,
      "lon": 77.5799087,
      "tags": {
        "addr:city": "Bangalore",
        "addr:housenumber": "18",
        "addr:postcode": "560004",
        "addr:street": "R V Road, Basavanagudi, Near South End Circle",
        "amenity": "restaurant",
        "cuisine": "regional",
        "delivery": "yes",
        "name": "New Shanthi Sagar",
        "opening_hours": "07:30-21:30",
        "phone": "080 2657 9968",
        "smoking": "no",
        "takeaway": "yes"
      }
    },
    {
      "type": "node",
      "id": 4445757328,
      "lat": 12.9373404,
      "lon": 77.579911,
      "tags": {
        "addr:city": "Bangalore",
        "addr:housenumber": "5",
        "addr:postcode": "560004",
        "addr:street": "RV Road, South End Circle, Opp Bangalore Hospital, Basavanagudi",
        "amenity": "restaurant",
        "cuisine": "regional",
        "delivery": "yes",
        "name": "Hotel Sanman",
        "phone": "080 2657 0065",
        "smoking": "no",
        "takeaway": "yes"
      }
    },
    {
      "type": "node",
      "id": 4446525169,
      "lat": 12.9464613,
      "lon": 77.57609,
      "tags": {
        "addr:full": "80 Feet Road, 5th Cross Road, Chandra Layout, Vijay Nagar, Bangalore - 560040",
        "alt_name": "Goli Vada Pav No.1",
        "amenity": "fast_food",
        "brand": "Goli Vada Pav",
        "brand:wikidata": "Q5580697",
        "cuisine": "indian",
        "name": "Goli Vada Pav",
        "name:kn": "ಗೋಲಿ ವಡ ಪಾವ್",
        "opening_hours": "10:00-22:00",
        "phone": "+91 9845315071",
        "takeaway": "yes",
        "website": "https://www.golivadapav.com/"
      }
    },
    {
      "type": "node",
      "id": 4447001526,
      "lat": 12.9341676,
      "lon": 77.5837638,
      "tags": {
        "addr:city": "Bangalore",
        "addr:housenumber": "#68/150/3;68",
        "addr:postcode": "560011",
        "addr:street": "9th Main Road, 3rd Block, Jaya Nagar;9th Main Road",
        "amenity": "clinic",
        "description": "MRI,  CT scan, X ray, ECG",
        "healthcare": "laboratory",
        "name": "Clumax Diagnostics",
        "phone": "080 3305 1953;+91 80 49067777",
        "source": "http://www.justdial.com/",
        "website": "https://www.medall.in/"
      }
    },
    {
      "type": "node",
      "id": 4447085544,
      "lat": 12.9415832,
      "lon": 77.5770807,
      "tags": {
        "addr:city": "bangalore",
        "addr:housenumber": "93",
        "addr:postcode": "560004",
        "addr:street": "Kanakapura Rd, Basavanagudi",
        "amenity": "restaurant",
        "cuisine": "regional",
        "delivery": "yes",
        "name": "The Rogue Elephant",
        "opening_hours": "11:00-20:30",
        "phone": "098456 64681",
        "smoking": "no"
      }
    },
    {
      "type": "node",
      "id": 4447099380,
      "lat": 12.9403117,
      "lon": 77.5798319,
      "tags": {
        "addr:city": "Bangalore",
        "addr:housenumber": "31",
        "addr:postcode": "560004",
        "addr:street": "Opposite Vijaya College, RV Road, Basavanagudi",
        "amenity": "restaurant",
        "cuisine": "regional",
        "delivery": "yes",
        "name": "Kabab Magic",
        "opening_hours": "12:30-23:00",
        "phone": "080 2657 0381",
        "smoking": "no"
      }
    },
    {
      "type": "node",
      "id": 4447105420,
      "lat": 12.9377243,
      "lon": 77.5794545,
      "tags": {
        "addr:city": "Bangalore",
        "addr:housenumber": "23",
        "addr:postcode": "560004",
        "addr:street": "Patalamma Street, Basavanagudi",
        "amenity": "restaurant",
        "cuisine": "regional",
        "delivery": "yes",
        "name": "Leanin Tree Art Cafe",
        "opening_hours": "11:00-23:00",
        "phone": "098862 18518",
        "smoking": "no",
        "takeaway": "yes"
      }
    },
    {
      "type": "node",
      "id": 4447161307,
      "lat": 12.938888,
      "lon": 77.5755794,
      "tags": {
        "addr:city": "Bangalore",
        "addr:postcode": "560004",
        "addr:street": "Kankapura Road, Yediyur, Basavanagudi",
        "amenity": "restaurant",
        "cuisine": "regional",
        "delivery": "yes",
        "name": "South Thindies",
        "opening_hours": "06:00-15:30,16:30-22:30",
        "smoking": "no"
      }
    },
    {
      "type": "node",
      "id": 4448075597,
      "lat": 12.9458746,
      "lon": 77.5877756,
      "tags": {
        "addr:city": "bangalore",
        "addr:housenumber": "58,59",
        "addr:postcode": "560029",
        "addr:street": "3rd Main,KEB Layout, BTM Layout  1",
        "amenity": "hospital",
        "emergency": "yes",
        "name": "Vijay Diagnostic Centre",
        "phone": "080 2668 4260",
        "source": "http://www.bangalorean.co.in/"
      }
    },
    {
      "type": "node",
      "id": 4464435191,
      "lat": 12.9349175,
      "lon": 77.5829015,
      "tags": {
        "addr:street": "Jayanagar 3rd block",
        "amenity": "cafe",
        "cuisine": "coffee_shop;burger;american",
        "name": "Java City Jayanagar",
        "name:en": "Java City Jayanagar",
        "opening_hours": "Mo-Su 11:00-22:00"
      }
    },
    {
      "type": "node",
      "id": 4488310200,
      "lat": 12.9421715,
      "lon": 77.585355,
      "tags": {
        "addr:city": "Bangalore",
        "addr:housenumber": "No.10/1",
        "addr:postcode": "560034",
        "addr:street": "jayanagar",
        "name": "Bodycraft Spa And Salon",
        "opening_hours": "09:00-21:30",
        "phone": "08039557718",
        "shop": "massage",
        "website": "https://www.bodycraft.co.in/"
      }
    },
    {
      "type": "node",
      "id": 4488407044,
      "lat": 12.9390091,
      "lon": 77.5755401,
      "tags": {
        "addr:city": "Bangalore",
        "addr:postcode": "560004",
        "addr:street": "Reservoir Street",
        "name": "Eden Unisex Spa And Salon",
        "opening_hours": "09:30-18:30",
        "phone": "8033537010",
        "shop": "beauty",
        "website": "https://www.edenspa.asia/"
      }
    },
    {
      "type": "node",
      "id": 4489905705,
      "lat": 12.9421569,
      "lon": 77.585374,
      "tags": {
        "addr:city": "Bangalore",
        "addr:housenumber": "No.10/1, Mariappa Road",
        "addr:postcode": "560034",
        "addr:street": "1st Block, Jayanagar",
        "name": "Bodycraft Spa And Salon",
        "opening_hours": "09:30-21:30",
        "phone": "80-39557718",
        "shop": "beauty",
        "website": "https://www.bodycraft.co.in/"
      }
    },
    {
      "type": "node",
      "id": 4489927123,
      "lat": 12.9339304,
      "lon": 77.583662,
      "tags": {
        "addr:city": "Bangalore",
        "addr:housenumber": "57/151, Sharada Plaza, 9th main,",
        "addr:postcode": "560011",
        "addr:street": "Opposite to State Bank of Mysore, Jayanagar East, Jaya Nagar 1st Block, Jayanagara Jaya Nagar",
        "name": "Green Trends Unisex Hair & Style Salon",
        "opening_hours": "08:00-21:00",
        "phone": "080 4123 1313",
        "shop": "beauty",
        "website": "https://www.mygreentrends.in/"
      }
    },
    {
      "type": "node",
      "id": 4489960104,
      "lat": 12.9348864,
      "lon": 77.5818097,
      "tags": {
        "addr:city": "Bangalore",
        "addr:postcode": "560011",
        "addr:street": "South End Apartment, Near PN Rao Showroom 16/1-1,19th Cross, 3rd Block, Circle,, Jayanagar East, Jaya Nagar 1st Block, Jayanagara Jaya Nagar",
        "leisure": "sports_centre",
        "name": "Pink Ladies Gym",
        "opening_hours": "06:00-20:00",
        "phone": "080 2653 1222",
        "sport": "gymnastics"
      }
    },
    {
      "type": "node",
      "id": 4552198797,
      "lat": 12.9459795,
      "lon": 77.5885235,
      "tags": {
        "addr:city": "bangalore",
        "addr:housenumber": "1",
        "addr:postcode": "560029",
        "addr:street": "Siddapura Road",
        "amenity": "restaurant",
        "capacity": "25",
        "cuisine": "indian,_japanese",
        "delivery": "yes",
        "level": "2",
        "name": "Abc Resto",
        "opening_hours": "10:00-22:00",
        "phone": "+91 80 425655",
        "smoking": "no",
        "source": "website",
        "takeaway": "no",
        "website": "www.abcresto.com"
      }
    },
    {
      "type": "node",
      "id": 4581285892,
      "lat": 12.9370636,
      "lon": 77.5851757,
      "tags": {
        "amenity": "restaurant",
        "cuisine": "italian",
        "internet_access": "wlan",
        "name": "Toscano",
        "name:en": "Toscano",
        "phone": "+918041558423"
      }
    },
    {
      "type": "node",
      "id": 4703298136,
      "lat": 12.9499469,
      "lon": 77.5860202,
      "tags": {
        "amenity": "fountain"
      }
    },
    {
      "type": "node",
      "id": 4763212133,
      "lat": 12.9502621,
      "lon": 77.5867696,
      "tags": {
        "amenity": "drinking_water"
      }
    },
    {
      "type": "node",
      "id": 4824906934,
      "lat": 12.9489409,
      "lon": 77.5862685,
      "tags": {
        "amenity": "drinking_water"
      }
    },
    {
      "type": "node",
      "id": 4824986021,
      "lat": 12.9434017,
      "lon": 77.5771336,
      "tags": {
        "amenity": "fuel",
        "brand": "Bharat Petroleum",
        "brand:wikidata": "Q854826",
        "name": "Bharat Petroleum",
        "name:en": "Bharat Petroleum",
        "name:kn": "ಭಾರತ್ ಪೆಟ್ರೋಲಿಯಂ"
      }
    },
    {
      "type": "node",
      "id": 4828690974,
      "lat": 12.9365826,
      "lon": 77.5797991,
      "tags": {
        "amenity": "clock",
        "check_date": "2022-12-23",
        "display": "analog",
        "support": "pole",
        "visibility": "area"
      }
    },
    {
      "type": "node",
      "id": 4847824929,
      "lat": 12.9410118,
      "lon": 77.592838,
      "tags": {
        "amenity": "pharmacy",
        "healthcare": "pharmacy",
        "name": "AT pharma",
        "name:en": "AT pharma"
      }
    },
    {
      "type": "node",
      "id": 4849618941,
      "lat": 12.9409939,
      "lon": 77.5928155,
      "tags": {
        "name": "Dharshan Enterprises",
        "shop": "convenience"
      }
    },
    {
      "type": "node",
      "id": 4849618942,
      "lat": 12.9409651,
      "lon": 77.5928205,
      "tags": {
        "name": "2 Wheeler Repair Shop",
        "shop": "car_repair"
      }
    },
    {
      "type": "node",
      "id": 4931849744,
      "lat": 12.9351221,
      "lon": 77.5856157,
      "tags": {
        "name": "Nandini Milk Parlour",
        "name:kn": "ನಂದಿನಿ ಹಾಲಿನ ಅಂಗಡಿ",
        "shop": "dairy"
      }
    },
    {
      "type": "node",
      "id": 5078108577,
      "lat": 12.9425836,
      "lon": 77.5815226,
      "tags": {
        "addr:street": "6th Main, Hanumanth Nagar",
        "amenity": "place_of_worship",
        "denomination": "hindu",
        "description": "Hindu Temple",
        "name": "Andaal Rangamannaar Temple"
      }
    },
    {
      "type": "node",
      "id": 5078108718,
      "lat": 12.942297,
      "lon": 77.581498,
      "tags": {
        "addr:street": "6th Main, Hanumanth Nagar",
        "amenity": "place_of_worship",
        "name": "Andaal Rangamannaar Temple Hall"
      }
    },
    {
      "type": "node",
      "id": 5217775516,
      "lat": 12.9369431,
      "lon": 77.5791459,
      "tags": {
        "addr:city": "Bangalore",
        "addr:postcode": "560004",
        "addr:street": "South End Road",
        "name": "VLCC",
        "shop": "beauty"
      }
    },
    {
      "type": "node",
      "id": 5234717428,
      "lat": 12.93656,
      "lon": 77.5804636,
      "tags": {
        "amenity": "atm",
        "brand": "Canara Bank",
        "brand:en": "Canara Bank",
        "brand:hi": "केनरा बैंक",
        "brand:kn": "ಕೆನರಾ ಬ್ಯಾಂಕ್",
        "brand:pa": "ਕੇਨਰਾ ਬੈਂਕ",
        "brand:pnb": "کینرا بینک",
        "brand:ur": "کینرا بینک",
        "brand:wikidata": "Q2003777",
        "name": "Canara Bank",
        "name:en": "Canara Bank",
        "name:hi": "केनरा बैंक",
        "name:kn": "ಕೆನರಾ ಬ್ಯಾಂಕ್",
        "name:pa": "ਕੇਨਰਾ ਬੈਂਕ",
        "name:pnb": "کینرا بینک",
        "name:ur": "کینرا بینک",
        "operator": "Canara Bank",
        "operator:wikidata": "Q2003777"
      }
    },
    {
      "type": "node",
      "id": 5234720398,
      "lat": 12.939466,
      "lon": 77.5776226,
      "tags": {
        "amenity": "clinic",
        "healthcare": "clinic",
        "name": "Ambuja Healthcare"
      }
    },
    {
      "type": "node",
      "id": 5234722241,
      "lat": 12.9386918,
      "lon": 77.5781098,
      "tags": {
        "amenity": "bank",
        "brand": "State Bank of India",
        "brand:wikidata": "Q1340361",
        "name": "State Bank of India",
        "name:kn": "ಭಾರತೀಯ ಸ್ಟೇಟ್ ಬ್ಯಾಂಕ್",
        "short_name": "SBI"
      }
    },
    {
      "type": "node",
      "id": 5234722569,
      "lat": 12.9385769,
      "lon": 77.5782578,
      "tags": {
        "name": "Ramraj",
        "shop": "clothes"
      }
    },
    {
      "type": "node",
      "id": 5234724313,
      "lat": 12.9382437,
      "lon": 77.5785496,
      "tags": {
        "name": "Mattress Firm",
        "operator": "KurlOn",
        "shop": "bed"
      }
    },
    {
      "type": "node",
      "id": 5234739990,
      "lat": 12.933223,
      "lon": 77.5842632,
      "tags": {
        "addr:city": "Bangalore",
        "addr:district": "Bengaluru Urban",
        "addr:full": "No.1537/1, 9th Main Road, 3rd Block, Jayanagar",
        "addr:housenumber": "1537/1",
        "addr:postcode": "560011",
        "addr:state": "Karnataka",
        "addr:street": "9th Main Road",
        "addr:suburb": "Jayanagar 3rd Block",
        "amenity": "hospital",
        "email": "infokpcpt@gmail.com",
        "healthcare": "hospital",
        "name": "Nature Cure Hospital",
        "opening_hours": "We-Mo 07:00-12:00,13:00-18:00",
        "operator:type": "private",
        "phone": "+91 80 2663 1945;+91 80 2244 6035",
        "source": "OpenGovernmentData",
        "website": "https://www.jayanagarnaturecure.in/"
      }
    },
    {
      "type": "node",
      "id": 5234740899,
      "lat": 12.9416336,
      "lon": 77.5767895,
      "tags": {
        "amenity": "place_of_worship",
        "name": "Shree Renuka Yellamma Devi Temple",
        "religion": "hindu"
      }
    },
    {
      "type": "node",
      "id": 5234750135,
      "lat": 12.946047,
      "lon": 77.5784123,
      "tags": {
        "amenity": "bank",
        "brand": "Canara Bank",
        "brand:en": "Canara Bank",
        "brand:hi": "केनरा बैंक",
        "brand:kn": "ಕೆನರಾ ಬ್ಯಾಂಕ್",
        "brand:pa": "ਕੇਨਰਾ ਬੈਂਕ",
        "brand:pnb": "کینرا بینک",
        "brand:ur": "کینرا بینک",
        "brand:wikidata": "Q2003777",
        "brand:wikipedia": "en:Canara Bank",
        "brand:wikipedia:pa": "ਕੇਨਰਾ ਬੈਂਕ",
        "name": "Canara Bank",
        "name:en": "Canara Bank",
        "name:hi": "केनरा बैंक",
        "name:kn": "ಕೆನರಾ ಬ್ಯಾಂಕ್",
        "name:pa": "ਕੇਨਰਾ ਬੈਂਕ",
        "name:pnb": "کینرا بینک",
        "name:ur": "کینرا بینک"
      }
    },
    {
      "type": "node",
      "id": 5306746586,
      "lat": 12.9492282,
      "lon": 77.5798434,
      "tags": {
        "amenity": "doctors",
        "healthcare": "doctor",
        "name": "Srinivasa Clinic"
      }
    },
    {
      "type": "node",
      "id": 5306746589,
      "lat": 12.9495157,
      "lon": 77.5797871,
      "tags": {
        "name": "Ramya Beauty Parlor",
        "shop": "beauty"
      }
    },
    {
      "type": "node",
      "id": 5306746590,
      "lat": 12.9495419,
      "lon": 77.5798273,
      "tags": {
        "amenity": "atm",
        "brand": "HDFC Bank",
        "brand:wikidata": "Q631047",
        "name": "HDFC Bank",
        "name:kn": "ಎಚ್ ಡಿ ಎಫ್ ಸಿ",
        "operator": "HDFC Bank",
        "operator:wikidata": "Q631047",
        "short_name": "HDFC"
      }
    },
    {
      "type": "node",
      "id": 5306746599,
      "lat": 12.9495484,
      "lon": 77.5802739,
      "tags": {
        "amenity": "doctors",
        "name": "Children's Clinic",
        "name:kn": "ಮಕ್ಕಳ ಚಿಕಿತ್ಸಾಲಯ"
      }
    },
    {
      "type": "node",
      "id": 5306746601,
      "lat": 12.9495366,
      "lon": 77.580231,
      "tags": {
        "amenity": "atm",
        "brand": "Canara Bank",
        "brand:en": "Canara Bank",
        "brand:hi": "केनरा बैंक",
        "brand:kn": "ಕೆನರಾ ಬ್ಯಾಂಕ್",
        "brand:pa": "ਕੇਨਰਾ ਬੈਂਕ",
        "brand:pnb": "کینرا بینک",
        "brand:ur": "کینرا بینک",
        "brand:wikidata": "Q2003777",
        "brand:wikipedia": "en:Canara Bank",
        "brand:wikipedia:pa": "ਕੇਨਰਾ ਬੈਂਕ",
        "name": "Canara Bank",
        "name:en": "Canara Bank",
        "name:hi": "केनरा बैंक",
        "name:kn": "ಕೆನರಾ ಬ್ಯಾಂಕ್",
        "name:pa": "ਕੇਨਰਾ ਬੈਂਕ",
        "name:pnb": "کینرا بینک",
        "name:ur": "کینرا بینک",
        "operator": "Canara Bank",
        "operator:wikidata": "Q2003777"
      }
    },
    {
      "type": "node",
      "id": 6110283523,
      "lat": 12.9479063,
      "lon": 77.5880012,
      "tags": {
        "amenity": "waste_basket"
      }
    },
    {
      "type": "node",
      "id": 6110283792,
      "lat": 12.9478809,
      "lon": 77.5879078,
      "tags": {
        "amenity": "bench"
      }
    },
    {
      "type": "node",
      "id": 6110283805,
      "lat": 12.9479274,
      "lon": 77.5879038,
      "tags": {
        "amenity": "bench"
      }
    },
    {
      "type": "node",
      "id": 6110285206,
      "lat": 12.9480516,
      "lon": 77.5881285,
      "tags": {
        "amenity": "bench",
        "backrest": "no"
      }
    },
    {
      "type": "node",
      "id": 6349089553,
      "lat": 12.9357317,
      "lon": 77.57751,
      "tags": {
        "addr:place": "Jayanagar",
        "amenity": "school",
        "isced:level": "2",
        "name": "Vijaya HPS Jayanagar",
        "name:kn": "ವಿಜಯ ಹಿರಿಯ ಪ್ರಾಥಮಿಕ ಶಾಲೆ ಜಯನಗರ",
        "operator": "Department of Education",
        "school": "primary"
      }
    },
    {
      "type": "node",
      "id": 6349491619,
      "lat": 12.9458038,
      "lon": 77.5884207,
      "tags": {
        "addr:place": "Lalbhag Siddapur",
        "amenity": "school",
        "isced:level": "2",
        "name": "GHPS Lalbhag Siddapur",
        "name:kn": "ಸರ್ಕಾರಿ ಹಿರಿಯ ಪ್ರಾಥಮಿಕ ಶಾಲೆ ಲಾಲ್ಭಾಗ್ ಸಿದ್ದಾಪುರ",
        "operator": "Department of Education",
        "school": "primary"
      }
    },
    {
      "type": "node",
      "id": 6859395260,
      "lat": 12.9342558,
      "lon": 77.5841423,
      "tags": {
        "addr:street": "3rd block",
        "amenity": "atm",
        "brand": "State Bank of India",
        "brand:wikidata": "Q1340361",
        "name": "State Bank of India",
        "opening_hours": "24/7",
        "operator": "State Bank of India",
        "operator:wikidata": "Q1340361",
        "short_name": "SBI"
      }
    },
    {
      "type": "node",
      "id": 6859400701,
      "lat": 12.9341998,
      "lon": 77.5841516,
      "tags": {
        "addr:street": "3rd block",
        "amenity": "bank",
        "brand": "State Bank of India",
        "brand:wikidata": "Q1340361",
        "name": "State Bank of India",
        "name:kn": "ಭಾರತೀಯ ಸ್ಟೇಟ್ ಬ್ಯಾಂಕ್",
        "opening_hours": "Mo-Fr 10:00-16:00",
        "short_name": "SBI"
      }
    },
    {
      "type": "node",
      "id": 6859401969,
      "lat": 12.9344119,
      "lon": 77.5837996,
      "tags": {
        "addr:street": "9th main 3rd Block",
        "name": "Green trends",
        "shop": "beauty",
        "website": "https://www.mygreentrends.in/"
      }
    },
    {
      "type": "node",
      "id": 6859403549,
      "lat": 12.934003,
      "lon": 77.5841388,
      "tags": {
        "addr:district": "Bengaluru Urban",
        "addr:full": "#1533, 9th Main,3rd Block, Jayanagar",
        "addr:postcode": "560011",
        "addr:state": "Karnataka",
        "addr:street": "3rd block",
        "addr:subdistrict": "Jayanagar",
        "amenity": "clinic",
        "description": "Maternity, Gynaecology, Pediatrics, Fertility, NICU, Emergency 24/7",
        "email": "info@cloudninecare.com",
        "healthcare:speciality": "Maternity; Gynaecology; Pediatrics; Intensive Care; Fertility; Cryonine",
        "name": "Cloud Nine, Jayanagar",
        "operator:type": "private",
        "phone": "18605009999",
        "source": "OpenGovernmentData",
        "website": "https://cloudninecare.com/"
      }
    },
    {
      "type": "node",
      "id": 6859406244,
      "lat": 12.9342412,
      "lon": 77.5828783,
      "tags": {
        "addr:street": "3rd block",
        "amenity": "restaurant",
        "name": "Pataka Mannar's"
      }
    },
    {
      "type": "node",
      "id": 6937898160,
      "lat": 12.9497745,
      "lon": 77.5802779,
      "tags": {
        "addr:district": "Bengaluru Urban",
        "addr:full": "#53/1 (45), Shalini,Susheela Road,Lalbagh Upparahalli ( Lalbagh West Gate)",
        "addr:postcode": "560004",
        "addr:state": "Karnataka",
        "amenity": "hospital",
        "healthcare": "hospital",
        "name": "South City Hospital, Bengaluru Urban",
        "source": "OpenGovernmentData"
      }
    },
    {
      "type": "node",
      "id": 6938775853,
      "lat": 12.9463129,
      "lon": 77.5796349,
      "tags": {
        "addr:district": "Bengaluru Urban",
        "addr:full": "No-9/91, Govindappa Road, Basavana Gudi",
        "addr:postcode": "560004",
        "addr:state": "Karnataka",
        "amenity": "clinic",
        "healthcare": "clinic",
        "name": "Medikeris Superspecaility Ent Centre",
        "operator:type": "private",
        "source": "OpenGovernmentData",
        "website": "http://www.medikerihospital.com/"
      }
    },
    {
      "type": "node",
      "id": 6938864297,
      "lat": 12.9417462,
      "lon": 77.580349,
      "tags": {
        "addr:district": "Bengaluru Urban",
        "addr:full": "CGHS Dispensary No.6, Jayanagar No.57/190,R.V.Road, 2nd Block, Jayanagar",
        "addr:postcode": "560011",
        "addr:state": "Karnataka",
        "amenity": "clinic",
        "health_facility:type": "dispensary",
        "healthcare": "centre",
        "name": "CGHS Dispensary No.6",
        "operator:type": "government",
        "source": "OpenGovernmentData",
        "website": "http://nb.bsf.gov.in/CGHS%20DIspenseries.pdf"
      }
    },
    {
      "type": "node",
      "id": 6938986583,
      "lat": 12.9336404,
      "lon": 77.5829253,
      "tags": {
        "addr:district": "Bengaluru Urban",
        "addr:full": "Sadguru Complex No 14 27Th Cross 4Th Block West Jayanagar",
        "addr:postcode": "560011",
        "addr:state": "Karnataka",
        "amenity": "clinic",
        "name": "Ragavs Diagnostic and Research Centre Pvt Ltd",
        "source": "OpenGovernmentData"
      }
    },
    {
      "type": "node",
      "id": 6939039323,
      "lat": 12.9347671,
      "lon": 77.5873697,
      "tags": {
        "addr:district": "Bengaluru Urban",
        "addr:full": "No.24 1st Block East,Byrasandra Main Road, Near Madhavan Park",
        "addr:postcode": "560011",
        "addr:state": "Karnataka",
        "amenity": "clinic",
        "name": "Venkatagiri Nursing Home",
        "source": "OpenGovernmentData"
      }
    },
    {
      "type": "node",
      "id": 6944392363,
      "lat": 12.938853,
      "lon": 77.5786096,
      "tags": {
        "addr:district": "Bengaluru Urban",
        "addr:full": "9, Patalamma Temple Street, Basavanagudi",
        "addr:postcode": "560004",
        "addr:state": "Karnataka",
        "amenity": "hospital",
        "name": "Av Hospital",
        "source": "OpenGovernmentData"
      }
    },
    {
      "type": "node",
      "id": 6944507652,
      "lat": 12.9403012,
      "lon": 77.5764705,
      "tags": {
        "addr:district": "Bengaluru Urban",
        "addr:full": "1,Dewan N, Madhava Rao Road, Basavanagudi",
        "addr:postcode": "560004",
        "addr:state": "Karnataka",
        "amenity": "hospital",
        "healthcare": "hospital",
        "name": "Gunasheela Surgical and Maternity Hospital",
        "source": "OpenGovernmentData"
      }
    },
    {
      "type": "node",
      "id": 6944888150,
      "lat": 12.9496114,
      "lon": 77.5790786,
      "tags": {
        "addr:district": "Bengaluru Urban",
        "addr:full": "37, M.N. Krishna Rao Road, Opp Lalbagh West Gate",
        "addr:postcode": "560004",
        "addr:state": "Karnataka",
        "amenity": "hospital",
        "healthcare": "hospital",
        "name": "Jyothi The Lasik Vision Centre",
        "source": "OpenGovernmentData"
      }
    },
    {
      "type": "node",
      "id": 6948030639,
      "lat": 12.9409351,
      "lon": 77.5787075,
      "tags": {
        "addr:district": "Bengaluru Urban",
        "addr:full": "88/3, K.R.Road,Basavanagudi",
        "addr:postcode": "560004",
        "addr:state": "Karnataka",
        "amenity": "clinic",
        "name": "B.M.S. Nursing Home",
        "source": "OpenGovernmentData"
      }
    },
    {
      "type": "node",
      "id": 6950206892,
      "lat": 12.9395314,
      "lon": 77.5864396,
      "tags": {
        "addr:district": "Bengaluru Urban",
        "addr:full": "No.158, 6Th A Cross, Jayanagar, 1st Block",
        "addr:postcode": "560011",
        "addr:state": "Karnataka",
        "amenity": "clinic",
        "name": "Venkateshwara Eye Clinic",
        "source": "OpenGovernmentData"
      }
    },
    {
      "type": "node",
      "id": 7043198419,
      "lat": 12.9487805,
      "lon": 77.5798256,
      "tags": {
        "name": "Kamat Tourist",
        "shop": "ticket"
      }
    },
    {
      "type": "node",
      "id": 7576958021,
      "lat": 12.9479573,
      "lon": 77.5798704,
      "tags": {
        "addr:district": "Bengaluru Urban",
        "addr:full": "MN Krishna Rao Road, Basavanagudi, Bengaluru",
        "addr:postcode": "560004",
        "addr:state": "Karnataka",
        "amenity": "clinic",
        "healthcare": "clinic",
        "name": "Life is Beautiful Clinic",
        "source": "Local Knowledge"
      }
    },
    {
      "type": "node",
      "id": 7576958033,
      "lat": 12.9405198,
      "lon": 77.5794387,
      "tags": {
        "addr:district": "Bengaluru Urban",
        "addr:full": "Basavanagudi, Bengaluru",
        "addr:postcode": "560004",
        "addr:state": "Karnataka",
        "amenity": "hospital",
        "name": "Bangaluru Unani Hospital",
        "source": "Local Knowledge"
      }
    },
    {
      "type": "node",
      "id": 7576958047,
      "lat": 12.949269,
      "lon": 77.579839,
      "tags": {
        "addr:district": "Bengaluru Urban",
        "addr:full": "RV Road, Upparahalli, Basavanagudi, Bengaluru",
        "addr:postcode": "560004",
        "addr:state": "Karnataka",
        "amenity": "clinic",
        "healthcare": "clinic",
        "name": "Srinivasa Clinic",
        "source": "Local Knowledge"
      }
    },
    {
      "type": "node",
      "id": 7576958049,
      "lat": 12.949663,
      "lon": 77.580184,
      "tags": {
        "addr:district": "Bengaluru Urban",
        "addr:full": "Rashtriya Vidyalaya Road, Upparahalli, Mavalli, Bengaluru",
        "addr:postcode": "560004",
        "addr:state": "Karnataka",
        "amenity": "clinic",
        "name": "Children's Clinic",
        "source": "Local Knowledge"
      }
    },
    {
      "type": "node",
      "id": 7576958051,
      "lat": 12.936459,
      "lon": 77.584422,
      "tags": {
        "addr:district": "Bengaluru Urban",
        "addr:full": "Jaya Nagar East, Jayanagar, Bengaluru",
        "addr:postcode": "560011",
        "addr:state": "Karnataka",
        "amenity": "hospital",
        "healthcare": "hospital",
        "name": "Apollo Specialty Hospital",
        "source": "Local Knowledge"
      }
    },
    {
      "type": "node",
      "id": 7576958053,
      "lat": 12.9489343,
      "lon": 77.5795464,
      "tags": {
        "addr:district": "Bengaluru Urban",
        "addr:full": "Rashtriya Vidyalaya Road, Vishweshwarapura, Basavanagudi, Bengaluru",
        "addr:postcode": "560004",
        "addr:state": "Karnataka",
        "amenity": "clinic",
        "name": "Taranatha Ayurveda Mandira",
        "source": "Local Knowledge"
      }
    },
    {
      "type": "node",
      "id": 7576958089,
      "lat": 12.9434996,
      "lon": 77.5796583,
      "tags": {
        "addr:district": "Bengaluru Urban",
        "addr:full": "Basavanagudi, Bengaluru",
        "addr:postcode": "560004",
        "addr:state": "Karnataka",
        "amenity": "hospital",
        "healthcare": "hospital",
        "name": "Trinity Hospital and Heart Foundation",
        "source": "Local Knowledge"
      }
    },
    {
      "type": "node",
      "id": 7576958093,
      "lat": 12.9420276,
      "lon": 77.575634,
      "tags": {
        "addr:district": "Bengaluru Urban",
        "addr:full": "M N Krishna Rao Park Road, Basavanagudi, Bengaluru",
        "addr:postcode": "560070",
        "addr:state": "Karnataka",
        "amenity": "hospital",
        "healthcare": "hospital",
        "name": "Matha Pitha Hospital",
        "source": "Local Knowledge"
      }
    },
    {
      "type": "node",
      "id": 7576958108,
      "lat": 12.9380136,
      "lon": 77.5838278,
      "tags": {
        "addr:district": "Bengaluru Urban",
        "addr:full": "Jaya Nagar East, Jayanagar, Bengaluru",
        "addr:postcode": "560011",
        "addr:state": "Karnataka",
        "amenity": "dentist",
        "name": "Perfect Smiles Dental Clinic",
        "source": "Local Knowledge"
      }
    },
    {
      "type": "node",
      "id": 7576958111,
      "lat": 12.9487692,
      "lon": 77.5793662,
      "tags": {
        "addr:district": "Bengaluru Urban",
        "addr:full": "R.V. Road, V.V. Puram, Bengaluru",
        "addr:postcode": "560004",
        "addr:state": "Karnataka",
        "amenity": "clinic",
        "name": "Synergy Diabetes Clinic",
        "source": "Local Knowledge"
      }
    },
    {
      "type": "node",
      "id": 7576958115,
      "lat": 12.948062,
      "lon": 77.577411,
      "tags": {
        "addr:district": "Bengaluru Urban",
        "addr:full": "Vanivilas Road, Kanakapura, Visvesvarapuram, Basavanagudi, Bengaluru",
        "addr:postcode": "560004",
        "addr:state": "Karnataka",
        "amenity": "clinic",
        "healthcare": "clinic",
        "name": "Sri Sri Ayurveda Clinic",
        "source": "Local Knowledge"
      }
    },
    {
      "type": "node",
      "id": 7576958118,
      "lat": 12.9458294,
      "lon": 77.5799015,
      "tags": {
        "addr:district": "Bengaluru Urban",
        "addr:full": "Rashtriya Vidyalaya Road, Basavanagudi, Bengaluru",
        "addr:postcode": "560004",
        "addr:state": "Karnataka",
        "amenity": "hospital",
        "healthcare": "hospital",
        "name": "Dave Gray Hospital",
        "source": "Local Knowledge"
      }
    },
    {
      "type": "node",
      "id": 9276855256,
      "lat": 12.9395279,
      "lon": 77.586437,
      "tags": {
        "amenity": "hospital",
        "healthcare": "hospital",
        "name": "clinic"
      }
    },
    {
      "type": "node",
      "id": 9292386641,
      "lat": 12.9493948,
      "lon": 77.5888026,
      "tags": {
        "amenity": "bench",
        "backrest": "yes",
        "material": "wood",
        "seats": "3"
      }
    },
    {
      "type": "node",
      "id": 9292386642,
      "lat": 12.949434,
      "lon": 77.5889307,
      "tags": {
        "amenity": "bench",
        "backrest": "yes",
        "material": "wood",
        "seats": "3"
      }
    },
    {
      "type": "node",
      "id": 9292386643,
      "lat": 12.9494785,
      "lon": 77.5890313,
      "tags": {
        "amenity": "bench",
        "backrest": "yes",
        "material": "wood",
        "seats": "3"
      }
    },
    {
      "type": "node",
      "id": 9292386644,
      "lat": 12.9495379,
      "lon": 77.5891614,
      "tags": {
        "amenity": "bench",
        "backrest": "yes",
        "material": "wood",
        "seats": "3"
      }
    },
    {
      "type": "node",
      "id": 9417473954,
      "lat": 12.939212,
      "lon": 77.5838982,
      "tags": {
        "addr:floor": "0",
        "air_conditioning": "no",
        "amenity": "fast_food",
        "check_date": "2025-01-10",
        "cuisine": "south_indian",
        "diet:vegetarian": "yes",
        "level": "0",
        "name": "Bengaluru Cafe",
        "outdoor_seating": "no",
        "takeaway": "yes",
        "toilets": "no"
      }
    },
    {
      "type": "node",
      "id": 9892036258,
      "lat": 12.9352141,
      "lon": 77.582936,
      "tags": {
        "amenity": "restaurant",
        "cuisine": "asian",
        "delivery": "yes",
        "name": "KUBO",
        "takeaway": "yes"
      }
    },
    {
      "type": "node",
      "id": 9906246579,
      "lat": 12.9438302,
      "lon": 77.5843415,
      "tags": {
        "access": "yes",
        "amenity": "toilets",
        "check_date": "2025-07-12",
        "fee": "no",
        "operator": "ಬೃಹತ್ ಬೆಂಗಳೂರು ಮಹಾನಗರ ಪಾಲಿಕೆ",
        "operator:en": "Bruhat Bengaluru Mahanagara Palike",
        "operator:ka": "ಬೃಹತ್ ಬೆಂಗಳೂರು ಮಹಾನಗರ ಪಾಲಿಕೆ",
        "operator:short": "BBMP",
        "operator:wikidata": "Q4978693"
      }
    },
    {
      "type": "node",
      "id": 9909079217,
      "lat": 12.9428948,
      "lon": 77.5859861,
      "tags": {
        "amenity": "school",
        "name": "Sri Sharada Nursery and Public School"
      }
    },
    {
      "type": "node",
      "id": 9922802663,
      "lat": 12.9501718,
      "lon": 77.5861922,
      "tags": {
        "amenity": "drinking_water"
      }
    },
    {
      "type": "node",
      "id": 9922802664,
      "lat": 12.9502137,
      "lon": 77.5853258,
      "tags": {
        "amenity": "drinking_water"
      }
    },
    {
      "type": "node",
      "id": 9922831521,
      "lat": 12.9495353,
      "lon": 77.5832009,
      "tags": {
        "amenity": "waste_basket",
        "source": "survey"
      }
    },
    {
      "type": "node",
      "id": 9922831522,
      "lat": 12.9494935,
      "lon": 77.5831901,
      "tags": {
        "amenity": "bench",
        "backrest": "yes",
        "material": "wood",
        "seats": "2",
        "source": "survey"
      }
    },
    {
      "type": "node",
      "id": 9922831524,
      "lat": 12.9491628,
      "lon": 77.5829454,
      "tags": {
        "amenity": "waste_basket",
        "colour": "green",
        "source": "survey",
        "waste": "organic"
      }
    },
    {
      "type": "node",
      "id": 9922831525,
      "lat": 12.9491419,
      "lon": 77.5829266,
      "tags": {
        "access": "yes",
        "amenity": "drinking_water",
        "fee": "no",
        "wheelchair": "yes"
      }
    },
    {
      "type": "node",
      "id": 9922831526,
      "lat": 12.9490975,
      "lon": 77.58283,
      "tags": {
        "amenity": "bench",
        "backrest": "yes",
        "material": "wood",
        "seats": "2",
        "source": "survey"
      }
    },
    {
      "type": "node",
      "id": 9922831527,
      "lat": 12.9489341,
      "lon": 77.58259,
      "tags": {
        "amenity": "waste_basket",
        "source": "survey",
        "waste": "recycling"
      }
    },
    {
      "type": "node",
      "id": 9922831528,
      "lat": 12.9489184,
      "lon": 77.5825591,
      "tags": {
        "amenity": "waste_basket",
        "source": "survey",
        "waste": "organic"
      }
    },
    {
      "type": "node",
      "id": 9922831529,
      "lat": 12.9488557,
      "lon": 77.5822869,
      "tags": {
        "amenity": "bench",
        "backrest": "yes",
        "material": "wood",
        "seats": "2",
        "source": "survey"
      }
    },
    {
      "type": "node",
      "id": 9922831531,
      "lat": 12.9487657,
      "lon": 77.5822163,
      "tags": {
        "amenity": "bench",
        "backrest": "yes",
        "material": "wood",
        "seats": "2",
        "source": "survey"
      }
    },
    {
      "type": "node",
      "id": 9922831532,
      "lat": 12.9486126,
      "lon": 77.5817491,
      "tags": {
        "amenity": "bench",
        "backrest": "yes",
        "material": "wood",
        "seats": "2",
        "source": "survey"
      }
    },
    {
      "type": "node",
      "id": 9922831533,
      "lat": 12.9485237,
      "lon": 77.581336,
      "tags": {
        "amenity": "waste_basket",
        "source": "survey"
      }
    },
    {
      "type": "node",
      "id": 9922831534,
      "lat": 12.9484679,
      "lon": 77.5811473,
      "tags": {
        "amenity": "bench",
        "backrest": "yes",
        "material": "wood",
        "seats": "2",
        "source": "survey"
      }
    },
    {
      "type": "node",
      "id": 9922831535,
      "lat": 12.9484963,
      "lon": 77.5812019,
      "tags": {
        "amenity": "bench",
        "backrest": "yes",
        "material": "wood",
        "seats": "2",
        "source": "survey"
      }
    },
    {
      "type": "node",
      "id": 9922831536,
      "lat": 12.9484502,
      "lon": 77.5810062,
      "tags": {
        "amenity": "bench",
        "backrest": "yes",
        "material": "wood",
        "seats": "2",
        "source": "survey"
      }
    },
    {
      "type": "node",
      "id": 9922831537,
      "lat": 12.9484636,
      "lon": 77.5810705,
      "tags": {
        "amenity": "bench",
        "backrest": "yes",
        "material": "wood",
        "seats": "2",
        "source": "survey"
      }
    },
    {
      "type": "node",
      "id": 9922831538,
      "lat": 12.9484923,
      "lon": 77.5809176,
      "tags": {
        "amenity": "drinking_water"
      }
    },
    {
      "type": "node",
      "id": 9922831542,
      "lat": 12.9476859,
      "lon": 77.5801036,
      "tags": {
        "access": "yes",
        "amenity": "toilets",
        "fee": "no",
        "operator": "ಬೃಹತ್ ಬೆಂಗಳೂರು ಮಹಾನಗರ ಪಾಲಿಕೆ",
        "operator:en": "Bruhat Bengaluru Mahanagara Palike",
        "operator:ka": "ಬೃಹತ್ ಬೆಂಗಳೂರು ಮಹಾನಗರ ಪಾಲಿಕೆ",
        "operator:short": "BBMP",
        "operator:wikidata": "Q4978693",
        "wheelchair": "no"
      }
    },
    {
      "type": "node",
      "id": 10242924678,
      "lat": 12.9362412,
      "lon": 77.5798381,
      "tags": {
        "amenity": "recycling",
        "name": "BBMP Dry Waste Collection Center",
        "recycling_type": "centre"
      }
    },
    {
      "type": "node",
      "id": 10244979164,
      "lat": 12.9338482,
      "lon": 77.5837728,
      "tags": {
        "addr:city": "Bangalore",
        "addr:country": "IN",
        "addr:hamlet": "Jayanagar 3rd Block",
        "addr:housenumber": "68/150/4",
        "addr:postcode": "560011",
        "addr:street": "9th Main Road",
        "addr:suburb": "Jayanagar",
        "amenity": "cafe",
        "contact:instagram": "nowboardingcafe",
        "contact:twitter": "nowboardingcafe",
        "email": "nowboardingcafe@gmail.com",
        "level": "2",
        "mobile": "7259911150",
        "name": "Now Boarding Cafe",
        "opening_hours": "Tu-Su 12:00-23:00",
        "phone": "9663568855",
        "website": "https://linktr.ee/nowboardingcafe"
      }
    },
    {
      "type": "node",
      "id": 10853093227,
      "lat": 12.9472886,
      "lon": 77.5798621,
      "tags": {
        "amenity": "fuel",
        "brand": "Go Gas",
        "name": "Go Gas"
      }
    },
    {
      "type": "node",
      "id": 11160555868,
      "lat": 12.9364983,
      "lon": 77.5782121,
      "tags": {
        "addr:city": "Bengaluru",
        "addr:housename": "Surana College",
        "addr:housenumber": "16",
        "addr:postcode": "560002",
        "addr:street": "South End Road",
        "addr:suburb": "Basavangudi",
        "amenity": "language_school",
        "language:ja": "main",
        "name": "Sakuraa Nihongo Resource Centre",
        "opening_hours": "Sa-Su 10:00-17:00",
        "phone": "+91 89043 90300",
        "short_name": "SNRC",
        "website": "https://snrc.co.in"
      }
    },
    {
      "type": "node",
      "id": 11215990965,
      "lat": 12.9478552,
      "lon": 77.579887,
      "tags": {
        "amenity": "bench",
        "backrest": "yes",
        "material": "stone"
      }
    },
    {
      "type": "node",
      "id": 11215990966,
      "lat": 12.9478695,
      "lon": 77.5798863,
      "tags": {
        "amenity": "bench",
        "backrest": "yes",
        "material": "stone"
      }
    },
    {
      "type": "node",
      "id": 11215990973,
      "lat": 12.9475467,
      "lon": 77.5797314,
      "tags": {
        "amenity": "restaurant",
        "cuisine": "indian",
        "name": "Lalbagh Grand"
      }
    },
    {
      "type": "node",
      "id": 11215990978,
      "lat": 12.947648,
      "lon": 77.5798005,
      "tags": {
        "amenity": "ice_cream",
        "name": "Ibaco"
      }
    },
    {
      "type": "node",
      "id": 11215991026,
      "lat": 12.9458365,
      "lon": 77.576673,
      "tags": {
        "name": "Continental",
        "shop": "tyres"
      }
    },
    {
      "type": "node",
      "id": 11277885670,
      "lat": 12.9395026,
      "lon": 77.5846124,
      "tags": {
        "amenity": "cafe",
        "contact:instagram": "isobel_cb",
        "name": "Isobel"
      }
    },
    {
      "type": "node",
      "id": 11386000340,
      "lat": 12.9397127,
      "lon": 77.5840912,
      "tags": {
        "amenity": "toilets",
        "fee": "yes",
        "name": "Public toilet"
      }
    },
    {
      "type": "node",
      "id": 11386048190,
      "lat": 12.9394346,
      "lon": 77.5838621,
      "tags": {
        "name": "Fruits shop",
        "shop": "greengrocer"
      }
    },
    {
      "type": "node",
      "id": 11386048191,
      "lat": 12.9394464,
      "lon": 77.5838952,
      "tags": {
        "amenity": "fast_food",
        "name": "Elaneeru(Tender coconut)"
      }
    },
    {
      "type": "node",
      "id": 11468627257,
      "lat": 12.9457837,
      "lon": 77.5849985,
      "tags": {
        "amenity": "waste_basket"
      }
    },
    {
      "type": "node",
      "id": 11468627258,
      "lat": 12.9458145,
      "lon": 77.5850019,
      "tags": {
        "amenity": "bench",
        "backrest": "yes"
      }
    },
    {
      "type": "node",
      "id": 11468627259,
      "lat": 12.9440457,
      "lon": 77.5829918,
      "tags": {
        "amenity": "waste_basket"
      }
    },
    {
      "type": "node",
      "id": 11468627260,
      "lat": 12.9439403,
      "lon": 77.582882,
      "tags": {
        "amenity": "waste_basket"
      }
    },
    {
      "type": "node",
      "id": 11468627261,
      "lat": 12.9438969,
      "lon": 77.5822454,
      "tags": {
        "amenity": "waste_basket"
      }
    },
    {
      "type": "node",
      "id": 11468627262,
      "lat": 12.9438682,
      "lon": 77.5813509,
      "tags": {
        "amenity": "waste_basket"
      }
    },
    {
      "type": "node",
      "id": 11468627263,
      "lat": 12.9443742,
      "lon": 77.5811979,
      "tags": {
        "amenity": "waste_basket"
      }
    },
    {
      "type": "node",
      "id": 11468627264,
      "lat": 12.9444373,
      "lon": 77.5812217,
      "tags": {
        "amenity": "bench",
        "backrest": "yes"
      }
    },
    {
      "type": "node",
      "id": 11468627265,
      "lat": 12.9452266,
      "lon": 77.5814377,
      "tags": {
        "amenity": "waste_basket"
      }
    },
    {
      "type": "node",
      "id": 11468627266,
      "lat": 12.945364,
      "lon": 77.5814803,
      "tags": {
        "amenity": "bench",
        "backrest": "yes"
      }
    },
    {
      "type": "node",
      "id": 11468627267,
      "lat": 12.9455418,
      "lon": 77.5814797,
      "tags": {
        "amenity": "bench",
        "backrest": "yes"
      }
    },
    {
      "type": "node",
      "id": 11468627268,
      "lat": 12.9457694,
      "lon": 77.5815104,
      "tags": {
        "amenity": "waste_basket"
      }
    },
    {
      "type": "node",
      "id": 11468699669,
      "lat": 12.9459206,
      "lon": 77.5815291,
      "tags": {
        "amenity": "bench",
        "backrest": "yes"
      }
    },
    {
      "type": "node",
      "id": 11468699670,
      "lat": 12.9460783,
      "lon": 77.5815645,
      "tags": {
        "amenity": "bench",
        "backrest": "yes"
      }
    },
    {
      "type": "node",
      "id": 11468699671,
      "lat": 12.9461993,
      "lon": 77.5815966,
      "tags": {
        "amenity": "bench",
        "backrest": "yes"
      }
    },
    {
      "type": "node",
      "id": 11468699672,
      "lat": 12.9462785,
      "lon": 77.5816307,
      "tags": {
        "amenity": "waste_basket"
      }
    },
    {
      "type": "node",
      "id": 11468699673,
      "lat": 12.9465015,
      "lon": 77.5816882,
      "tags": {
        "amenity": "bench",
        "backrest": "yes"
      }
    },
    {
      "type": "node",
      "id": 11468699674,
      "lat": 12.9467045,
      "lon": 77.5817274,
      "tags": {
        "amenity": "bench",
        "backrest": "yes"
      }
    },
    {
      "type": "node",
      "id": 11468699675,
      "lat": 12.9468784,
      "lon": 77.5817496,
      "tags": {
        "amenity": "bench",
        "backrest": "yes"
      }
    },
    {
      "type": "node",
      "id": 11468699676,
      "lat": 12.947,
      "lon": 77.5817368,
      "tags": {
        "amenity": "waste_basket"
      }
    },
    {
      "type": "node",
      "id": 11468699677,
      "lat": 12.9472714,
      "lon": 77.5817281,
      "tags": {
        "amenity": "waste_basket"
      }
    },
    {
      "type": "node",
      "id": 11468699678,
      "lat": 12.9474742,
      "lon": 77.5816435,
      "tags": {
        "amenity": "bench",
        "backrest": "no"
      }
    },
    {
      "type": "node",
      "id": 11468699679,
      "lat": 12.9476314,
      "lon": 77.5814638,
      "tags": {
        "amenity": "waste_basket"
      }
    },
    {
      "type": "node",
      "id": 11468699680,
      "lat": 12.9477532,
      "lon": 77.5813866,
      "tags": {
        "amenity": "bench",
        "backrest": "yes"
      }
    },
    {
      "type": "node",
      "id": 11468699681,
      "lat": 12.9478352,
      "lon": 77.5813691,
      "tags": {
        "amenity": "bench",
        "backrest": "no"
      }
    },
    {
      "type": "node",
      "id": 11468699682,
      "lat": 12.9479148,
      "lon": 77.5813009,
      "tags": {
        "amenity": "bench",
        "backrest": "yes"
      }
    },
    {
      "type": "node",
      "id": 11468699683,
      "lat": 12.948031,
      "lon": 77.5812922,
      "tags": {
        "amenity": "bench",
        "backrest": "yes"
      }
    },
    {
      "type": "node",
      "id": 11468699684,
      "lat": 12.9499238,
      "lon": 77.5831444,
      "tags": {
        "amenity": "waste_basket",
        "colour": "green",
        "waste": "organic"
      }
    },
    {
      "type": "node",
      "id": 11827173636,
      "lat": 12.9477417,
      "lon": 77.5793843,
      "tags": {
        "addr:postcode": "560004",
        "amenity": "doctors",
        "check_date": "2024-04-18",
        "email": "jyothilasikvision@gmail.com",
        "healthcare": "doctor",
        "healthcare:speciality": "ophthalmology",
        "name": "Jyothi The Lasik Vision Centre",
        "opening_hours": "Mo-Sa 10:00-18:00; Su off",
        "phone": "+91 80 2656 7878; +91 80 4096 7878; +91 93800 65139",
        "website": "https://www.jyothilasik.com"
      }
    },
    {
      "type": "node",
      "id": 12000027565,
      "lat": 12.9478573,
      "lon": 77.5831559,
      "tags": {
        "amenity": "bench",
        "backrest": "yes",
        "material": "stone",
        "seats": "3"
      }
    },
    {
      "type": "node",
      "id": 12000027567,
      "lat": 12.9477595,
      "lon": 77.5832855,
      "tags": {
        "amenity": "bench",
        "backrest": "yes",
        "material": "wood",
        "seats": "4"
      }
    },
    {
      "type": "node",
      "id": 12000027568,
      "lat": 12.9494589,
      "lon": 77.58495,
      "tags": {
        "amenity": "bench",
        "backrest": "yes",
        "seats": "3"
      }
    },
    {
      "type": "node",
      "id": 12000044812,
      "lat": 12.9477268,
      "lon": 77.5833393,
      "tags": {
        "amenity": "waste_basket",
        "material": "plastic"
      }
    },
    {
      "type": "node",
      "id": 12000047038,
      "lat": 12.9472808,
      "lon": 77.5843206,
      "tags": {
        "amenity": "bench",
        "backrest": "yes",
        "material": "wood",
        "seats": "3"
      }
    },
    {
      "type": "node",
      "id": 12000047039,
      "lat": 12.9472593,
      "lon": 77.5840031,
      "tags": {
        "amenity": "bench",
        "backrest": "yes",
        "material": "wood",
        "seats": "3"
      }
    },
    {
      "type": "node",
      "id": 12000048464,
      "lat": 12.9499556,
      "lon": 77.5832852,
      "tags": {
        "amenity": "waste_basket",
        "material": "plastic"
      }
    },
    {
      "type": "node",
      "id": 12000049521,
      "lat": 12.9492228,
      "lon": 77.5841598,
      "tags": {
        "amenity": "bench",
        "backrest": "yes",
        "seats": "3"
      }
    },
    {
      "type": "node",
      "id": 12000053550,
      "lat": 12.9485766,
      "lon": 77.5806648,
      "tags": {
        "amenity": "bench",
        "backrest": "yes"
      }
    },
    {
      "type": "node",
      "id": 12000061698,
      "lat": 12.948785,
      "lon": 77.5812241,
      "tags": {
        "amenity": "bench",
        "backrest": "yes",
        "material": "wood",
        "seats": "3"
      }
    },
    {
      "type": "node",
      "id": 12000067105,
      "lat": 12.9486908,
      "lon": 77.5808158,
      "tags": {
        "amenity": "bench",
        "backrest": "yes",
        "material": "wood",
        "seats": "3"
      }
    },
    {
      "type": "node",
      "id": 12000067106,
      "lat": 12.9487856,
      "lon": 77.5809973,
      "tags": {
        "amenity": "bench",
        "backrest": "yes",
        "material": "wood",
        "seats": "2"
      }
    },
    {
      "type": "node",
      "id": 12000067107,
      "lat": 12.9487785,
      "lon": 77.5810786,
      "tags": {
        "amenity": "bench",
        "backrest": "yes",
        "material": "wood",
        "seats": "2"
      }
    },
    {
      "type": "node",
      "id": 12000068522,
      "lat": 12.947666,
      "lon": 77.5846436,
      "tags": {
        "amenity": "bench",
        "backrest": "yes",
        "material": "wood",
        "seats": "4"
      }
    },
    {
      "type": "node",
      "id": 12000068523,
      "lat": 12.9476499,
      "lon": 77.5847152,
      "tags": {
        "amenity": "bench",
        "backrest": "yes",
        "material": "wood",
        "seats": "4"
      }
    },
    {
      "type": "node",
      "id": 12000068525,
      "lat": 12.9477132,
      "lon": 77.5846983,
      "tags": {
        "amenity": "waste_basket",
        "colour": "blue green"
      }
    },
    {
      "type": "node",
      "id": 12000078219,
      "lat": 12.9475934,
      "lon": 77.583714,
      "tags": {
        "amenity": "bench",
        "backrest": "yes",
        "material": "stone",
        "seats": "3"
      }
    },
    {
      "type": "node",
      "id": 12000078220,
      "lat": 12.9475127,
      "lon": 77.5836882,
      "tags": {
        "amenity": "bench",
        "backrest": "yes",
        "material": "wood",
        "seats": "4"
      }
    },
    {
      "type": "node",
      "id": 12000078221,
      "lat": 12.9475055,
      "lon": 77.5837178,
      "tags": {
        "amenity": "bench",
        "backrest": "yes",
        "material": "wood",
        "seats": "4"
      }
    },
    {
      "type": "node",
      "id": 12000078223,
      "lat": 12.9511021,
      "lon": 77.58344,
      "tags": {
        "amenity": "bench",
        "backrest": "yes",
        "colour": "green",
        "material": "concrete",
        "seats": "3"
      }
    },
    {
      "type": "node",
      "id": 12000078227,
      "lat": 12.9486174,
      "lon": 77.5860148,
      "tags": {
        "amenity": "bench",
        "backrest": "yes",
        "material": "wood",
        "seats": "3"
      }
    },
    {
      "type": "node",
      "id": 12000078228,
      "lat": 12.9484836,
      "lon": 77.5859696,
      "tags": {
        "amenity": "bench",
        "backrest": "yes",
        "material": "wood",
        "seats": "3"
      }
    },
    {
      "type": "node",
      "id": 12000079741,
      "lat": 12.9485218,
      "lon": 77.5813824,
      "tags": {
        "amenity": "waste_basket",
        "colour": "green"
      }
    },
    {
      "type": "node",
      "id": 12000080414,
      "lat": 12.9480283,
      "lon": 77.5849067,
      "tags": {
        "amenity": "bench",
        "backrest": "yes",
        "material": "wood",
        "seats": "4"
      }
    },
    {
      "type": "node",
      "id": 12000080415,
      "lat": 12.9480712,
      "lon": 77.584905,
      "tags": {
        "amenity": "bench",
        "backrest": "yes",
        "material": "stone",
        "seats": "3"
      }
    },
    {
      "type": "node",
      "id": 12000080416,
      "lat": 12.948136,
      "lon": 77.5850683,
      "tags": {
        "amenity": "waste_basket"
      }
    },
    {
      "type": "node",
      "id": 12000081609,
      "lat": 12.948523,
      "lon": 77.5814169,
      "tags": {
        "amenity": "bench",
        "backrest": "yes",
        "material": "wood",
        "seats": "2"
      }
    },
    {
      "type": "node",
      "id": 12000081611,
      "lat": 12.9485545,
      "lon": 77.5816222,
      "tags": {
        "amenity": "bench",
        "backrest": "no",
        "material": "stone"
      }
    },
    {
      "type": "node",
      "id": 12000082918,
      "lat": 12.9493494,
      "lon": 77.584222,
      "tags": {
        "amenity": "waste_basket",
        "colour": "green",
        "material": "plastic"
      }
    },
    {
      "type": "node",
      "id": 12000085233,
      "lat": 12.9484807,
      "lon": 77.581678,
      "tags": {
        "amenity": "waste_basket",
        "colour": "green"
      }
    },
    {
      "type": "node",
      "id": 12000085234,
      "lat": 12.9484917,
      "lon": 77.5817179,
      "tags": {
        "amenity": "waste_basket",
        "colour": "blue"
      }
    },
    {
      "type": "node",
      "id": 12000085310,
      "lat": 12.9494656,
      "lon": 77.5826178,
      "tags": {
        "amenity": "waste_basket"
      }
    },
    {
      "type": "node",
      "id": 12000085311,
      "lat": 12.949415,
      "lon": 77.5827961,
      "tags": {
        "amenity": "bench",
        "backrest": "no",
        "seats": "2"
      }
    },
    {
      "type": "node",
      "id": 12000085312,
      "lat": 12.9509026,
      "lon": 77.5833921,
      "tags": {
        "access": "yes",
        "amenity": "drinking_water",
        "fee": "no",
        "wheelchair": "yes"
      }
    },
    {
      "type": "node",
      "id": 12000085313,
      "lat": 12.9509248,
      "lon": 77.5833982,
      "tags": {
        "amenity": "bench",
        "backrest": "yes",
        "colour": "green",
        "material": "concrete",
        "seats": "3"
      }
    },
    {
      "type": "node",
      "id": 12000089575,
      "lat": 12.9483874,
      "lon": 77.5860061,
      "tags": {
        "amenity": "bench",
        "backrest": "yes",
        "material": "wood",
        "seats": "3"
      }
    },
    {
      "type": "node",
      "id": 12000090166,
      "lat": 12.9475017,
      "lon": 77.583829,
      "tags": {
        "amenity": "bench",
        "backrest": "yes",
        "material": "wood",
        "seats": "4"
      }
    },
    {
      "type": "node",
      "id": 12000090167,
      "lat": 12.9475618,
      "lon": 77.5838651,
      "tags": {
        "amenity": "bench",
        "backrest": "yes",
        "material": "wood",
        "seats": "4"
      }
    },
    {
      "type": "node",
      "id": 12000090276,
      "lat": 12.9486722,
      "lon": 77.5826276,
      "tags": {
        "amenity": "waste_basket",
        "colour": "blue",
        "waste": "recycling"
      }
    },
    {
      "type": "node",
      "id": 12000090277,
      "lat": 12.9486733,
      "lon": 77.582625,
      "tags": {
        "amenity": "waste_basket",
        "colour": "green",
        "waste": "organic"
      }
    },
    {
      "type": "node",
      "id": 12000090679,
      "lat": 12.9482159,
      "lon": 77.5859175,
      "tags": {
        "amenity": "bench",
        "backrest": "yes",
        "material": "wood",
        "seats": "3"
      }
    },
    {
      "type": "node",
      "id": 12000090680,
      "lat": 12.9481869,
      "lon": 77.585967,
      "tags": {
        "amenity": "bench",
        "backrest": "yes",
        "material": "wood",
        "seats": "3"
      }
    },
    {
      "type": "node",
      "id": 12000090681,
      "lat": 12.9480986,
      "lon": 77.5858959,
      "tags": {
        "amenity": "bench",
        "backrest": "yes",
        "material": "wood",
        "seats": "3"
      }
    },
    {
      "type": "node",
      "id": 12000090682,
      "lat": 12.9480757,
      "lon": 77.5859462,
      "tags": {
        "amenity": "bench",
        "backrest": "yes",
        "material": "wood",
        "seats": "3"
      }
    },
    {
      "type": "node",
      "id": 12000090683,
      "lat": 12.9480065,
      "lon": 77.5859348,
      "tags": {
        "amenity": "bench",
        "backrest": "yes",
        "material": "wood",
        "seats": "3"
      }
    },
    {
      "type": "node",
      "id": 12000090685,
      "lat": 12.9474557,
      "lon": 77.5855503,
      "tags": {
        "amenity": "bench",
        "backrest": "yes",
        "material": "wood",
        "seats": "3"
      }
    },
    {
      "type": "node",
      "id": 12000090686,
      "lat": 12.9473448,
      "lon": 77.5852251,
      "tags": {
        "amenity": "bench",
        "backrest": "no",
        "material": "wood",
        "seats": "3"
      }
    },
    {
      "type": "node",
      "id": 12000090687,
      "lat": 12.9473069,
      "lon": 77.5848944,
      "tags": {
        "amenity": "bench",
        "backrest": "yes",
        "material": "wood",
        "seats": "3"
      }
    },
    {
      "type": "node",
      "id": 12000091023,
      "lat": 12.9489204,
      "lon": 77.585728,
      "tags": {
        "amenity": "bench",
        "backrest": "yes",
        "material": "wood",
        "seats": "3"
      }
    },
    {
      "type": "node",
      "id": 12000091024,
      "lat": 12.9488577,
      "lon": 77.585667,
      "tags": {
        "amenity": "bench",
        "backrest": "yes",
        "material": "wood",
        "seats": "3"
      }
    },
    {
      "type": "node",
      "id": 12000091025,
      "lat": 12.948786,
      "lon": 77.5857283,
      "tags": {
        "amenity": "bench",
        "backrest": "yes",
        "material": "wood",
        "seats": "3"
      }
    },
    {
      "type": "node",
      "id": 12000091026,
      "lat": 12.9488515,
      "lon": 77.585745,
      "tags": {
        "bench": "yes",
        "leisure": "picnic_table",
        "material": "wood"
      }
    },
    {
      "type": "node",
      "id": 12000091445,
      "lat": 12.9481917,
      "lon": 77.5829135,
      "tags": {
        "amenity": "bench",
        "backrest": "yes",
        "material": "wood",
        "seats": "4"
      }
    },
    {
      "type": "node",
      "id": 12000091447,
      "lat": 12.9479768,
      "lon": 77.5830381,
      "tags": {
        "amenity": "bench",
        "backrest": "yes",
        "material": "stone",
        "seats": "3"
      }
    },
    {
      "type": "node",
      "id": 12000091960,
      "lat": 12.949262,
      "lon": 77.5833652,
      "tags": {
        "amenity": "bench",
        "backrest": "no",
        "seats": "2"
      }
    },
    {
      "type": "node",
      "id": 12000091961,
      "lat": 12.9492295,
      "lon": 77.5835395,
      "tags": {
        "amenity": "bench",
        "backrest": "no",
        "seats": "2"
      }
    },
    {
      "type": "node",
      "id": 12000091962,
      "lat": 12.949233,
      "lon": 77.5835556,
      "tags": {
        "amenity": "waste_basket"
      }
    },
    {
      "type": "node",
      "id": 12000091963,
      "lat": 12.9492055,
      "lon": 77.5836832,
      "tags": {
        "amenity": "bench",
        "backrest": "no",
        "seats": "2"
      }
    },
    {
      "type": "node",
      "id": 12000092276,
      "lat": 12.9476195,
      "lon": 77.5836105,
      "tags": {
        "amenity": "bench",
        "backrest": "yes",
        "material": "stone",
        "seats": "3"
      }
    },
    {
      "type": "node",
      "id": 12000092277,
      "lat": 12.9476021,
      "lon": 77.5836666,
      "tags": {
        "amenity": "bench",
        "backrest": "yes",
        "material": "stone",
        "seats": "3"
      }
    },
    {
      "type": "node",
      "id": 12000093289,
      "lat": 12.9503107,
      "lon": 77.5832383,
      "tags": {
        "amenity": "bench",
        "backrest": "yes",
        "material": "wood",
        "seats": "3"
      }
    },
    {
      "type": "node",
      "id": 12000093290,
      "lat": 12.9499754,
      "lon": 77.5831517,
      "tags": {
        "amenity": "bench",
        "backrest": "yes",
        "material": "concrete",
        "seats": "3"
      }
    },
    {
      "type": "node",
      "id": 12000093490,
      "lat": 12.9477324,
      "lon": 77.5847176,
      "tags": {
        "amenity": "waste_basket",
        "colour": "blue green"
      }
    },
    {
      "type": "node",
      "id": 12000093491,
      "lat": 12.9476864,
      "lon": 77.5847734,
      "tags": {
        "amenity": "bench",
        "backrest": "yes",
        "material": "stone",
        "seats": "3"
      }
    },
    {
      "type": "node",
      "id": 12000093492,
      "lat": 12.9477876,
      "lon": 77.5848177,
      "tags": {
        "amenity": "bench",
        "backrest": "yes",
        "material": "stone",
        "seats": "3"
      }
    },
    {
      "type": "node",
      "id": 12000093494,
      "lat": 12.9478337,
      "lon": 77.5849751,
      "tags": {
        "amenity": "bench",
        "backrest": "yes",
        "material": "wood",
        "seats": "4"
      }
    },
    {
      "type": "node",
      "id": 12000093495,
      "lat": 12.9478436,
      "lon": 77.58498,
      "tags": {
        "amenity": "bench",
        "backrest": "yes",
        "material": "wood",
        "seats": "4"
      }
    },
    {
      "type": "node",
      "id": 12000093776,
      "lat": 12.949167,
      "lon": 77.5829491,
      "tags": {
        "amenity": "waste_basket",
        "colour": "blue",
        "waste": "recycling"
      }
    },
    {
      "type": "node",
      "id": 12000095350,
      "lat": 12.9499232,
      "lon": 77.5831298,
      "tags": {
        "amenity": "waste_basket",
        "colour": "blue",
        "waste": "recycling"
      }
    },
    {
      "type": "node",
      "id": 12000095490,
      "lat": 12.9491717,
      "lon": 77.5840157,
      "tags": {
        "amenity": "waste_basket",
        "colour": "brown"
      }
    },
    {
      "type": "node",
      "id": 12000095491,
      "lat": 12.9491744,
      "lon": 77.5839919,
      "tags": {
        "amenity": "waste_basket",
        "colour": "blue"
      }
    },
    {
      "type": "node",
      "id": 12000095492,
      "lat": 12.949182,
      "lon": 77.5841422,
      "tags": {
        "amenity": "waste_basket",
        "colour": "blue"
      }
    },
    {
      "type": "node",
      "id": 12000095493,
      "lat": 12.9491763,
      "lon": 77.5841304,
      "tags": {
        "amenity": "waste_basket",
        "colour": "green",
        "name:en": "Trashcan"
      }
    },
    {
      "type": "node",
      "id": 12000095495,
      "lat": 12.9493312,
      "lon": 77.5842214,
      "tags": {
        "amenity": "waste_basket",
        "colour": "blue"
      }
    },
    {
      "type": "node",
      "id": 12000095496,
      "lat": 12.9494982,
      "lon": 77.5845087,
      "tags": {
        "amenity": "waste_basket",
        "colour": "brown"
      }
    },
    {
      "type": "node",
      "id": 12000095497,
      "lat": 12.9494406,
      "lon": 77.5845919,
      "tags": {
        "amenity": "bench",
        "lit": "yes"
      }
    },
    {
      "type": "node",
      "id": 12000095498,
      "lat": 12.9494132,
      "lon": 77.5846938,
      "tags": {
        "amenity": "bench",
        "backrest": "yes",
        "material": "stone"
      }
    },
    {
      "type": "node",
      "id": 12000095499,
      "lat": 12.949418,
      "lon": 77.5847239,
      "tags": {
        "amenity": "bench",
        "backrest": "yes",
        "material": "stone"
      }
    },
    {
      "type": "node",
      "id": 12000095500,
      "lat": 12.9494089,
      "lon": 77.5848058,
      "tags": {
        "amenity": "bench",
        "backrest": "yes",
        "material": "stone"
      }
    },
    {
      "type": "node",
      "id": 12000095501,
      "lat": 12.9494216,
      "lon": 77.5848413,
      "tags": {
        "amenity": "waste_basket",
        "colour": "brown"
      }
    },
    {
      "type": "node",
      "id": 12000095993,
      "lat": 12.9491988,
      "lon": 77.5841508,
      "tags": {
        "amenity": "bench",
        "backrest": "yes",
        "seats": "3"
      }
    },
    {
      "type": "node",
      "id": 12000101352,
      "lat": 12.9500151,
      "lon": 77.5832921,
      "tags": {
        "amenity": "bench",
        "backrest": "yes",
        "colour": "green",
        "material": "concrete",
        "seats": "2"
      }
    },
    {
      "type": "node",
      "id": 12000101930,
      "lat": 12.9500749,
      "lon": 77.5828167,
      "tags": {
        "amenity": "bench",
        "backrest": "yes",
        "material": "stone",
        "seats": "3"
      }
    },
    {
      "type": "node",
      "id": 12000101977,
      "lat": 12.9492318,
      "lon": 77.5829608,
      "tags": {
        "amenity": "bench",
        "backrest": "yes",
        "colour": "green",
        "material": "concrete",
        "seats": "3"
      }
    },
    {
      "type": "node",
      "id": 12000101980,
      "lat": 12.9472849,
      "lon": 77.5839237,
      "tags": {
        "amenity": "waste_basket",
        "colour": "green"
      }
    },
    {
      "type": "node",
      "id": 12000101981,
      "lat": 12.9472794,
      "lon": 77.583906,
      "tags": {
        "amenity": "waste_basket",
        "colour": "blue"
      }
    },
    {
      "type": "node",
      "id": 12000103915,
      "lat": 12.9509502,
      "lon": 77.5830348,
      "tags": {
        "amenity": "bench",
        "backrest": "yes",
        "seats": "2"
      }
    },
    {
      "type": "node",
      "id": 12000103916,
      "lat": 12.9510058,
      "lon": 77.5829578,
      "tags": {
        "amenity": "bench",
        "backrest": "yes",
        "material": "stone",
        "seats": "2"
      }
    },