{
  "area_name": "Kaveri Pura",
  "osm_id": 1843665966,
  "osm_type": "node",
  "place_type": "neighbourhood",
  "amenity_count": 142,
  "amenities": [
    {
      "type": "node",
      "id": 1778895940,
      "lat": 12.9760846,
      "lon": 77.5312127,
      "tags": {
        "amenity": "atm",
        "designation": "Karnataka Bank ATM",
        "fee": "no",
        "operator": "Karnataka Bank ATM",
        "source": "Survey"
      }
    },
    {
      "type": "node",
      "id": 1778896354,
      "lat": 12.9732095,
      "lon": 77.5295873,
      "tags": {
        "amenity": "place_of_worship",
        "name": "Prasanna Ganapathi Temple",
        "name:kn": "ಪ್ರಸನ್ನ ಗಣಪತಿ ದೇವಸ್ಥಾನ",
        "religion": "hindu",
        "source": "Survey"
      }
    },
    {
      "type": "node",
      "id": 1778896668,
      "lat": 12.9760637,
      "lon": 77.5315131,
      "tags": {
        "addr:street": "Nagarbhavi Main Road",
        "amenity": "fast_food",
        "name": "Ayodhya Food Line",
        "source": "Survey"
      }
    },
    {
      "type": "node",
      "id": 1778897704,
      "lat": 12.9755854,
      "lon": 77.5313495,
      "tags": {
        "addr:district": "Bengaluru Urban",
        "addr:full": "29 And 30, Nagarbhavi Road, Opp To Prashanthnagar Bus Stop, Vijaynagar",
        "addr:postcode": "560040",
        "addr:state": "Karnataka",
        "amenity": "hospital",
        "emergency": "no",
        "name": "Shobha Hospital, Bengaluru Urban",
        "name:kn": "ಶೋಭಾ ಆಸ್ಪತ್ರೆ",
        "source": "OpenGovernmentData"
      }
    },
    {
      "type": "node",
      "id": 1778898342,
      "lat": 12.9748588,
      "lon": 77.5312369,
      "tags": {
        "amenity": "atm",
        "brand": "ICICI Bank",
        "brand:wikidata": "Q1653258",
        "designation": "ICICI Bank ATM",
        "fee": "no",
        "name": "ICICI Bank",
        "name:kn": "ಐಸಿಐಸಿಐ ಬ್ಯಾಂಕು",
        "operator": "ICICI Bank",
        "operator:wikidata": "Q1653258",
        "short_name": "ICICI",
        "source": "Survey"
      }
    },
    {
      "type": "node",
      "id": 1778898354,
      "lat": 12.9762022,
      "lon": 77.5292815,
      "tags": {
        "amenity": "atm",
        "designation": "HDFC Bank ATM",
        "fee": "no",
        "operator": "HDFC ATM",
        "source": "Survey"
      }
    },
    {
      "type": "node",
      "id": 1778898405,
      "lat": 12.9752194,
      "lon": 77.529075,
      "tags": {
        "amenity": "place_of_worship",
        "name": "Raghavendra Swami Mutt",
        "name:kn": "ರಾಘವೇಂದ್ರ ಸ್ವಾಮಿ ಮಠ",
        "religion": "hindu"
      }
    },
    {
      "type": "node",
      "id": 1778898628,
      "lat": 12.9748535,
      "lon": 77.5289865,
      "tags": {
        "leisure": "playground",
        "name": "Amarjyothi Nagar Park",
        "name:kn": "ಅಮರಜ್ಯೋತಿ ನಗರ ಉದ್ಯಾನವನ"
      }
    },
    {
      "type": "node",
      "id": 1778899718,
      "lat": 12.9727782,
      "lon": 77.5296785,
      "tags": {
        "addr:street": "Nagarbhavi Main Road",
        "amenity": "bank",
        "atm": "no",
        "brand": "Allahabad Bank",
        "brand:wikidata": "Q2018840",
        "brand:wikipedia": "en:Allahabad Bank",
        "name": "Allahabad Bank",
        "name:en": "Allahabad Bank",
        "name:kn": "ಅಲ್ಲಹಾಬಾದ್ ಬ್ಯಾಂಕ್",
        "source": "Survey",
        "website": "https://www.allahabadbank.in"
      }
    },
    {
      "type": "node",
      "id": 1809734261,
      "lat": 12.9761294,
      "lon": 77.5326369,
      "tags": {
        "addr:district": "Bengaluru Urban",
        "addr:full": "No.4, Nagarabhavi Main Road,Prashanth Nagar,Near Shopper City Shop",
        "addr:postcode": "560079",
        "addr:state": "Karnataka",
        "amenity": "hospital",
        "name": "Bharathy Hospital",
        "name:kn": "ಭಾರತಿ ಆಸ್ಪತ್ರೆ",
        "source": "OpenGovernmentData"
      }
    },
    {
      "type": "node",
      "id": 1811327699,
      "lat": 12.9729823,
      "lon": 77.5294961,
      "tags": {
        "addr:street": "Nagarbhavi Main Road",
        "name": "Amarland Departmental",
        "shop": "convenience",
        "source": "Survey"
      }
    },
    {
      "type": "node",
      "id": 1811327746,
      "lat": 12.9728027,
      "lon": 77.5296137,
      "tags": {
        "addr:street": "Nagarbhavi Main Road",
        "name": "Go Green Vegetables",
        "shop": "greengrocer",
        "source": "Survey"
      }
    },
    {
      "type": "node",
      "id": 1813492400,
      "lat": 12.9784006,
      "lon": 77.5311242,
      "tags": {
        "amenity": "place_of_worship",
        "name": "Ganapathi Temple",
        "name:kn": "ಗಣಪತಿ ದೇವಸ್ಥಾನ",
        "religion": "hindu"
      }
    },
    {
      "type": "node",
      "id": 1815059161,
      "lat": 12.9721198,
      "lon": 77.5282623,
      "tags": {
        "amenity": "place_of_worship",
        "name": "Shaneshwara Temple",
        "name:kn": "ಶನೇಶ್ವರ ದೇವಸ್ಥಾನ",
        "religion": "hindu"
      }
    },
    {
      "type": "node",
      "id": 1835486164,
      "lat": 12.9686251,
      "lon": 77.5244618,
      "tags": {
        "name": "Vijaya Bank, Mudalapalya Branch",
        "shop": "convenience"
      }
    },
    {
      "type": "node",
      "id": 1843664896,
      "lat": 12.9761262,
      "lon": 77.5307639,
      "tags": {
        "addr:street": "Pattegarara Palya Main Road",
        "name": "Karanth Vihar",
        "shop": "bakery"
      }
    },
    {
      "type": "node",
      "id": 1843672251,
      "lat": 12.9729139,
      "lon": 77.5285404,
      "tags": {
        "addr:street": "Nagarbhavi Main Road",
        "name": "Hopcoms Mangalore Store",
        "shop": "convenience",
        "source": "Survey"
      }
    },
    {
      "type": "node",
      "id": 1843673711,
      "lat": 12.9760451,
      "lon": 77.5311984,
      "tags": {
        "addr:street": "Nagarbhavi Main Road",
        "amenity": "bank",
        "brand": "Karnataka Bank",
        "brand:wikidata": "Q2042632",
        "name": "Karnataka Bank",
        "name:kn": "ಕರ್ನಾಟಕ ಬ್ಯಾಂಕ್"
      }
    },
    {
      "type": "node",
      "id": 1843673712,
      "lat": 12.975031,
      "lon": 77.5309088,
      "tags": {
        "amenity": "atm",
        "brand": "ICICI Bank",
        "brand:wikidata": "Q1653258",
        "fee": "no",
        "name": "ICICI Bank",
        "name:kn": "ಐಸಿಐಸಿಐ ಬ್ಯಾಂಕು",
        "operator": "ICICI Bank",
        "operator:wikidata": "Q1653258",
        "short_name": "ICICI"
      }
    },
    {
      "type": "node",
      "id": 1843678521,
      "lat": 12.9745579,
      "lon": 77.5327836,
      "tags": {
        "amenity": "atm",
        "brand": "ICICI Bank",
        "brand:wikidata": "Q1653258",
        "fee": "no",
        "name": "ICICI Bank",
        "name:kn": "ಐಸಿಐಸಿಐ ಬ್ಯಾಂಕು",
        "operator": "ICICI Bank",
        "operator:wikidata": "Q1653258",
        "short_name": "ICICI",
        "source": "Survey"
      }
    },
    {
      "type": "node",
      "id": 1843678526,
      "lat": 12.9762412,
      "lon": 77.5287549,
      "tags": {
        "amenity": "atm",
        "brand": "Canara Bank",
        "brand:en": "Canara Bank",
        "brand:hi": "केनरा बैंक",
        "brand:kn": "ಕೆನರಾ ಬ್ಯಾಂಕ್",
        "brand:pa": "ਕੇਨਰਾ ਬੈਂਕ",
        "brand:pnb": "کینرا بینک",
        "brand:ur": "کینرا بینک",
        "brand:wikidata": "Q2003777",
        "fee": "no",
        "name": "Canara Bank",
        "name:en": "Canara Bank",
        "name:hi": "केनरा बैंक",
        "name:kn": "ಕೆನರಾ ಬ್ಯಾಂಕ್",
        "name:pa": "ਕੇਨਰਾ ਬੈਂਕ",
        "name:pnb": "کینرا بینک",
        "name:ur": "کینرا بینک",
        "operator": "Canara Bank",
        "operator:wikidata": "Q2003777"
      }
    },
    {
      "type": "node",
      "id": 1843680399,
      "lat": 12.9762502,
      "lon": 77.5320438,
      "tags": {
        "addr:street": "Nagarbhavi Main Road",
        "name": "Shopper City",
        "shop": "supermarket",
        "source": "Survey"
      }
    },
    {
      "type": "node",
      "id": 1843689211,
      "lat": 12.9747631,
      "lon": 77.5310486,
      "tags": {
        "amenity": "atm",
        "fee": "no",
        "operator": "State Bank of Mysore",
        "source": "Survey"
      }
    },
    {
      "type": "node",
      "id": 1843689212,
      "lat": 12.9746886,
      "lon": 77.5310295,
      "tags": {
        "addr:street": "Nagarbhavi Main Road",
        "amenity": "bank",
        "brand": "State Bank of India",
        "brand:wikidata": "Q1340361",
        "brand:wikipedia": "en:State Bank of India",
        "name": "State Bank of India",
        "name:kn": "ಭಾರತೀಯ ಸ್ಟೇಟ್ ಬ್ಯಾಂಕ್",
        "short_name": "SBI",
        "source": "Survey",
        "website": "https://www.sbi.co.in"
      }
    },
    {
      "type": "node",
      "id": 1843689215,
      "lat": 12.9745396,
      "lon": 77.5307371,
      "tags": {
        "amenity": "atm",
        "brand": "State Bank of India",
        "brand:wikidata": "Q1340361",
        "fee": "no",
        "name": "State Bank of India",
        "operator": "State Bank of India",
        "operator:wikidata": "Q1340361",
        "short_name": "SBI",
        "source": "Survey"
      }
    },
    {
      "type": "node",
      "id": 1897599780,
      "lat": 12.9754858,
      "lon": 77.531294,
      "tags": {
        "amenity": "pharmacy",
        "name": "Shobha Hospital Medical Store"
      }
    },
    {
      "type": "node",
      "id": 1897599781,
      "lat": 12.9729792,
      "lon": 77.5290087,
      "tags": {
        "amenity": "pharmacy",
        "brand": "MedPlus",
        "brand:wikidata": "Q65684234",
        "healthcare": "pharmacy",
        "name": "MedPlus",
        "name:kn": "ಮೆಡ್‍ಪ್ಲಸ್"
      }
    },
    {
      "type": "node",
      "id": 1902534886,
      "lat": 12.9749261,
      "lon": 77.5308639,
      "tags": {
        "addr:city": "Bangalore",
        "addr:housename": "Near Shobha Hospital",
        "addr:postcode": "560040",
        "addr:street": "Nagarabhavi Road",
        "amenity": "fast_food",
        "name": "Canara Juice Center"
      }
    },
    {
      "type": "node",
      "id": 1902542473,
      "lat": 12.9747524,
      "lon": 77.5302655,
      "tags": {
        "addr:housename": "DIVA Boutique",
        "addr:housenumber": "No.6, 5th Cross",
        "addr:postcode": "560040",
        "addr:street": "Amarjyothi Nagar",
        "designation": "DIVA Boutique",
        "name": "DIVA Boutique",
        "shop": "clothes"
      }
    },
    {
      "type": "node",
      "id": 1902558593,
      "lat": 12.9775284,
      "lon": 77.5175141,
      "tags": {
        "addr:housename": "DIVA Boutique",
        "addr:housenumber": "No. 96",
        "addr:postcode": "5600091",
        "addr:street": "9th Cross, Malagala, Pattegara Palya Main Road",
        "shop": "clothes"
      }
    },
    {
      "type": "node",
      "id": 2279531470,
      "lat": 12.9855941,
      "lon": 77.5252604,
      "tags": {
        "amenity": "fuel",
        "name": "IBP petrol pump"
      }
    },
    {
      "type": "node",
      "id": 2279531857,
      "lat": 12.9850923,
      "lon": 77.5232649,
      "tags": {
        "amenity": "fuel",
        "brand": "Indane Oil",
        "name": "Indo Petrol / Gas Station",
        "operator": "Indane Oil"
      }
    },
    {
      "type": "node",
      "id": 2480869556,
      "lat": 12.9736839,
      "lon": 77.5304612,
      "tags": {
        "addr:city": "Bangalore",
        "addr:housename": "Amarjyothi nagar",
        "addr:postcode": "560040",
        "addr:street": "Nagarabhavi Road",
        "amenity": "bar",
        "name": "New Priya Bar & Restaurant"
      }
    },
    {
      "type": "node",
      "id": 2480869566,
      "lat": 12.9751503,
      "lon": 77.5309191,
      "tags": {
        "addr:city": "Bangalore",
        "addr:housename": "Opp Shobha Hospital, Vijayanagar",
        "addr:postcode": "560040",
        "addr:street": "Nagarabhavi Road",
        "name": "Liberty Footwear",
        "shop": "shoes",
        "website": "https://www.libertyshoes.com/index.aspx"
      }
    },
    {
      "type": "node",
      "id": 2480869567,
      "lat": 12.9726369,
      "lon": 77.5278728,
      "tags": {
        "addr:city": "Bangalore",
        "addr:housename": "Cauvery layout, Vijayanagar",
        "addr:housenumber": "65",
        "addr:postcode": "560079",
        "addr:street": "2nd Cross",
        "name": "Techno Products",
        "note": "Dealers in Silica Gel based products",
        "phone": "+91 80 2338 1707",
        "shop": "hardware"
      }
    },
    {
      "type": "node",
      "id": 2480870842,
      "lat": 12.9746645,
      "lon": 77.5324339,
      "tags": {
        "addr:city": "Bangalore",
        "addr:housename": "Near Priyadarshini School, Vijayanagar",
        "addr:postcode": "560040",
        "addr:street": "Vijayanagar Water Tank Road",
        "name": "Mylara Home Appliances",
        "shop": "electronics"
      }
    },
    {
      "type": "node",
      "id": 2480870848,
      "lat": 12.9744193,
      "lon": 77.5336479,
      "tags": {
        "addr:city": "Bangalore",
        "addr:postcode": "560040",
        "addr:street": "Vijayanagar Water Tank Road",
        "amenity": "hospital",
        "emergency": "no",
        "name": "Happy Tooth"
      }
    },
    {
      "type": "node",
      "id": 2480884727,
      "lat": 12.9719476,
      "lon": 77.5320111,
      "tags": {
        "addr:city": "Bangalore",
        "addr:housename": "Vijayanagar",
        "addr:postcode": "560040",
        "addr:street": "2nd cross",
        "name": "Divashree General Stores",
        "shop": "department_store"
      }
    },
    {
      "type": "node",
      "id": 2480884728,
      "lat": 12.972547,
      "lon": 77.529541,
      "tags": {
        "addr:city": "Bangalore",
        "addr:housename": "Opp Sarasvati nagar Bus Stop",
        "addr:postcode": "560040",
        "addr:street": "3rd Main Saraswathi nagar",
        "brand": "HOPCOMS",
        "brand:wikidata": "Q22908959",
        "name": "HOPCOMS Vegetables Store",
        "name:kn": "ಹಾಪ್‌ಕಾಮ್ಸ್",
        "shop": "greengrocer"
      }
    },
    {
      "type": "node",
      "id": 2480884731,
      "lat": 12.9720271,
      "lon": 77.5283808,
      "tags": {
        "amenity": "atm",
        "brand": "HDFC Bank",
        "brand:wikidata": "Q631047",
        "name": "HDFC Bank",
        "name:kn": "ಎಚ್. ಡಿ. ಎಫ್. ಸಿ..",
        "operator": "HDFC Bank",
        "operator:wikidata": "Q631047",
        "short_name": "HDFC"
      }
    },
    {
      "type": "node",
      "id": 2480884735,
      "lat": 12.9751013,
      "lon": 77.5311252,
      "tags": {
        "addr:city": "Bangalore",
        "addr:housename": "Next to Shobha Hospital, Vijayanagar",
        "addr:postcode": "560040",
        "addr:street": "Nagarabhavi Road",
        "amenity": "school",
        "name": "Pinewood High School"
      }
    },
    {
      "type": "node",
      "id": 2480884740,
      "lat": 12.9753608,
      "lon": 77.5313481,
      "tags": {
        "addr:city": "Bangalore",
        "addr:housename": "Next to Shobhs Hospital, Vijayanagar",
        "addr:postcode": "560040",
        "addr:street": "Nagarabhavi Road",
        "amenity": "college",
        "name": "ASC Study Center"
      }
    },
    {
      "type": "node",
      "id": 2480884757,
      "lat": 12.9761551,
      "lon": 77.5305492,
      "tags": {
        "addr:city": "Bangalore",
        "addr:housename": "Near Shobha Hospital, Vijayangar",
        "addr:postcode": "560079",
        "addr:street": "60 Feet Road, Pattegarara Palya Main Road",
        "amenity": "college",
        "name": "ASC Degree College"
      }
    },
    {
      "type": "node",
      "id": 2480884762,
      "lat": 12.9754931,
      "lon": 77.5324927,
      "tags": {
        "addr:city": "Bangalore",
        "addr:housename": "Vijayanagar",
        "addr:postcode": "560040",
        "addr:street": "11th Cross",
        "amenity": "school",
        "name": "Cordial High School"
      }
    },
    {
      "type": "node",
      "id": 2480884768,
      "lat": 12.9744756,
      "lon": 77.5334818,
      "tags": {
        "addr:city": "Bangalore",
        "addr:housename": "Vijayanagar",
        "addr:postcode": "560040",
        "addr:street": "Vijayanagar Water Tank Road",
        "name": "Piggy Wiggy",
        "shop": "toys"
      }
    },
    {
      "type": "node",
      "id": 2480884777,
      "lat": 12.9745812,
      "lon": 77.532699,
      "tags": {
        "addr:city": "Bangalore",
        "addr:housename": "Vijayanagar",
        "addr:postcode": "560040",
        "addr:street": "Vijayanagar Water Tank Road",
        "amenity": "hospital",
        "name": "Rishi Women and Child Clinic"
      }
    },
    {
      "type": "node",
      "id": 2480884783,
      "lat": 12.974626,
      "lon": 77.5326702,
      "tags": {
        "addr:city": "Bangalore",
        "addr:housename": "Vijayanagar",
        "addr:postcode": "560040",
        "addr:street": "Vijayanagar Water Tank Road",
        "amenity": "pharmacy",
        "name": "Rishi Medicals"
      }
    },
    {
      "type": "node",
      "id": 2480884792,
      "lat": 12.9744507,
      "lon": 77.5335676,
      "tags": {
        "addr:city": "Bangalore",
        "addr:housename": "Vijayanagar",
        "addr:postcode": "560040",
        "addr:street": "Vijayanagar Water Tank Road",
        "name": "Kiran Traders",
        "shop": "department_store"
      }
    },
    {
      "type": "node",
      "id": 2483779674,
      "lat": 12.9730072,
      "lon": 77.5293951,
      "tags": {
        "addr:city": "Bangalore",
        "addr:housename": "Near Prasanna Ganapathi Temple, Amarjyothi Nagar",
        "addr:postcode": "560040",
        "addr:street": "Nagarabhavi Road",
        "amenity": "dentist",
        "name": "Sanjeevani Dental Clinic"
      }
    },
    {
      "type": "node",
      "id": 2483783781,
      "lat": 12.9751453,
      "lon": 77.5309427,
      "tags": {
        "addr:city": "Bangalore",
        "addr:housename": "Near Canara Juice center, Vijayanagar",
        "addr:postcode": "560040",
        "addr:street": "Nagarabhavi Road",
        "name": "Miracle Touch Beauty Parlour",
        "shop": "beauty"
      }
    },
    {
      "type": "node",
      "id": 2509173743,
      "lat": 12.970694,
      "lon": 77.5254335,
      "tags": {
        "addr:city": "Bangalore",
        "addr:housename": "Kaveri Layout, Vijayanagar",
        "addr:street": "Nagarabhavi Road",
        "name": "Dear N Near Furniture Store",
        "shop": "furniture"
      }
    },
    {
      "type": "node",
      "id": 2509173753,
      "lat": 12.9705894,
      "lon": 77.5259136,
      "tags": {
        "addr:city": "Bangalore",
        "addr:housename": "Kaveri Layout",
        "addr:street": "Nagarabhavi Road",
        "name": "Kurlon Matress Express",
        "shop": "furniture"
      }
    },
    {
      "type": "node",
      "id": 2509173759,
      "lat": 12.9702784,
      "lon": 77.5246208,
      "tags": {
        "addr:city": "Bangalore",
        "addr:housename": "Moodapalya Circle",
        "addr:street": "Nagarabhavi Road",
        "amenity": "fuel",
        "building": "yes",
        "name": "Omkar Refill Station",
        "operator": "Bharat Petroluem"
      }
    },
    {
      "type": "node",
      "id": 2509173769,
      "lat": 12.9704143,
      "lon": 77.5249373,
      "tags": {
        "addr:city": "Bangalore",
        "addr:housename": "Moodapalya Circle",
        "addr:street": "Nagarabhavi Road",
        "amenity": "fast_food",
        "cuisine": "regional",
        "name": "Shri Guru Upahara"
      }
    },
    {
      "type": "node",
      "id": 2509173775,
      "lat": 12.9704823,
      "lon": 77.5247496,
      "tags": {
        "addr:city": "Bangalore",
        "addr:housename": "Moodapalya Circle",
        "addr:street": "Nagarabhavi Road",
        "name": "Yashhas Electronics",
        "shop": "electronics"
      }
    },
    {
      "type": "node",
      "id": 2509175424,
      "lat": 12.9708639,
      "lon": 77.5265708,
      "tags": {
        "addr:city": "Bangalore",
        "addr:housename": "Kaveri Layout",
        "addr:street": "Nagarabhavi Road",
        "amenity": "place_of_worship",
        "name": "Shaneshwara Temple",
        "name:kn": "ಶನೇಶ್ವರ ದೇವಸ್ಥಾನ",
        "religion": "hindu"
      }
    },
    {
      "type": "node",
      "id": 2509175425,
      "lat": 12.9708325,
      "lon": 77.5267854,
      "tags": {
        "amenity": "atm",
        "brand": "HDFC Bank",
        "brand:wikidata": "Q631047",
        "name": "HDFC Bank",
        "name:kn": "ಎಚ್ ಡಿ ಎಫ್ ಸಿ",
        "operator": "HDFC Bank",
        "operator:wikidata": "Q631047",
        "short_name": "HDFC"
      }
    },
    {
      "type": "node",
      "id": 3823691057,
      "lat": 12.9775705,
      "lon": 77.5312574,
      "tags": {
        "addr:city": "Bangalore",
        "addr:postcode": "560079",
        "amenity": "studio",
        "level": "1",
        "name": "Sathvick Infotech Private Limited",
        "studio": "video"
      }
    },
    {
      "type": "node",
      "id": 3861909159,
      "lat": 12.9746432,
      "lon": 77.5325331,
      "tags": {
        "addr:street": "Vijayanagar Water Tank Road",
        "name": "Aspen Chinese Beauty Parlour",
        "shop": "beauty"
      }
    },
    {
      "type": "node",
      "id": 3861909160,
      "lat": 12.9744657,
      "lon": 77.533511,
      "tags": {
        "addr:street": "Vijayanagar Water Tank Road",
        "name": "Viseage",
        "shop": "medical_supply"
      }
    },
    {
      "type": "node",
      "id": 3861909164,
      "lat": 12.9739047,
      "lon": 77.5305291,
      "tags": {
        "addr:city": "Bangalore",
        "addr:postcode": "560040",
        "addr:street": "Nagarabhavi Road",
        "amenity": "pharmacy",
        "name": "Megha Medicals and General Stores"
      }
    },
    {
      "type": "node",
      "id": 3861909165,
      "lat": 12.9740084,
      "lon": 77.5303688,
      "tags": {
        "addr:city": "Bangalore",
        "addr:postcode": "560040",
        "addr:street": "Nagarabhavi Road",
        "name": "Nandini Milk Parlour",
        "name:kn": "ನಂದಿನಿ ಹಾಲಿನ ಅಂಗಡಿ",
        "shop": "dairy"
      }
    },
    {
      "type": "node",
      "id": 3861909167,
      "lat": 12.9745339,
      "lon": 77.5309153,
      "tags": {
        "addr:postcode": "560040",
        "addr:street": "Nagarabhavi Road",
        "amenity": "fast_food",
        "cuisine": "regional",
        "name": "Chaitanya Uphara"
      }
    },
    {
      "type": "node",
      "id": 3861909168,
      "lat": 12.9727202,
      "lon": 77.5294725,
      "tags": {
        "addr:city": "Bangalore",
        "addr:postcode": "560040",
        "addr:street": "3rd Main Saraswathi nagar",
        "name": "Iyengar Bakery",
        "name:kn": "ಐಯ್ಯಂಗಾರ್ ಬೇಕರಿ",
        "shop": "bakery"
      }
    },
    {
      "type": "node",
      "id": 3861909169,
      "lat": 12.9724688,
      "lon": 77.5295366,
      "tags": {
        "addr:city": "Bangalore",
        "addr:postcode": "560040",
        "addr:street": "3rd Main Saraswathi nagar",
        "amenity": "pharmacy",
        "name": "Saraswati Medicals"
      }
    },
    {
      "type": "node",
      "id": 3861909170,
      "lat": 12.9728708,
      "lon": 77.529675,
      "tags": {
        "addr:city": "Bangalore",
        "addr:postcode": "560040",
        "addr:street": "Nagarabhavi Road",
        "leisure": "sports_centre",
        "name": "Oxyfit Gym",
        "sport": "gym"
      }
    },
    {
      "type": "node",
      "id": 3861909814,
      "lat": 12.9760478,
      "lon": 77.5319661,
      "tags": {
        "addr:city": "Bangalore",
        "addr:postcode": "560040",
        "addr:street": "Nagarabhavi Road",
        "name": "Star Bazar",
        "shop": "supermarket"
      }
    },
    {
      "type": "node",
      "id": 3861909815,
      "lat": 12.9760251,
      "lon": 77.5330067,
      "tags": {
        "addr:city": "Bangalore",
        "addr:postcode": "560040",
        "addr:street": "Nagarabhavi Road",
        "amenity": "fast_food",
        "cuisine": "regional",
        "name": "Five Star Chicken"
      }
    },
    {
      "type": "node",
      "id": 3861909816,
      "lat": 12.9759953,
      "lon": 77.5332486,
      "tags": {
        "addr:city": "Bangalore",
        "addr:postcode": "560040",
        "addr:street": "Nagarabhavi Road",
        "amenity": "pharmacy",
        "brand": "MedPlus",
        "brand:wikidata": "Q65684234",
        "healthcare": "pharmacy",
        "name": "MedPlus",
        "name:kn": "ಮೆಡ್‍ಪ್ಲಸ್"
      }
    },
    {
      "type": "node",
      "id": 4446517434,
      "lat": 12.9757428,
      "lon": 77.5335935,
      "tags": {
        "addr:city": "Bangalore",
        "addr:housenumber": "4",
        "addr:postcode": "560040",
        "addr:street": "Prashanth Nagar Main Road,Vijay Nagar,",
        "amenity": "restaurant",
        "cuisine": "regional",
        "name": "Spoorthy dosa point",
        "opening_hours": "07:30-12:00,16:00-23:00",
        "phone": "+91 9632143413"
      }
    },
    {
      "type": "node",
      "id": 4447076314,
      "lat": 12.968821,
      "lon": 77.5246297,
      "tags": {
        "addr:city": "Bangalore",
        "addr:district": "Bengaluru Urban",
        "addr:full": "189, Shiva Complex, Shivananda Nagar, Near Vijay Bank, Moodalapalya",
        "addr:postcode": "560040",
        "addr:state": "Karnataka",
        "addr:street": "Nagarabhavi Road",
        "amenity": "hospital",
        "name": "Manasa Hospital",
        "name:kn": "ಮಾನಸ ಆಸ್ಪತ್ರೆ",
        "phone": "+918023104640",
        "source": "OpenGovernmentData",
        "website": "http://www.manasa.in/"
      }
    },
    {
      "type": "node",
      "id": 4490309089,
      "lat": 12.9774951,
      "lon": 77.5309619,
      "tags": {
        "addr:city": "Bangalore",
        "addr:housenumber": "No.1",
        "addr:postcode": "560040",
        "addr:street": "Amarjyothi Nagar,6th Cross, Vijayanagar",
        "name": "Miracle Touch",
        "opening_hours": "10:00-19:00",
        "phone": "91)-80-33722582",
        "shop": "beauty"
      }
    },
    {
      "type": "node",
      "id": 4490340281,
      "lat": 12.9841382,
      "lon": 77.5289161,
      "tags": {
        "addr:city": "Bangalore",
        "addr:postcode": "560064",
        "addr:street": "Allasandra main road , Yelahanka,Near janapriya havernce",
        "name": "R R Provision Store",
        "phone": "(91)-8453897174",
        "shop": "supermarket"
      }
    },
    {
      "type": "node",
      "id": 4518518892,
      "lat": 12.982076,
      "lon": 77.5313241,
      "tags": {
        "addr:street": "Magadi Road",
        "amenity": "bank",
        "brand": "State Bank of India",
        "brand:wikidata": "Q1340361",
        "brand:wikipedia": "en:State Bank of India",
        "name": "State Bank of India",
        "name:en": "State bank of India",
        "name:kn": "ಭಾರತೀಯ ಸ್ಟೇಟ್ ಬ್ಯಾಂಕ್",
        "short_name": "SBI"
      }
    },
    {
      "type": "node",
      "id": 4558046689,
      "lat": 12.9842792,
      "lon": 77.5282764,
      "tags": {
        "amenity": "atm",
        "operator": "Axis Bank"
      }
    },
    {
      "type": "node",
      "id": 5235970321,
      "lat": 12.9708897,
      "lon": 77.5229331,
      "tags": {
        "addr:housenumber": "#9",
        "addr:postcode": "560072",
        "addr:street": "tent road",
        "email": "koolkraftbags@gmail.com",
        "name": "K. K Bag's",
        "name:en": "Kk bags all types of bags repairs and sale",
        "name:hi": "Kk bags all types of bags repairs and sale",
        "opening_hours": "Sa-Th 11:00-21:30; Fr 04:00-21:30",
        "phone": "9845118351",
        "shop": "variety_store",
        "website": "http://www.facebook.com/kkbags"
      }
    },
    {
      "type": "node",
      "id": 6905172504,
      "lat": 12.9683462,
      "lon": 77.5270066,
      "tags": {
        "leisure": "fitness_centre",
        "name": "Santhosh Gym",
        "sport": "gymnastics"
      }
    },
    {
      "type": "node",
      "id": 6938540502,
      "lat": 12.9829857,
      "lon": 77.5309655,
      "tags": {
        "addr:district": "Bengaluru Urban",
        "addr:full": "No. 2/3, 5Th Main Shiva Complex, Kamakshipalya, Nagadimain Road , Opp Vishal Theatre",
        "addr:postcode": "560043",
        "addr:state": "Karnataka",
        "amenity": "hospital",
        "name": "Shreyas Hospital, Bengaluru Urban",
        "source": "OpenGovernmentData"
      }
    },
    {
      "type": "node",
      "id": 6947716888,
      "lat": 12.9761802,
      "lon": 77.5261763,
      "tags": {
        "addr:district": "Bengaluru Urban",
        "addr:full": "No. 8, 60Ft. Road, Pattegara Palya, Vijayanagar",
        "addr:postcode": "560079",
        "addr:state": "Karnataka",
        "amenity": "hospital",
        "name": "Sandhyashree Hospital",
        "name:kn": "ಸಂಧ್ಯಾಶ್ರೀ ಆಸ್ಪತ್ರೆ",
        "source": "OpenGovernmentData"
      }
    },
    {
      "type": "node",
      "id": 7112491585,
      "lat": 12.9728026,
      "lon": 77.5284941,
      "tags": {
        "amenity": "restaurant",
        "name": "Mangalore Kabab Korner"
      }
    },
    {
      "type": "node",
      "id": 7112539085,
      "lat": 12.9761897,
      "lon": 77.5331156,
      "tags": {
        "amenity": "restaurant",
        "name": "Samudra"
      }
    },
    {
      "type": "node",
      "id": 7112539185,
      "lat": 12.9758225,
      "lon": 77.5331488,
      "tags": {
        "amenity": "ice_cream",
        "name": "Pooja Ice creams"
      }
    },
    {
      "type": "node",
      "id": 7146671685,
      "lat": 12.9726701,
      "lon": 77.5284772,
      "tags": {
        "amenity": "veterinary",
        "name": "Sunil Pet Clinic"
      }
    },
    {
      "type": "node",
      "id": 7211891285,
      "lat": 12.9759377,
      "lon": 77.5314973,
      "tags": {
        "amenity": "pharmacy",
        "name": "Khushal Medicals"
      }
    },
    {
      "type": "node",
      "id": 7255733101,
      "lat": 12.9681697,
      "lon": 77.5269225,
      "tags": {
        "name": "Sandhoz",
        "shop": "pet"
      }
    },
    {
      "type": "node",
      "id": 7258115785,
      "lat": 12.9706278,
      "lon": 77.5258392,
      "tags": {
        "amenity": "bank",
        "name": "Janatha Seva Cooperative Bank Limited"
      }
    },
    {
      "type": "node",
      "id": 7572491984,
      "lat": 12.972363,
      "lon": 77.525125,
      "tags": {
        "addr:district": "Bengaluru Urban",
        "addr:full": "Govindaraja Nagar Ward, Mudalapalya, Vijayanagar, Bengaluru",
        "addr:postcode": "560040",
        "addr:state": "Karnataka",
        "amenity": "clinic",
        "name": "Shifa Health Care Clinic",
        "source": "Local Knowledge"
      }
    },
    {
      "type": "node",
      "id": 7572526691,
      "lat": 12.9764141,
      "lon": 77.5302028,
      "tags": {
        "addr:district": "Bengaluru Urban",
        "addr:full": "Govindaraja Nagar Ward, Govindarajanagar, Vijayanagar, Bengaluru",
        "addr:postcode": "560079",
        "addr:state": "Karnataka",
        "amenity": "clinic",
        "name": "Nidevs Child Care",
        "source": "Local Knowledge"
      }
    },
    {
      "type": "node",
      "id": 7572526693,
      "lat": 12.9835824,
      "lon": 77.5289448,
      "tags": {
        "addr:district": "Bengaluru Urban",
        "addr:full": "Govindaraja Nagar Ward, Priyadarshini Layout, Kamakshipalya, Bengaluru",
        "addr:postcode": "560079",
        "addr:state": "Karnataka",
        "amenity": "hospital",
        "name": "Benaka Hospital",
        "source": "Local Knowledge"
      }
    },
    {
      "type": "node",
      "id": 7572526696,
      "lat": 12.971816,
      "lon": 77.53183,
      "tags": {
        "addr:district": "Bengaluru Urban",
        "addr:full": "KGS Layout, Govindaraja Nagar Ward, Saraswathi Nagar, Vijayanagar, Bengaluru",
        "addr:postcode": "560040",
        "addr:state": "Karnataka",
        "amenity": "clinic",
        "name": "Archana Clinic",
        "source": "Local Knowledge"
      }
    },
    {
      "type": "node",
      "id": 7572526698,
      "lat": 12.9744928,
      "lon": 77.5342045,
      "tags": {
        "addr:district": "Bengaluru Urban",
        "addr:full": "Stage 2, Vijayanagar, Bengaluru",
        "addr:postcode": "560040",
        "addr:state": "Karnataka",
        "amenity": "hospital",
        "name": "Goverment Hospital, Hosahalli",
        "source": "Local Knowledge"
      }
    },
    {
      "type": "node",
      "id": 7572526703,
      "lat": 12.9780731,
      "lon": 77.5251934,
      "tags": {
        "addr:district": "Bengaluru Urban",
        "addr:full": "Govindaraja Nagar Ward, Pattegarhpalya, Vijayanagar, Bengaluru",
        "addr:postcode": "560079",
        "addr:state": "Karnataka",
        "amenity": "hospital",
        "name": "Government Hospital",
        "name:kn": "ಸರ್ಕಾರಿ ಆಸ್ಪತ್ರೆ",
        "source": "Local Knowledge"
      }
    },
    {
      "type": "node",
      "id": 7572526707,
      "lat": 12.970893,
      "lon": 77.5251332,
      "tags": {
        "addr:district": "Bengaluru Urban",
        "addr:full": "Huchappa Layout, Govindaraja Nagar Ward, Anubhav Nagar, Vijayanagar, Bengaluru",
        "addr:postcode": "560040",
        "addr:state": "Karnataka",
        "amenity": "clinic",
        "name": "Asha ENT Clinic",
        "source": "Local Knowledge"
      }
    },
    {
      "type": "node",
      "id": 7572526738,
      "lat": 12.97004,
      "lon": 77.524811,
      "tags": {
        "addr:district": "Bengaluru Urban",
        "addr:full": "Huchappa Layout, Govindaraja Nagar Ward, Madhura Nagar, Vijayanagar, Bengaluru",
        "addr:postcode": "560040",
        "addr:state": "Karnataka",
        "amenity": "clinic",
        "name": "Prashanthi Ayurvedic Centre",
        "source": "Local Knowledge"
      }
    },
    {
      "type": "node",
      "id": 7572526756,
      "lat": 12.968292,
      "lon": 77.524492,
      "tags": {
        "addr:district": "Bengaluru Urban",
        "addr:full": "Nagarabavi Main Road, Mudalapalya, Vijayanagar, Bengaluru",
        "addr:postcode": "560072",
        "addr:state": "Karnataka",
        "amenity": "hospital",
        "name": "Jagjeevanram Hospital",
        "source": "Local Knowledge"
      }
    },
    {
      "type": "node",
      "id": 7572526766,
      "lat": 12.9745497,
      "lon": 77.5208943,
      "tags": {
        "addr:district": "Bengaluru Urban",
        "addr:full": "Govindaraja Nagar Ward, Panchasheel Nagar, Vijayanagar, Bengaluru",
        "addr:postcode": "560072",
        "addr:state": "Karnataka",
        "amenity": "hospital",
        "name": "Panchsheela Nagar Hospital",
        "source": "Local Knowledge"
      }
    },
    {
      "type": "node",
      "id": 7572526769,
      "lat": 12.9715355,
      "lon": 77.524968,
      "tags": {
        "addr:district": "Bengaluru Urban",
        "addr:full": "Huchappa Layout, Govindaraja Nagar Ward, Mudalapalya, Vijayanagar, Bengaluru",
        "addr:postcode": "560072",
        "addr:state": "Karnataka",
        "amenity": "clinic",
        "name": "Guru Shree Polyclinic",
        "source": "Local Knowledge"
      }
    },
    {
      "type": "node",
      "id": 7572526779,
      "lat": 12.9745582,
      "lon": 77.5326276,
      "tags": {
        "addr:district": "Bengaluru Urban",
        "addr:full": "Central Excise Layout, CHBS Layout, Vijayanagar, Bengaluru",
        "addr:postcode": "560040",
        "addr:state": "Karnataka",
        "amenity": "dentist",
        "name": "Apple Dental Clinic",
        "source": "Local Knowledge"
      }
    },
    {
      "type": "node",
      "id": 7572526792,
      "lat": 12.976379,
      "lon": 77.524439,
      "tags": {
        "addr:district": "Bengaluru Urban",
        "addr:full": "Srinivasnagar, Amarajyothi Nagar, Vijayanagar, Bengaluru",
        "addr:postcode": "560072",
        "addr:state": "Karnataka",
        "amenity": "hospital",
        "name": "Sumati Hospital",
        "source": "Local Knowledge"
      }
    },
    {
      "type": "node",
      "id": 7572526795,
      "lat": 12.9766618,
      "lon": 77.5246346,
      "tags": {
        "addr:district": "Bengaluru Urban",
        "addr:full": "Patteghar Palya Main Road, Govindaraja Nagar Ward, Pattegarhpalya, Vijayanagar, Bengaluru",
        "addr:postcode": "560079",
        "addr:state": "Karnataka",
        "amenity": "clinic",
        "name": "Ranganatha Clinic",
        "source": "Local Knowledge"
      }
    },
    {
      "type": "node",
      "id": 7572526796,
      "lat": 12.9706942,
      "lon": 77.5264675,
      "tags": {
        "addr:district": "Bengaluru Urban",
        "addr:full": "Huchappa Layout, Govindaraja Nagar Ward, Vijayanagar, Bengaluru",
        "addr:postcode": "560072",
        "addr:state": "Karnataka",
        "amenity": "clinic",
        "name": "Alpha Ortho Clinic",
        "source": "Local Knowledge"
      }
    },
    {
      "type": "node",
      "id": 7572526808,
      "lat": 12.9761399,
      "lon": 77.5298958,
      "tags": {
        "addr:district": "Bengaluru Urban",
        "addr:full": "Ramya Plaza, Govindaraja Nagar Ward, Amarajyothi Nagar, Vijayanagar, Bengaluru",
        "addr:postcode": "560040",
        "addr:state": "Karnataka",
        "amenity": "clinic",
        "name": "N N Homeo clinic",
        "source": "Local Knowledge"
      }
    },
    {
      "type": "node",
      "id": 8127770360,
      "lat": 12.9683292,
      "lon": 77.5272267,
      "tags": {
        "amenity": "vending_machine",
        "check_date": "2023-10-01",
        "name": "Water ATM",
        "operator": "BBMP",
        "vending": "water"
      }
    },
    {
      "type": "node",
      "id": 9690178391,
      "lat": 12.9706594,
      "lon": 77.5256373,
      "tags": {
        "amenity": "fuel",
        "brand": "Nayara",
        "brand:wikidata": "Q5399377",
        "name": "Nayara",
        "operator": "Nayara"
      }
    },
    {
      "type": "node",
      "id": 9775574200,
      "lat": 12.9827335,
      "lon": 77.5189304,
      "tags": {
        "amenity": "bench"
      }
    },
    {
      "type": "node",
      "id": 9775574219,
      "lat": 12.9826171,
      "lon": 77.5189331,
      "tags": {
        "amenity": "fountain"
      }
    },
    {
      "type": "node",
      "id": 11278749493,
      "lat": 12.9794977,
      "lon": 77.5167002,
      "tags": {
        "amenity": "fast_food",
        "cuisine": "regional",
        "name": "Indira Canteen",
        "operator": "BBMP"
      }
    },
    {
      "type": "node",
      "id": 11388846369,
      "lat": 12.9819185,
      "lon": 77.5323018,
      "tags": {
        "addr:housenumber": "16/1",
        "addr:postcode": "560079",
        "addr:street": "Magadi Road",
        "name": "Anant Bajaj",
        "opening_hours": "Mo-Sa 09:00-20:00; Su 09:00-18:00",
        "shop": "motorcycle",
        "website": "https://www.bajajauto.com/"
      }
    },
    {
      "type": "node",
      "id": 12429052944,
      "lat": 12.9735908,
      "lon": 77.5340554,
      "tags": {
        "amenity": "shelter",
        "shelter_type": "gazebo"
      }
    },
    {
      "type": "way",
      "id": 138449004,
      "center": {
        "lat": 12.9782911,
        "lon": 77.5278275
      },
      "tags": {
        "leisure": "park",
        "name": "Balalayanna Kere Park",
        "name:kn": "ಬಾಳಯ್ಯನ ಕೆರೆ ಉದ್ಯಾನ"
      }
    },
    {
      "type": "way",
      "id": 169718925,
      "center": {
        "lat": 12.9802501,
        "lon": 77.5310515
      },
      "tags": {
        "amenity": "place_of_worship",
        "name": "Sai Baba Mandir",
        "name:kn": "ಸಾಯಿಬಾಬಾ ಮಂದಿರ"
      }
    },
    {
      "type": "way",
      "id": 169718941,
      "center": {
        "lat": 12.9771539,
        "lon": 77.5301802
      },
      "tags": {
        "leisure": "park"
      }
    },
    {
      "type": "way",
      "id": 169718954,
      "center": {
        "lat": 12.9781827,
        "lon": 77.5307531
      },
      "tags": {
        "leisure": "park"
      }
    },
    {
      "type": "way",
      "id": 169718956,
      "center": {
        "lat": 12.9784056,
        "lon": 77.5310575
      },
      "tags": {
        "addr:city": "Bengaluru",
        "addr:postcode": "560079",
        "addr:street": "8th Cross,Near 2nd Main, 3rd Main Rd, Prashant Nagar, Vijayanagar",
        "amenity": "place_of_worship",
        "building": "yes",
        "name": "Shri Prashantha Ganapathi Temple",
        "religion": "hindu"
      }
    },
    {
      "type": "way",
      "id": 169718958,
      "center": {
        "lat": 12.9725584,
        "lon": 77.5298576
      },
      "tags": {
        "leisure": "park"
      }
    },
    {
      "type": "way",
      "id": 169798850,
      "center": {
        "lat": 12.9738654,
        "lon": 77.5341928
      },
      "tags": {
        "leisure": "park"
      }
    },
    {
      "type": "way",
      "id": 169798851,
      "center": {
        "lat": 12.9728991,
        "lon": 77.5339091
      },
      "tags": {
        "leisure": "park"
      }
    },
    {
      "type": "way",
      "id": 173576166,
      "center": {
        "lat": 12.9747605,
        "lon": 77.5290558
      },
      "tags": {
        "leisure": "park"
      }
    },
    {
      "type": "way",
      "id": 173577473,
      "center": {
        "lat": 12.976047,
        "lon": 77.529633
      },
      "tags": {
        "leisure": "park"
      }
    },
    {
      "type": "way",
      "id": 173579771,
      "center": {
        "lat": 12.9740798,
        "lon": 77.5310831
      },
      "tags": {
        "amenity": "school",
        "landuse": "education",
        "name": "Sarvodaya School",
        "name:kn": "ಸರ್ವೋದಯ ಶಾಲೆ"
      }
    },
    {
      "type": "way",
      "id": 363070951,
      "center": {
        "lat": 12.9775542,
        "lon": 77.5297934
      },
      "tags": {
        "leisure": "park"
      }
    },
    {
      "type": "way",
      "id": 737530277,
      "center": {
        "lat": 12.9676013,
        "lon": 77.5270562
      },
      "tags": {
        "leisure": "park"
      }
    },
    {
      "type": "way",
      "id": 1054822216,
      "center": {
        "lat": 12.9786839,
        "lon": 77.5278579
      },
      "tags": {
        "amenity": "shelter",
        "shelter_type": "gazebo"
      }
    },
    {
      "type": "way",
      "id": 1064304010,
      "center": {
        "lat": 12.9823154,
        "lon": 77.5199722
      },
      "tags": {
        "access": "private",
        "leisure": "swimming_pool"
      }
    },
    {
      "type": "way",
      "id": 1064304011,
      "center": {
        "lat": 12.9822533,
        "lon": 77.5189366
      },
      "tags": {
        "access": "private",
        "amenity": "theatre",
        "theatre:type": "amphi"
      }
    },
    {
      "type": "way",
      "id": 1064304014,
      "center": {
        "lat": 12.9824282,
        "lon": 77.5196482
      },
      "tags": {
        "access": "private",
        "leisure": "playground"
      }
    },
    {
      "type": "way",
      "id": 1064408562,
      "center": {
        "lat": 12.9829168,
        "lon": 77.5190731
      },
      "tags": {
        "leisure": "playground"
      }
    },
    {
      "type": "way",
      "id": 1064408563,
      "center": {
        "lat": 12.9822114,
        "lon": 77.5187444
      },
      "tags": {
        "leisure": "garden"
      }
    },
    {
      "type": "way",
      "id": 1064408584,
      "center": {
        "lat": 12.983183,
        "lon": 77.5192422
      },
      "tags": {
        "access": "private",
        "leisure": "playground"
      }
    },
    {
      "type": "way",
      "id": 1064408585,
      "center": {
        "lat": 12.983129,
        "lon": 77.5194681
      },
      "tags": {
        "access": "private",
        "leisure": "pitch",
        "sport": "tennis"
      }
    },
    {
      "type": "way",
      "id": 1064408586,
      "center": {
        "lat": 12.9822354,
        "lon": 77.5202087
      },
      "tags": {
        "access": "private",
        "amenity": "parking",
        "parking": "surface"
      }
    },
    {
      "type": "way",
      "id": 1064408593,
      "center": {
        "lat": 12.9821523,
        "lon": 77.5203856
      },
      "tags": {
        "amenity": "community_centre",
        "building": "yes",
        "community_centre": "club_home",
        "name": "Clubhouse"
      }
    },
    {
      "type": "way",
      "id": 1064408594,
      "center": {
        "lat": 12.9826148,
        "lon": 77.5189265
      },
      "tags": {
        "leisure": "garden"
      }
    },
    {
      "type": "way",
      "id": 1064408601,
      "center": {
        "lat": 12.9826785,
        "lon": 77.5192301
      },
      "tags": {
        "leisure": "garden"
      }
    },
    {
      "type": "way",
      "id": 1217243769,
      "center": {
        "lat": 12.9803675,
        "lon": 77.5179018
      },
      "tags": {
        "amenity": "training",
        "landuse": "education",
        "name": "Bosco Life Skill Training Center"
      }
    },
    {
      "type": "way",
      "id": 1217243770,
      "center": {
        "lat": 12.97968,
        "lon": 77.5180802
      },
      "tags": {
        "amenity": "school",
        "name": "St. Joseph's Convent High School"
      }
    },
    {
      "type": "way",
      "id": 1258216441,
      "center": {
        "lat": 12.9698249,
        "lon": 77.5279044
      },
      "tags": {
        "landuse": "recreation_ground",
        "leisure": "sports_centre",
        "name": "Krantiveera Sangolli Rayanna Ground",
        "name:etymology:wikidata": "Q10983724",
        "name:kn": "ಕ್ರಾಂತಿವೀರ ಸಂಗೊಳ್ಳಿ ರಾಯಣ್ಣ ಮೈದಾನ"
      }
    },
    {
      "type": "way",
      "id": 1343694333,
      "center": {
        "lat": 12.9741462,
        "lon": 77.5307125
      },
      "tags": {
        "addr:city": "Bangalore",
        "addr:housename": "Amarjyothi Nagar",
        "addr:postcode": "560040",
        "addr:street": "Nagarabhavi Road",
        "amenity": "place_of_worship",
        "name": "Shiva Temple",
        "name:kn": "ಶಿವ ದೇವಸ್ಥಾನ",
        "religion": "hindu"
      }
    },
    {
      "type": "way",
      "id": 1343694357,
      "center": {
        "lat": 12.972617,
        "lon": 77.5335921
      },
      "tags": {
        "leisure": "sports_centre"
      }
    },
    {
      "type": "way",
      "id": 1343694376,
      "center": {
        "lat": 12.9749836,
        "lon": 77.5327686
      },
      "tags": {
        "amenity": "college",
        "landuse": "education",
        "name": "KTSV PU College"
      }
    },
    {
      "type": "way",
      "id": 1343740699,
      "center": {
        "lat": 12.9721617,
        "lon": 77.5291013
      },
      "tags": {
        "amenity": "place_of_worship",
        "name": "Anjaneya Swami Temple",
        "name:kn": "ಆಂಜನೇಯ ಸ್ವಾಮಿ ದೇವಸ್ಥಾನ",
        "religion": "hindu",
        "source": "Survey"
      }
    },
    {
      "type": "way",
      "id": 1390079395,
      "center": {
        "lat": 12.9814926,
        "lon": 77.5179695
      },
      "tags": {
        "amenity": "social_facility",
        "healthcare": "counselling",
        "name": "Sumanahalli Support Community Care Center"
      }
    }
  ]
}