{
  "area_name": "Krishnappa Layout",
  "osm_id": 10763445357,
  "osm_type": "node",
  "place_type": "neighbourhood",
  "amenity_count": 21,
  "amenities": [
    {
      "type": "node",
      "id": 3546831488,
      "lat": 12.9209531,
      "lon": 77.5213014,
      "tags": {
        "amenity": "school",
        "name": "BET Convent"
      }
    },
    {
      "type": "node",
      "id": 10979388384,
      "lat": 12.9176033,
      "lon": 77.5359611,
      "tags": {
        "amenity": "place_of_worship",
        "name": "Shri Anjaneya Temple",
        "religion": "hindu"
      }
    },
    {
      "type": "node",
      "id": 10979388385,
      "lat": 12.918168,
      "lon": 77.5360872,
      "tags": {
        "amenity": "place_of_worship",
        "name": "Shri Arkeshwara Temple",
        "religion": "hindu",
        "wikipedia": "en:Shri Hanumagiri Kshethra"
      }
    },
    {
      "type": "node",
      "id": 11306481636,
      "lat": 12.929597,
      "lon": 77.5343709,
      "tags": {
        "amenity": "school",
        "check_date": "2023-11-02",
        "name": "Sharada Shri Public School"
      }
    },
    {
      "type": "node",
      "id": 11340895285,
      "lat": 12.9296753,
      "lon": 77.5349343,
      "tags": {
        "check_date": "2023-11-02",
        "name": "Krishna Cake Palace",
        "shop": "bakery"
      }
    },
    {
      "type": "node",
      "id": 11340895286,
      "lat": 12.9296544,
      "lon": 77.5350121,
      "tags": {
        "check_date": "2023-11-02",
        "name": "Nandini",
        "shop": "dairy"
      }
    },
    {
      "type": "node",
      "id": 11340895287,
      "lat": 12.9294996,
      "lon": 77.5352415,
      "tags": {
        "amenity": "restaurant",
        "check_date": "2023-11-02",
        "name": "Ba Guru Thindi Madona"
      }
    },
    {
      "type": "way",
      "id": 347417614,
      "center": {
        "lat": 12.926744,
        "lon": 77.5265184
      },
      "tags": {
        "leisure": "garden"
      }
    },
    {
      "type": "way",
      "id": 401829358,
      "center": {
        "lat": 12.9237378,
        "lon": 77.5233068
      },
      "tags": {
        "amenity": "school",
        "name": "National Hill View Public School"
      }
    },
    {
      "type": "way",
      "id": 721685566,
      "center": {
        "lat": 12.9320622,
        "lon": 77.5275863
      },
      "tags": {
        "amenity": "community_centre",
        "landuse": "commercial",
        "name": "V Legacy"
      }
    },
    {
      "type": "way",
      "id": 736950242,
      "center": {
        "lat": 12.9287127,
        "lon": 77.5291
      },
      "tags": {
        "amenity": "school",
        "name": "National Hill View Public School"
      }
    },
    {
      "type": "way",
      "id": 766650745,
      "center": {
        "lat": 12.9272671,
        "lon": 77.5262224
      },
      "tags": {
        "amenity": "college",
        "name": "Global Academy of Technology"
      }
    },
    {
      "type": "way",
      "id": 1182315647,
      "center": {
        "lat": 12.9195053,
        "lon": 77.5383509
      },
      "tags": {
        "amenity": "community_centre",
        "landuse": "commercial",
        "name": "Aditya Kalyana Mantapa"
      }
    },
    {
      "type": "way",
      "id": 1182315656,
      "center": {
        "lat": 12.9264187,
        "lon": 77.5216783
      },
      "tags": {
        "amenity": "hospital",
        "name": "SS Sparsh Hospital"
      }
    },
    {
      "type": "way",
      "id": 1287589789,
      "center": {
        "lat": 12.9317173,
        "lon": 77.5320307
      },
      "tags": {
        "amenity": "parking",
        "parking": "surface"
      }
    },
    {
      "type": "way",
      "id": 1363986258,
      "center": {
        "lat": 12.9283177,
        "lon": 77.529625
      },
      "tags": {
        "leisure": "park"
      }
    },
    {
      "type": "way",
      "id": 1427923145,
      "center": {
        "lat": 12.9257312,
        "lon": 77.5262355
      },
      "tags": {
        "leisure": "pitch"
      }
    },
    {
      "type": "way",
      "id": 1427923146,
      "center": {
        "lat": 12.9257489,
        "lon": 77.526462
      },
      "tags": {
        "leisure": "pitch",
        "sport": "basketball"
      }
    },
    {
      "type": "way",
      "id": 1444464468,
      "center": {
        "lat": 12.9273447,
        "lon": 77.5264765
      },
      "tags": {
        "leisure": "garden"
      }
    },
    {
      "type": "way",
      "id": 1444464470,
      "center": {
        "lat": 12.9248664,
        "lon": 77.5264547
      },
      "tags": {
        "access": "permissive",
        "amenity": "parking",
        "parking": "surface"
      }
    },
    {
      "type": "way",
      "id": 1444464471,
      "center": {
        "lat": 12.9245252,
        "lon": 77.5260847
      },
      "tags": {
        "access": "permissive",
        "amenity": "parking",
        "parking": "surface"
      }
    }
  ]
}