{
  "area_name": "Malleswaram",
  "osm_id": 427595936,
  "osm_type": "node",
  "place_type": "suburb",
  "amenity_count": 740,
  "amenities": [
    {
      "type": "node",
      "id": 428305621,
      "lat": 13.0016175,
      "lon": 77.5713543,
      "tags": {
        "name": "Archies Gallery",
        "shop": "gift"
      }
    },
    {
      "type": "node",
      "id": 428497519,
      "lat": 13.0037901,
      "lon": 77.5691874,
      "tags": {
        "addr:street": "Margosa Road",
        "check_date": "2024-05-12",
        "name": "Geojit Financial Services",
        "shop": "mobile_phone"
      }
    },
    {
      "type": "node",
      "id": 428549086,
      "lat": 13.0043466,
      "lon": 77.564775,
      "tags": {
        "leisure": "sports_centre",
        "name": "Canara Union, Prakash Courts",
        "sport": "badminton"
      }
    },
    {
      "type": "node",
      "id": 428549527,
      "lat": 13.0047512,
      "lon": 77.5650939,
      "tags": {
        "amenity": "atm",
        "branch": "Bank",
        "brand": "State Bank of India",
        "brand:wikidata": "Q1340361",
        "name": "State Bank of India",
        "name:kn": "ಭಾರತೀಯ ಸ್ಟೇಟ್ ಬ್ಯಾಂಕ್",
        "operator": "State Bank of India",
        "operator:wikidata": "Q1340361",
        "short_name": "SBI"
      }
    },
    {
      "type": "node",
      "id": 428549736,
      "lat": 13.0056248,
      "lon": 77.5622366,
      "tags": {
        "amenity": "atm",
        "brand": "Axis Bank",
        "brand:wikidata": "Q2003549",
        "name": "Axis Bank",
        "name:kn": "ಆಕ್ಸಿಸ್ ಬ್ಯಾಂಕ್",
        "operator": "Axis Bank",
        "operator:wikidata": "Q2003549"
      }
    },
    {
      "type": "node",
      "id": 428857415,
      "lat": 12.9985927,
      "lon": 77.5687751,
      "tags": {
        "amenity": "club",
        "name": "The Malleshwaram association"
      }
    },
    {
      "type": "node",
      "id": 428857750,
      "lat": 12.9966811,
      "lon": 77.5696708,
      "tags": {
        "amenity": "police",
        "name": "Maleshwaram Police station",
        "name:kn": "ಮಲೇಶ್ವರಂ ಆರಕ್ಷಕ ಠಾಣೆ",
        "wheelchair": "no"
      }
    },
    {
      "type": "node",
      "id": 456029893,
      "lat": 12.9955258,
      "lon": 77.5717703,
      "tags": {
        "amenity": "restaurant",
        "name": "Hallimane",
        "name:kn": "ಹಳ್ಳಿಮನೆ"
      }
    },
    {
      "type": "node",
      "id": 461539222,
      "lat": 13.0055704,
      "lon": 77.5713507,
      "tags": {
        "addr:street": "Sampige Road",
        "amenity": "restaurant",
        "cuisine": "indian",
        "delivery": "yes",
        "name": "Adiga's",
        "name:en": "Brahmin's Coffee Bar",
        "name:kn": "ಬ್ರಾಹ್ಮಿನ್ಸ್ ಕಾಫಿ ಬಾರ್",
        "smoking": "no",
        "takeaway": "yes",
        "toilets:wheelchair": "no",
        "wheelchair": "no"
      }
    },
    {
      "type": "node",
      "id": 525357113,
      "lat": 12.9990578,
      "lon": 77.5695202,
      "tags": {
        "addr:street": "Margosa Road",
        "amenity": "bank",
        "atm": "yes",
        "brand": "State Bank of India",
        "brand:wikidata": "Q1340361",
        "brand:wikipedia": "en:State Bank of India",
        "name": "State Bank of India",
        "name:kn": "ಭಾರತೀಯ ಸ್ಟೇಟ್ ಬ್ಯಾಂಕ್",
        "operator": "SBI",
        "short_name": "SBI"
      }
    },
    {
      "type": "node",
      "id": 571124363,
      "lat": 13.0045673,
      "lon": 77.5710992,
      "tags": {
        "addr:street": "Sampige Road",
        "amenity": "cafe",
        "brand": "Cafe Coffee Day",
        "brand:wikidata": "Q5017235",
        "brand:wikipedia": "en:Café Coffee Day",
        "cuisine": "coffee_shop",
        "name": "Cafe Coffee Day",
        "name:kn": "ಕಫೆ ಕಾಫಿ ಡೇ",
        "takeaway": "yes"
      }
    },
    {
      "type": "node",
      "id": 571124364,
      "lat": 13.0042882,
      "lon": 77.5710889,
      "tags": {
        "addr:street": "Sampige Road",
        "brand": "Reliance Fresh",
        "brand:wikidata": "Q7311014",
        "brand:wikipedia": "en:Reliance Fresh",
        "name": "Reliance Fresh",
        "name:kn": "ರಿಲಾಯನ್ಸ್ ಫ್ರೆಶ್",
        "shop": "supermarket"
      }
    },
    {
      "type": "node",
      "id": 573333532,
      "lat": 13.0064539,
      "lon": 77.5780313,
      "tags": {
        "addr:street": "Sankey Tank Road",
        "amenity": "school",
        "name": "Stella Maris School",
        "name:kn": "ಸ್ಟೆಲ್ಲಾ ಮಾರಿಸ್ ಶಾಲೆ"
      }
    },
    {
      "type": "node",
      "id": 574254132,
      "lat": 13.00559,
      "lon": 77.570496,
      "tags": {
        "name": "HOPCOMS",
        "name:kn": "ಹಾಪ್ ಕಾಮ್ಸ್",
        "operator": "milk store",
        "shop": "convenience"
      }
    },
    {
      "type": "node",
      "id": 574499845,
      "lat": 13.0061977,
      "lon": 77.5693737,
      "tags": {
        "branch": "Malleshwaram",
        "check_date": "2025-08-09",
        "name": "Reliance smart",
        "shop": "supermarket"
      }
    },
    {
      "type": "node",
      "id": 576105013,
      "lat": 12.996974,
      "lon": 77.5678633,
      "tags": {
        "addr:postcode": "560003",
        "addr:street": "local_knowledge",
        "amenity": "bank",
        "atm": "yes",
        "brand": "ICICI Bank",
        "brand:wikidata": "Q1653258",
        "name": "ICICI Bank",
        "name:kn": "ಐಸಿಐಸಿಐ ಬ್ಯಾಂಕು",
        "operator": "ICICI Bank",
        "operator:wikidata": "Q1653258",
        "short_name": "ICICI",
        "source": "local_knowledge"
      }
    },
    {
      "type": "node",
      "id": 576960339,
      "lat": 13.0045524,
      "lon": 77.5711963,
      "tags": {
        "addr:city": "bangalore",
        "addr:housenumber": "504",
        "addr:postcode": "560003",
        "addr:street": "Sampige Road",
        "amenity": "fast_food",
        "brand": "Papa John's",
        "brand:wikidata": "Q2759586",
        "brand:wikipedia": "en:Papa John's Pizza",
        "cuisine": "pizza",
        "delivery": "yes",
        "name": "Papa John's",
        "name:kn": "ಪಪ ಜಾನ್ಸ್",
        "opening_hours": "11:00 - 23:00",
        "phone": "080 41280614",
        "smoking": "no",
        "takeaway": "yes",
        "website": "https://www.papajohnspizza.in"
      }
    },
    {
      "type": "node",
      "id": 577026690,
      "lat": 12.9940976,
      "lon": 77.571267,
      "tags": {
        "addr:street": "Sampige Road",
        "amenity": "atm",
        "brand": "ICICI Bank",
        "brand:wikidata": "Q1653258",
        "name": "ICICI Bank",
        "name:kn": "ಐಸಿಐಸಿಐ",
        "operator": "ICICI Bank",
        "operator:wikidata": "Q1653258",
        "short_name": "ICICI"
      }
    },
    {
      "type": "node",
      "id": 577028441,
      "lat": 12.9953279,
      "lon": 77.5712934,
      "tags": {
        "addr:street": "Sampige Road",
        "amenity": "fast_food",
        "name": "Kolkata Chaat"
      }
    },
    {
      "type": "node",
      "id": 582392005,
      "lat": 13.0090584,
      "lon": 77.5712081,
      "tags": {
        "access": "yes",
        "amenity": "toilets",
        "fee": "yes"
      }
    },
    {
      "type": "node",
      "id": 583443246,
      "lat": 13.0081521,
      "lon": 77.5716854,
      "tags": {
        "amenity": "place_of_worship",
        "name": "Sri Ayyappa",
        "name:kn": "ಶ್ರೀ ಅಯ್ಯಪ್ಪ ದೇವಸ್ಥಾನ",
        "religion": "hindu"
      }
    },
    {
      "type": "node",
      "id": 598211169,
      "lat": 13.0016893,
      "lon": 77.5694475,
      "tags": {
        "addr:street": "Margosa Road",
        "amenity": "bank",
        "atm": "yes",
        "brand": "Bank of India",
        "brand:wikidata": "Q2004439",
        "brand:wikipedia": "en:Bank of India",
        "check_date": "2024-05-12",
        "name": "Bank of India",
        "name:en": "Bank of India",
        "operator": "Bank of India",
        "short_name": "BoI",
        "website": "http://www.bankofindia.co.in"
      }
    },
    {
      "type": "node",
      "id": 598211204,
      "lat": 13.0016506,
      "lon": 77.5694522,
      "tags": {
        "addr:street": "Margosa Road",
        "amenity": "atm",
        "brand": "Bank of India",
        "brand:wikidata": "Q2004439",
        "name": "Bank of India",
        "operator": "Bank of India",
        "operator:wikidata": "Q2004439"
      }
    },
    {
      "type": "node",
      "id": 598212615,
      "lat": 13.0011737,
      "lon": 77.5683395,
      "tags": {
        "amenity": "school",
        "name": "B. P. Indian"
      }
    },
    {
      "type": "node",
      "id": 598500940,
      "lat": 13.0041002,
      "lon": 77.5713906,
      "tags": {
        "addr:street": "Sampige Road, Malleshwaram",
        "amenity": "restaurant",
        "cuisine": "indian",
        "diet:vegetarian": "only",
        "name": "Udupi Sri Krishnarajathadri",
        "smoking": "no",
        "takeaway": "yes"
      }
    },
    {
      "type": "node",
      "id": 598988679,
      "lat": 13.00654,
      "lon": 77.5692833,
      "tags": {
        "amenity": "restaurant",
        "cuisine": "chinese",
        "name": "Chung's",
        "name:kn": "ಚಂಗ್ಸ್"
      }
    },
    {
      "type": "node",
      "id": 599205803,
      "lat": 13.0068052,
      "lon": 77.5645334,
      "tags": {
        "brand": "Reliance Fresh",
        "brand:wikidata": "Q7311014",
        "name": "Reliance Fresh",
        "name:kn": "ರಿಲಾಯನ್ಸ್ ಫ್ರೆಶ್",
        "shop": "supermarket"
      }
    },
    {
      "type": "node",
      "id": 599205811,
      "lat": 13.0030557,
      "lon": 77.5701724,
      "tags": {
        "amenity": "community_centre",
        "operator": "Boy Scouts"
      }
    },
    {
      "type": "node",
      "id": 605548779,
      "lat": 13.0085194,
      "lon": 77.5688573,
      "tags": {
        "addr:street": "Margosa Road",
        "amenity": "bank",
        "atm": "yes",
        "brand": "HDFC Bank",
        "brand:wikidata": "Q631047",
        "name": "HDFC Bank",
        "opening_hours": "Mo-Sa 10:30-20:30; Su 12:30-20:00",
        "operator": "HDFC",
        "short_name": "HDFC"
      }
    },
    {
      "type": "node",
      "id": 608493054,
      "lat": 13.0077753,
      "lon": 77.5637631,
      "tags": {
        "amenity": "place_of_worship",
        "name": "Ganesha",
        "name:kn": "ಗಣೇಶ ದೇವಸ್ಥಾನ",
        "religion": "hindu"
      }
    },
    {
      "type": "node",
      "id": 609322087,
      "lat": 13.0067269,
      "lon": 77.5640344,
      "tags": {
        "amenity": "fast_food",
        "cuisine": "indian",
        "name": "Sai Chats"
      }
    },
    {
      "type": "node",
      "id": 610677236,
      "lat": 13.0055316,
      "lon": 77.56985,
      "tags": {
        "amenity": "bank",
        "brand": "UCO Bank",
        "brand:wikidata": "Q2005310",
        "brand:wikipedia": "en:UCO Bank",
        "name": "UCO Bank",
        "name:en": "UCO Bank",
        "name:kn": "ಯೂಕೊ ಬ್ಯಾಂಕ್",
        "old_name": "United Commercial Bank",
        "website": "https://www.ucobank.com"
      }
    },
    {
      "type": "node",
      "id": 610677254,
      "lat": 13.0055316,
      "lon": 77.569732,
      "tags": {
        "amenity": "atm",
        "cost": "free",
        "operator": "UCO"
      }
    },
    {
      "type": "node",
      "id": 613012497,
      "lat": 13.0029248,
      "lon": 77.5663029,
      "tags": {
        "amenity": "place_of_worship",
        "name": "Ganesha",
        "name:kn": "ಗಣೇಶ ದೇವಸ್ಥಾನ",
        "religion": "hindu"
      }
    },
    {
      "type": "node",
      "id": 616321839,
      "lat": 13.0019378,
      "lon": 77.5665159,
      "tags": {
        "amenity": "bank",
        "atm": "yes",
        "check_date": "2025-07-11",
        "name": "SVC Bank",
        "operator": "Shamrao Vittal Cooperative"
      }
    },
    {
      "type": "node",
      "id": 617760063,
      "lat": 13.0006252,
      "lon": 77.5652425,
      "tags": {
        "addr:city": "Malleswaram, Bangalore",
        "addr:street": "8th Main",
        "amenity": "pharmacy",
        "name": "Pushyamee"
      }
    },
    {
      "type": "node",
      "id": 619348631,
      "lat": 13.0011328,
      "lon": 77.5691982,
      "tags": {
        "addr:street": "Margosa Road",
        "amenity": "bank",
        "brand": "Kotak Mahindra Bank",
        "brand:wikidata": "Q2040404",
        "name": "Kotak Mahindra Bank",
        "name:kn": "ಕೋಟಕ್ ಮಹಿಂದ್ರ ಬ್ಯಾಂಕ್"
      }
    },
    {
      "type": "node",
      "id": 619348715,
      "lat": 13.0010742,
      "lon": 77.569202,
      "tags": {
        "addr:street": "Margosa Road",
        "amenity": "atm",
        "brand": "Kotak Mahindra Bank",
        "brand:wikidata": "Q2040404",
        "operator": "Kotak Mahindra Bank",
        "operator:wikidata": "Q2040404"
      }
    },
    {
      "type": "node",
      "id": 621310418,
      "lat": 13.0002063,
      "lon": 77.5697663,
      "tags": {
        "name": "Baker's Hut",
        "name:kn": "ಬೇಕರ್ಸ್ ಹಟ್",
        "shop": "bakery"
      }
    },
    {
      "type": "node",
      "id": 622010321,
      "lat": 13.0084832,
      "lon": 77.5692697,
      "tags": {
        "addr:street": "Margosa Road",
        "amenity": "bank",
        "brand": "Syndicate Bank",
        "brand:wikidata": "Q2004088",
        "name": "Syndicate Bank",
        "name:kn": "ಸಿಂಡಿಕೇಟ್ ಬ್ಯಾಂಕ್",
        "operator": "Syndicate Bank"
      }
    },
    {
      "type": "node",
      "id": 622010323,
      "lat": 13.0085354,
      "lon": 77.5694521,
      "tags": {
        "amenity": "atm",
        "brand": "Syndicate Bank",
        "brand:wikidata": "Q2004088",
        "name": "Syndicate Bank",
        "name:kn": "ಸಿಂಡಿಕೇಟ್ ಬ್ಯಾಂಕ್",
        "operator": "Syndicate Bank",
        "operator:wikidata": "Q2004088"
      }
    },
    {
      "type": "node",
      "id": 622752297,
      "lat": 12.9998952,
      "lon": 77.5648773,
      "tags": {
        "amenity": "place_of_worship",
        "denomination": "anglican",
        "name": "Grace Church",
        "religion": "christian"
      }
    },
    {
      "type": "node",
      "id": 625856709,
      "lat": 13.0011275,
      "lon": 77.5639285,
      "tags": {
        "addr:city": "bangalore",
        "addr:district": "Bengaluru Urban",
        "addr:full": "71, 11Th Main Road, Opposite Malleshwaram Railway Station, Malleshwaram",
        "addr:housenumber": "71",
        "addr:postcode": "560003",
        "addr:state": "Karnataka",
        "addr:street": "11th Main Road, Opp Railway Station, Malleswaram",
        "amenity": "hospital",
        "name": "Manipal Northside Hospital",
        "phone": "080 2222 1111",
        "source": "OpenGovernmentData",
        "wheelchair": "yes"
      }
    },
    {
      "type": "node",
      "id": 625857657,
      "lat": 13.0009721,
      "lon": 77.5640265,
      "tags": {
        "amenity": "pharmacy",
        "name": "Manipal North Side Pharmacy",
        "wheelchair": "yes"
      }
    },
    {
      "type": "node",
      "id": 650621057,
      "lat": 12.994359,
      "lon": 77.5711764,
      "tags": {
        "addr:street": "Sampige Road",
        "amenity": "restaurant",
        "name": "Rasa",
        "name:kn": "ರಸ"
      }
    },
    {
      "type": "node",
      "id": 650629565,
      "lat": 12.9991783,
      "lon": 77.5707735,
      "tags": {
        "amenity": "toilets",
        "name": "BBMP",
        "name:kn": "ಬೃ. ಬೆಂ. ಮ. ಪಾ."
      }
    },
    {
      "type": "node",
      "id": 652441256,
      "lat": 13.0046678,
      "lon": 77.5714458,
      "tags": {
        "amenity": "place_of_worship",
        "name": "Sai Baba Temple",
        "name:kn": "ಸಾಯಿ ಬಾಬಾ ದೇವಸ್ಥಾನ",
        "religion": "hindu"
      }
    },
    {
      "type": "node",
      "id": 659639936,
      "lat": 13.0092311,
      "lon": 77.5728206,
      "tags": {
        "amenity": "toilets"
      }
    },
    {
      "type": "node",
      "id": 661056774,
      "lat": 13.0076434,
      "lon": 77.5779662,
      "tags": {
        "amenity": "atm",
        "operator": "CorpBank"
      }
    },
    {
      "type": "node",
      "id": 661056775,
      "lat": 13.0075667,
      "lon": 77.5780609,
      "tags": {
        "name": "Naturals Unisex Salon",
        "shop": "hairdresser"
      }
    },
    {
      "type": "node",
      "id": 664332016,
      "lat": 13.0059079,
      "lon": 77.578507,
      "tags": {
        "amenity": "pharmacy",
        "healthcare": "pharmacy",
        "name": "Keshava Medical & General Stores"
      }
    },
    {
      "type": "node",
      "id": 937674757,
      "lat": 13.004966,
      "lon": 77.5714462,
      "tags": {
        "amenity": "place_of_worship",
        "name": "Kadu Malleshwara Temple",
        "name:kn": "ಕಾಡು ಮಲ್ಲೇಶ್ವರ ದೇವಸ್ಥಾನ",
        "religion": "hindu",
        "wikidata": "Q6345722",
        "wikimedia_commons": "Category:Kadu Malleshwara Temple",
        "wikipedia": "en:Kadu Malleshwara Temple"
      }
    },
    {
      "type": "node",
      "id": 1176722324,
      "lat": 13.0008128,
      "lon": 77.5701799,
      "tags": {
        "amenity": "school",
        "building": "yes",
        "name": "Ubhaya Vedanta Pravarthana Sabha",
        "name:kn": "ಉಭಯ ವೇದಾಂತ ಪ್ರವರ್ತನ ಸಭ"
      }
    },
    {
      "type": "node",
      "id": 1176722415,
      "lat": 13.0058358,
      "lon": 77.5701799,
      "tags": {
        "leisure": "sports_centre",
        "name": "Beagles Basketball Club",
        "sport": "basketball"
      }
    },
    {
      "type": "node",
      "id": 1176722420,
      "lat": 13.0016752,
      "lon": 77.570255,
      "tags": {
        "amenity": "place_of_worship",
        "name": "Krishna Temple",
        "name:kn": "ಕೃಷ್ಣ ದೇವಸ್ಥಾನ",
        "religion": "hindu"
      }
    },
    {
      "type": "node",
      "id": 1176722427,
      "lat": 13.000358,
      "lon": 77.5701424,
      "tags": {
        "amenity": "place_of_worship",
        "building": "yes",
        "name": "Mahaganapathi Temple",
        "name:kn": "ಮಹಾಗಣಪತಿ ದೇವಸ್ಥಾನ",
        "religion": "hindu"
      }
    },
    {
      "type": "node",
      "id": 1289831090,
      "lat": 13.0061761,
      "lon": 77.5647018,
      "tags": {
        "shop": "florist"
      }
    },
    {
      "type": "node",
      "id": 1289833985,
      "lat": 12.9982568,
      "lon": 77.5694946,
      "tags": {
        "alt_name": "CTR",
        "amenity": "restaurant",
        "cuisine": "regional",
        "diet:vegan": "yes",
        "diet:vegetarian": "only",
        "happycow:id": "82110",
        "name": "Shree Sagar CTR",
        "name:kn": "ಶ್ರೀ ಶಾರದ ಸಾಗರ್",
        "old_name": "Central Tiffin Room",
        "start_date": "1920",
        "wikidata": "Q5061916",
        "wikipedia": "en:Central Tiffin Room Bangalore"
      }
    },
    {
      "type": "node",
      "id": 1289850490,
      "lat": 13.0047163,
      "lon": 77.5755228,
      "tags": {
        "amenity": "place_of_worship",
        "name": "Ram Mandir",
        "name:kn": "ರಾಮ ಮಂದಿರ",
        "religion": "hindu"
      }
    },
    {
      "type": "node",
      "id": 1289949439,
      "lat": 13.0073402,
      "lon": 77.5764133,
      "tags": {
        "amenity": "place_of_worship",
        "name": "Gayathri Devi Temple",
        "name:kn": "ಗಾಯತ್ರಿ ದೇವಿ ದೇವಸ್ಥಾನ",
        "religion": "hindu"
      }
    },
    {
      "type": "node",
      "id": 1290073466,
      "lat": 13.0067267,
      "lon": 77.5641398,
      "tags": {
        "amenity": "ice_cream",
        "brand": "Naturals",
        "brand:wikidata": "Q24439154",
        "cuisine": "ice_cream",
        "name": "Naturals"
      }
    },
    {
      "type": "node",
      "id": 1290107583,
      "lat": 13.0044751,
      "lon": 77.5711942,
      "tags": {
        "name": "Olympic Sports",
        "shop": "sports"
      }
    },
    {
      "type": "node",
      "id": 1290107596,
      "lat": 13.0075028,
      "lon": 77.5635659,
      "tags": {
        "name": "Bun World",
        "shop": "bakery"
      }
    },
    {
      "type": "node",
      "id": 1290107600,
      "lat": 13.0077909,
      "lon": 77.564002,
      "tags": {
        "shop": "convenience"
      }
    },
    {
      "type": "node",
      "id": 1290107605,
      "lat": 13.0077106,
      "lon": 77.5640402,
      "tags": {
        "addr:city": "Bangalore",
        "addr:postcode": "560055",
        "addr:street": "8th Main Road",
        "amenity": "pharmacy",
        "dispensing": "yes",
        "name": "Sri Ganesh Medicals"
      }
    },
    {
      "type": "node",
      "id": 1290107610,
      "lat": 13.0078203,
      "lon": 77.5639866,
      "tags": {
        "shop": "convenience"
      }
    },
    {
      "type": "node",
      "id": 1290125198,
      "lat": 13.0043642,
      "lon": 77.5652959,
      "tags": {
        "amenity": "hospital"
      }
    },
    {
      "type": "node",
      "id": 1290125200,
      "lat": 13.0069619,
      "lon": 77.5644724,
      "tags": {
        "shop": "convenience"
      }
    },
    {
      "type": "node",
      "id": 1290125205,
      "lat": 13.0067371,
      "lon": 77.5643678,
      "tags": {
        "shop": "clothes"
      }
    },
    {
      "type": "node",
      "id": 1290125219,
      "lat": 13.0067295,
      "lon": 77.5642274,
      "tags": {
        "amenity": "pharmacy",
        "brand": "MedPlus",
        "brand:wikidata": "Q65684234",
        "healthcare": "pharmacy",
        "name": "MedPlus",
        "name:kn": "ಮೆಡ್‍ಪ್ಲಸ್"
      }
    },
    {
      "type": "node",
      "id": 1290125220,
      "lat": 13.0043093,
      "lon": 77.5653307,
      "tags": {
        "name": "Homely Organic",
        "shop": "supermarket",
        "website": "https://homelysupermarket.com/"
      }
    },
    {
      "type": "node",
      "id": 1290125226,
      "lat": 13.0038729,
      "lon": 77.5653254,
      "tags": {
        "shop": "convenience"
      }
    },
    {
      "type": "node",
      "id": 1290152826,
      "lat": 12.9984695,
      "lon": 77.5692319,
      "tags": {
        "shop": "jewelry"
      }
    },
    {
      "type": "node",
      "id": 1290152828,
      "lat": 12.9989399,
      "lon": 77.569256,
      "tags": {
        "shop": "gift"
      }
    },
    {
      "type": "node",
      "id": 1290152830,
      "lat": 12.9986733,
      "lon": 77.5692346,
      "tags": {
        "shop": "convenience"
      }
    },
    {
      "type": "node",
      "id": 1290152832,
      "lat": 12.9987298,
      "lon": 77.5692354,
      "tags": {
        "check_date": "2024-05-12",
        "name": "Excel Dry Cleaners",
        "shop": "laundry"
      }
    },
    {
      "type": "node",
      "id": 1290203319,
      "lat": 13.0009705,
      "lon": 77.5696315,
      "tags": {
        "shop": "jewelry"
      }
    },
    {
      "type": "node",
      "id": 1290203334,
      "lat": 13.0009296,
      "lon": 77.5723686,
      "tags": {
        "amenity": "restaurant",
        "diet:vegetarian": "only",
        "name": "Food Camp",
        "name:kn": "ಫುಡ್ ಕ್ಯಾಂಪ್"
      }
    },
    {
      "type": "node",
      "id": 1290203335,
      "lat": 13.0043393,
      "lon": 77.5743495,
      "tags": {
        "shop": "laundry"
      }
    },
    {
      "type": "node",
      "id": 1290203344,
      "lat": 13.0010829,
      "lon": 77.5721394,
      "tags": {
        "amenity": "restaurant",
        "cuisine": "regional",
        "name": "Sri Sai Dosa Center",
        "name:kn": "ಶ್ರೀ ಸಾಯಿ ದೊಸ ಸೆಂಟರ್"
      }
    },
    {
      "type": "node",
      "id": 1290203354,
      "lat": 13.0001186,
      "lon": 77.5706105,
      "tags": {
        "amenity": "post_office",
        "name": "Malleshwaram Post Office",
        "operator": "India Post",
        "operator:wikidata": "Q3519720",
        "ref": "Malleshwaram Post Office"
      }
    },
    {
      "type": "node",
      "id": 1290203366,
      "lat": 13.0011038,
      "lon": 77.5723003,
      "tags": {
        "name": "Iyengar's Bakery",
        "name:kn": "ಐಯ್ಯಂಗಾರ್ ಬೇಕರಿ",
        "shop": "bakery"
      }
    },
    {
      "type": "node",
      "id": 1299372796,
      "lat": 13.0018529,
      "lon": 77.5671939,
      "tags": {
        "amenity": "fast_food",
        "cuisine": "ice_cream",
        "name": "Amrut Ice-cream",
        "name:kn": "ಅಮೃತ್ ಐಸ್ ಕ್ರೀಮ್"
      }
    },
    {
      "type": "node",
      "id": 1448082496,
      "lat": 12.999295,
      "lon": 77.5680608,
      "tags": {
        "amenity": "restaurant",
        "cuisine": "indian",
        "delivery": "yes",
        "diet:vegetarian": "only",
        "name": "Sai Shakti",
        "name:kn": "ಸಾಯಿ ಶಕ್ತಿ",
        "outdoor_seating": "no",
        "takeaway": "yes"
      }
    },
    {
      "type": "node",
      "id": 1459879075,
      "lat": 12.9971262,
      "lon": 77.5715091,
      "tags": {
        "addr:city": "Malleswaram, Bangalore",
        "addr:street": "5th Cross",
        "amenity": "clinic",
        "healthcare": "clinic",
        "name": "The Apollo Clinic"
      }
    },
    {
      "type": "node",
      "id": 1462530129,
      "lat": 13.0055106,
      "lon": 77.5787567,
      "tags": {
        "addr:street": "1st Main Road",
        "amenity": "restaurant",
        "check_date": "2024-01-13",
        "name": "Sri Udupi Swaadista",
        "name:kn": "ಸ್ವಾದಿಷ್ಟ ರೆಸ್ಟೊರೆಂಟ್"
      }
    },
    {
      "type": "node",
      "id": 1462540475,
      "lat": 13.0049266,
      "lon": 77.5787343,
      "tags": {
        "name": "Maha Bazaar",
        "shop": "supermarket"
      }
    },
    {
      "type": "node",
      "id": 1462686365,
      "lat": 13.0015732,
      "lon": 77.578628,
      "tags": {
        "amenity": "police",
        "name": "Vyali Kaval Police Station",
        "name:kn": "ಆರಕ್ಷಕ ಠಾಣೆ"
      }
    },
    {
      "type": "node",
      "id": 1462688051,
      "lat": 13.0019182,
      "lon": 77.5790414,
      "tags": {
        "amenity": "post_office",
        "name": "Vyali Kaval Post Office"
      }
    },
    {
      "type": "node",
      "id": 1462691613,
      "lat": 13.002535,
      "lon": 77.578333,
      "tags": {
        "amenity": "bank",
        "atm": "yes",
        "brand": "State Bank of India",
        "brand:wikidata": "Q1340361",
        "brand:wikipedia": "en:State Bank of India",
        "name": "State Bank of India",
        "name:kn": "ಎಸ್ ಬಿ ಐ",
        "short_name": "SBI",
        "website": "https://www.sbi.co.in"
      }
    },
    {
      "type": "node",
      "id": 1462692195,
      "lat": 13.0022031,
      "lon": 77.5783102,
      "tags": {
        "amenity": "bank",
        "atm": "yes",
        "brand": "Canara Bank",
        "brand:en": "Canara Bank",
        "brand:hi": "केनरा बैंक",
        "brand:kn": "ಕೆನರಾ ಬ್ಯಾಂಕ್",
        "brand:pa": "ਕੇਨਰਾ ਬੈਂਕ",
        "brand:pnb": "کینرا بینک",
        "brand:ur": "کینرا بینک",
        "brand:wikidata": "Q2003777",
        "brand:wikipedia": "en:Canara Bank",
        "brand:wikipedia:pa": "ਕੇਨਰਾ ਬੈਂਕ",
        "name": "Canara Bank",
        "name:en": "Canara Bank",
        "name:hi": "केनरा बैंक",
        "name:kn": "ಕೆನರಾ ಬ್ಯಾಂಕ್",
        "name:pa": "ਕੇਨਰਾ ਬੈਂਕ",
        "name:pnb": "کینرا بینک",
        "name:ur": "کینرا بینک",
        "website": "https://www.canarabank.com/"
      }
    },
    {
      "type": "node",
      "id": 1462708215,
      "lat": 13.0046183,
      "lon": 77.5784554,
      "tags": {
        "amenity": "restaurant",
        "name": "Rajesh Hotel",
        "name:kn": "ರಾಜೇಶ್ ಹೋಟೆಲ್"
      }
    },
    {
      "type": "node",
      "id": 1474819903,
      "lat": 13.0002224,
      "lon": 77.5688175,
      "tags": {
        "amenity": "pharmacy",
        "healthcare": "pharmacy",
        "name": "Religare Medicals"
      }
    },
    {
      "type": "node",
      "id": 1474819904,
      "lat": 13.0006563,
      "lon": 77.5683609,
      "tags": {
        "amenity": "place_of_worship",
        "name": "Chinmaya Mission",
        "name:kn": "ಚಿನ್ಮಯ ಮಿಷನ್"
      }
    },
    {
      "type": "node",
      "id": 1474820319,
      "lat": 12.9966873,
      "lon": 77.5723319,
      "tags": {
        "amenity": "fast_food",
        "brand": "Domino's",
        "brand:ks": "ڈومینوز",
        "brand:pa": "ਡੋਮੀਨੋਜ਼",
        "brand:ur": "ڈومینوز",
        "brand:wikidata": "Q839466",
        "brand:wikipedia": "en:Domino's Pizza",
        "cuisine": "pizza",
        "name": "Domino's",
        "name:kn": "ಡಾಮಿನೋಸ್",
        "name:ks": "ڈومینوز",
        "name:pa": "ਡੋਮੀਨੋਜ਼",
        "name:ur": "ڈومینوز",
        "takeaway": "yes"
      }
    },
    {
      "type": "node",
      "id": 1474820320,
      "lat": 12.9950177,
      "lon": 77.5716418,
      "tags": {
        "amenity": "bank",
        "brand": "State Bank of India",
        "brand:wikidata": "Q1340361",
        "brand:wikipedia": "en:State Bank of India",
        "name": "State Bank of India",
        "name:kn": "ಭಾರತೀಯ ಸ್ಟೇಟ್ ಬ್ಯಾಂಕ್",
        "short_name": "SBI",
        "website": "https://www.sbi.co.in"
      }
    },
    {
      "type": "node",
      "id": 1474820321,
      "lat": 12.9970915,
      "lon": 77.5719766,
      "tags": {
        "amenity": "hospital",
        "healthcare": "hospital",
        "name": "Baptist"
      }
    },
    {
      "type": "node",
      "id": 1474820322,
      "lat": 12.9970758,
      "lon": 77.5721536,
      "tags": {
        "amenity": "clinic",
        "healthcare": "clinic",
        "name": "Supra's Diagnostic Centre"
      }
    },
    {
      "type": "node",
      "id": 1474820354,
      "lat": 12.9978128,
      "lon": 77.5712095,
      "tags": {
        "amenity": "fast_food",
        "name": "Kanti Sweets"
      }
    },
    {
      "type": "node",
      "id": 1813542942,
      "lat": 12.9991432,
      "lon": 77.5710944,
      "tags": {
        "amenity": "restaurant",
        "name": "Hotel Janatha",
        "name:kn": "ಜನತಾ",
        "wheelchair": "no"
      }
    },
    {
      "type": "node",
      "id": 1813565050,
      "lat": 13.0058689,
      "lon": 77.571081,
      "tags": {
        "amenity": "atm",
        "brand": "Axis Bank",
        "brand:wikidata": "Q2003549",
        "fee": "no",
        "name": "Axis Bank",
        "operator": "Axis Bank",
        "operator:wikidata": "Q2003549"
      }
    },
    {
      "type": "node",
      "id": 1813565068,
      "lat": 13.0057102,
      "lon": 77.5713559,
      "tags": {
        "name": "Sunil's",
        "shop": "clothes"
      }
    },
    {
      "type": "node",
      "id": 1823183433,
      "lat": 13.0037322,
      "lon": 77.5653317,
      "tags": {
        "amenity": "fast_food",
        "cuisine": "indian",
        "name": "Bajji",
        "name:kn": "ಬಜ್ಜಿ"
      }
    },
    {
      "type": "node",
      "id": 1863318898,
      "lat": 12.999291,
      "lon": 77.5671481,
      "tags": {
        "name": "Manjunatha Provisions",
        "shop": "convenience"
      }
    },
    {
      "type": "node",
      "id": 1863318899,
      "lat": 12.9992858,
      "lon": 77.5670032,
      "tags": {
        "name": "Ganesha Provisions",
        "shop": "convenience"
      }
    },
    {
      "type": "node",
      "id": 1863318900,
      "lat": 12.9991395,
      "lon": 77.5678347,
      "tags": {
        "name": "Safal",
        "shop": "supermarket"
      }
    },
    {
      "type": "node",
      "id": 1863318903,
      "lat": 12.9997824,
      "lon": 77.5681888,
      "tags": {
        "amenity": "pharmacy",
        "healthcare": "pharmacy",
        "name": "Apple Pharma"
      }
    },
    {
      "type": "node",
      "id": 2019364212,
      "lat": 13.000713,
      "lon": 77.5757942,
      "tags": {
        "leisure": "park",
        "name": "BBMP Park, Swimming Pool Extension",
        "name:kn": "ಬೃ. ಬೆ. ಮ. ಪಾ. ಉದ್ಯಾನವನ"
      }
    },
    {
      "type": "node",
      "id": 2090041316,
      "lat": 13.0057078,
      "lon": 77.5668318,
      "tags": {
        "amenity": "dentist",
        "name": "Sowmya Dental Care"
      }
    },
    {
      "type": "node",
      "id": 2196133697,
      "lat": 13.0044109,
      "lon": 77.5668934,
      "tags": {
        "addr:street": "6th Main Road",
        "amenity": "bank",
        "atm": "yes",
        "name": "Sree Charan Bank",
        "name:kn": "ಶ್ರೀ ಚರಣ್ ಬ್ಯಾಂಕ್",
        "toilets:wheelchair": "no",
        "wheelchair": "no"
      }
    },
    {
      "type": "node",
      "id": 2196138330,
      "lat": 13.0037706,
      "lon": 77.5653221,
      "tags": {
        "amenity": "pharmacy",
        "dispensing": "yes",
        "name": "New Pushyamee"
      }
    },
    {
      "type": "node",
      "id": 2208579539,
      "lat": 13.0074205,
      "lon": 77.5642376,
      "tags": {
        "amenity": "ice_cream",
        "brand": "Baskin-Robbins",
        "brand:wikidata": "Q584601",
        "cuisine": "ice_cream",
        "name": "Baskin-Robbins",
        "name:kn": "ಬಸ್ಕಿನ್ ರಾಬಿನ್ಸ್"
      }
    },
    {
      "type": "node",
      "id": 2208582147,
      "lat": 13.0075165,
      "lon": 77.5641095,
      "tags": {
        "name": "Expert Dry Cleaning",
        "shop": "dry_cleaning"
      }
    },
    {
      "type": "node",
      "id": 2298050805,
      "lat": 13.0045164,
      "lon": 77.5785881,
      "tags": {
        "addr:housename": "Janhavi Medicals",
        "amenity": "pharmacy",
        "designation": "Pharmacy",
        "healthcare": "pharmacy",
        "name": "Janhavi Medicals"
      }
    },
    {
      "type": "node",
      "id": 2314538270,
      "lat": 13.0012808,
      "lon": 77.5783329,
      "tags": {
        "amenity": "bank",
        "atm": "yes",
        "brand": "ICICI Bank",
        "brand:wikidata": "Q1653258",
        "name": "ICICI Bank",
        "name:kn": "ಐಸಿಐಸಿಐ",
        "short_name": "ICICI"
      }
    },
    {
      "type": "node",
      "id": 2314538271,
      "lat": 13.001239,
      "lon": 77.5783221,
      "tags": {
        "amenity": "bank",
        "atm": "yes",
        "brand": "HDFC Bank",
        "brand:wikidata": "Q631047",
        "name": "HDFC Bank",
        "short_name": "HDFC"
      }
    },
    {
      "type": "node",
      "id": 2314538273,
      "lat": 13.0002354,
      "lon": 77.5781558,
      "tags": {
        "amenity": "bank",
        "atm": "yes",
        "brand": "Karnataka Bank",
        "brand:wikidata": "Q2042632",
        "name": "Karnataka Bank",
        "name:kn": "ಕರ್ನಾಟಕ ಬ್ಯಾಂಕ್"
      }
    },
    {
      "type": "node",
      "id": 2394086882,
      "lat": 13.0098511,
      "lon": 77.5691769,
      "tags": {
        "amenity": "bus_station",
        "bench": "yes",
        "bin": "yes",
        "bus": "yes",
        "covered": "yes",
        "name": "Malleswaram 18th Cross",
        "name:en": "Malleswaram 18th Cross",
        "name:kn": "ಮಲ್ಲೇಶ್ವರಂ ೧೮ನೇ ಅಡ್ಡ",
        "network": "BMTC",
        "operator": "BMTC",
        "public_transport": "platform",
        "shelter": "yes"
      }
    },
    {
      "type": "node",
      "id": 2631196042,
      "lat": 13.0019713,
      "lon": 77.5723357,
      "tags": {
        "amenity": "bank",
        "atm": "yes",
        "brand": "Canara Bank",
        "brand:en": "Canara Bank",
        "brand:hi": "केनरा बैंक",
        "brand:kn": "ಕೆನರಾ ಬ್ಯಾಂಕ್",
        "brand:pa": "ਕੇਨਰਾ ਬੈਂਕ",
        "brand:pnb": "کینرا بینک",
        "brand:ur": "کینرا بینک",
        "brand:wikidata": "Q2003777",
        "brand:wikipedia": "en:Canara Bank",
        "brand:wikipedia:pa": "ਕੇਨਰਾ ਬੈਂਕ",
        "name": "Canara Bank",
        "name:en": "Canara Bank",
        "name:hi": "केनरा बैंक",
        "name:kn": "ಕೆನರಾ ಬ್ಯಾಂಕ್",
        "name:pa": "ਕੇਨਰਾ ਬੈਂਕ",
        "name:pnb": "کینرا بینک",
        "name:ur": "کینرا بینک",
        "website": "https://www.canarabank.com/"
      }
    },
    {
      "type": "node",
      "id": 2631196051,
      "lat": 13.0020277,
      "lon": 77.5707457,
      "tags": {
        "amenity": "restaurant",
        "cuisine": "indian",
        "name": "Maiyas",
        "website": "http://www.maiyas.in/"
      }
    },
    {
      "type": "node",
      "id": 2631196055,
      "lat": 13.0040275,
      "lon": 77.5712572,
      "tags": {
        "amenity": "place_of_worship",
        "name": "Sri Raghavendra Swamy Mutt",
        "name:kn": "ರಾಘವೇಂದ್ರ ಸ್ವಾಮಿ ಮಠ",
        "religion": "hindu"
      }
    },
    {
      "type": "node",
      "id": 2631196071,
      "lat": 13.0046507,
      "lon": 77.5719519,
      "tags": {
        "amenity": "place_of_worship",
        "name": "Sri Lakshmi Natasimha Swamy Temple",
        "religion": "hindu"
      }
    },
    {
      "type": "node",
      "id": 3026584615,
      "lat": 13.0085323,
      "lon": 77.5695736,
      "tags": {
        "addr:city": "Bangalore",
        "addr:postcode": "560018",
        "addr:street": "18th Cross",
        "amenity": "clinic",
        "name": "Dr. R Srinivasa",
        "note": "Neurologist,"
      }
    },
    {
      "type": "node",
      "id": 3280224336,
      "lat": 12.9962972,
      "lon": 77.5719247,
      "tags": {
        "name": "Sri Mukambika",
        "shop": "bakery",
        "wheelchair": "no"
      }
    },
    {
      "type": "node",
      "id": 3399331050,
      "lat": 13.0019334,
      "lon": 77.5784395,
      "tags": {
        "amenity": "restaurant",
        "name": "Aditya Hotel"
      }
    },
    {
      "type": "node",
      "id": 3399331051,
      "lat": 13.0019072,
      "lon": 77.5775638,
      "tags": {
        "amenity": "library",
        "name": "Government Central Library",
        "name:kn": "ಸರ್ಕಾರಿ ಗ್ರಂಥಾಲಯ"
      }
    },
    {
      "type": "node",
      "id": 3399331052,
      "lat": 13.0019405,
      "lon": 77.5777151,
      "tags": {
        "amenity": "place_of_worship",
        "religion": "hindu"
      }
    },
    {
      "type": "node",
      "id": 3400223537,
      "lat": 13.0069934,
      "lon": 77.5693219,
      "tags": {
        "amenity": "restaurant",
        "name": "Five Star Veg"
      }
    },
    {
      "type": "node",
      "id": 3400223539,
      "lat": 13.0002667,
      "lon": 77.5694894,
      "tags": {
        "addr:district": "Bengaluru Urban",
        "addr:full": "# 133, Margosa Road,10Th Cross, Malleshwaram",
        "addr:postcode": "560003",
        "addr:state": "Karnataka",
        "amenity": "hospital",
        "healthcare": "hospital",
        "name": "Leela Hospital and Diagnostic Center",
        "source": "OpenGovernmentData"
      }
    },
    {
      "type": "node",
      "id": 3400223636,
      "lat": 13.0003234,
      "lon": 77.5693738,
      "tags": {
        "amenity": "pharmacy",
        "healthcare": "pharmacy",
        "name": "Leela medicals"
      }
    },
    {
      "type": "node",
      "id": 3400223637,
      "lat": 12.999115,
      "lon": 77.5695329,
      "tags": {
        "check_date": "2023-07-01",
        "mapillary": "951984709466352",
        "name": "Kanchipuram Varamahalakshmi silks",
        "shop": "clothes"
      }
    },
    {
      "type": "node",
      "id": 3400224073,
      "lat": 13.0070927,
      "lon": 77.5693166,
      "tags": {
        "amenity": "restaurant",
        "name": "Five Star Chicken"
      }
    },
    {
      "type": "node",
      "id": 3401990804,
      "lat": 13.0018587,
      "lon": 77.5711353,
      "tags": {
        "name": "Mohan Bhandar",
        "shop": "convenience"
      }
    },
    {
      "type": "node",
      "id": 3401990806,
      "lat": 13.0035401,
      "lon": 77.5713502,
      "tags": {
        "amenity": "fast_food",
        "brand": "McDonald's",
        "brand:pa": "ਮੈਕਡੋਨਲਡ’ਜ਼",
        "brand:ur": "مکڈونلڈز",
        "brand:wikidata": "Q38076",
        "brand:wikipedia": "en:McDonald's",
        "brand:wikipedia:pa": "ਮੈਕਡੋਨਲਡ’ਜ਼",
        "brand:wikipedia:ur": "مکڈونلڈز",
        "cuisine": "burger",
        "delivery": "yes",
        "name": "McDonald's",
        "name:kn": "ಮ್ಯಾಕ್‌ಡೊನಾಲ್ಡ್ಸ್",
        "name:pa": "ਮੈਕਡੋਨਲਡ’ਜ਼",
        "name:ur": "مکڈونلڈز",
        "smoking": "no",
        "takeaway": "yes"
      }
    },
    {
      "type": "node",
      "id": 3469264393,
      "lat": 13.0085167,
      "lon": 77.5686473,
      "tags": {
        "name": "Printo",
        "service:copy": "yes",
        "service:press": "yes",
        "service:print": "yes",
        "service:scan": "yes",
        "shop": "copyshop"
      }
    },
    {
      "type": "node",
      "id": 3646944064,
      "lat": 13.000058,
      "lon": 77.5696143,
      "tags": {
        "addr:district": "Bengaluru Urban",
        "addr:full": "Super Speciality Otology Centre, No.1, 9th Cross Malleshwaram",
        "addr:postcode": "560003",
        "addr:state": "Karnataka",
        "amenity": "clinic",
        "email": "vijayentblr@vsnl.net.in",
        "healthcare": "clinic",
        "name": "Vijaya Ent Care Centre",
        "operator:type": "private",
        "source": "OpenGovernmentData",
        "website": "http://www.drhvijayendra.com/"
      }
    },
    {
      "type": "node",
      "id": 3715556354,
      "lat": 13.0014552,
      "lon": 77.5722176,
      "tags": {
        "brand": "Airtel",
        "name": "Airtel Express",
        "name:kn": "ಏರ್ ಚೆಲ್ ಎಕ್ಸ್ಪ್ರೆಸ್",
        "shop": "mobile_phone"
      }
    },
    {
      "type": "node",
      "id": 3715556355,
      "lat": 13.0073096,
      "lon": 77.571225,
      "tags": {
        "name": "K C Das",
        "shop": "confectionery",
        "website": "http://www.kcdas.co.in/"
      }
    },
    {
      "type": "node",
      "id": 3715556356,
      "lat": 13.0018953,
      "lon": 77.5724935,
      "tags": {
        "internet_access": "terminal",
        "internet_access:fee": "yes",
        "name": "Printhouse",
        "service:copy": "yes",
        "shop": "copyshop"
      }
    },
    {
      "type": "node",
      "id": 3742215657,
      "lat": 13.0017604,
      "lon": 77.5783235,
      "tags": {
        "amenity": "restaurant",
        "cuisine": "chats",
        "name": "Atithis"
      }
    },
    {
      "type": "node",
      "id": 3781792270,
      "lat": 12.997771,
      "lon": 77.571072,
      "tags": {
        "addr:city": "Bengaluru",
        "addr:postcode": "560003",
        "addr:street": "6th Cross Road",
        "amenity": "restaurant",
        "brand": "Adyar Ananda Bhavan",
        "brand:wikidata": "Q15178238",
        "cuisine": "regional",
        "name": "Adyar Ananda Bhavan",
        "name:kn": "ಆದ್ಯಾರ್ ಆನಂದ ಭವನ",
        "phone": "918041280909",
        "shop": "confectionery",
        "website": "https://aabsweets.com"
      }
    },
    {
      "type": "node",
      "id": 3781792271,
      "lat": 13.001457,
      "lon": 77.5692378,
      "tags": {
        "amenity": "clinic",
        "healthcare": "hospital;clinic",
        "mapillary": "597400932462180",
        "name": "Neuro Centre"
      }
    },
    {
      "type": "node",
      "id": 3781794357,
      "lat": 12.99825,
      "lon": 77.56978,
      "tags": {
        "access": "yes",
        "amenity": "toilets",
        "drinking_water": "no",
        "fee": "yes",
        "wheelchair": "no"
      }
    },
    {
      "type": "node",
      "id": 3885873103,
      "lat": 13.0076007,
      "lon": 77.5710725,
      "tags": {
        "addr:street": "Sampige Road",
        "amenity": "restaurant",
        "cuisine": "regional",
        "delivery": "yes",
        "description": "Andhra cuisine",
        "name": "Shree Yummy's Palace",
        "smoking": "no",
        "takeaway": "yes",
        "wheelchair": "no"
      }
    },
    {
      "type": "node",
      "id": 3933474857,
      "lat": 13.0055578,
      "lon": 77.5711662,
      "tags": {
        "amenity": "bank",
        "atm": "yes",
        "brand": "Karur Vysya Bank",
        "brand:wikidata": "Q6373724",
        "brand:wikipedia": "en:Karur Vysya Bank",
        "name": "Karur Vysya Bank",
        "name:en": "Karur Vysya Bank",
        "name:kn": "ಕರೂರ್ ವೈಶ್ಯ ಬ್ಯಾಂಕ್",
        "short_name": "KVB",
        "source:amenity": "survey",
        "toilets:wheelchair": "no",
        "website": "https://www.kvb.co.in",
        "wheelchair": "no"
      }
    },
    {
      "type": "node",
      "id": 3933475757,
      "lat": 13.0055552,
      "lon": 77.5708738,
      "tags": {
        "amenity": "bank",
        "atm": "yes",
        "brand": "South Indian Bank",
        "brand:wikidata": "Q2044973",
        "brand:wikipedia": "en:South Indian Bank",
        "name": "South Indian Bank",
        "name:kn": "ಸೌತ್ ಇಂಡಿಯನ್ ಬ್ಯಾಂಕ್",
        "wheelchair": "no"
      }
    },
    {
      "type": "node",
      "id": 3971246020,
      "lat": 12.9942736,
      "lon": 77.5715823,
      "tags": {
        "addr:street": "Sampige Road",
        "amenity": "restaurant",
        "name": "Al Bek",
        "phone": "08023461077"
      }
    },
    {
      "type": "node",
      "id": 4007518147,
      "lat": 12.9995198,
      "lon": 77.5711521,
      "tags": {
        "name": "Asha Sweets",
        "shop": "bakery"
      }
    },
    {
      "type": "node",
      "id": 4008848437,
      "lat": 13.0078224,
      "lon": 77.5645354,
      "tags": {
        "addr:city": "Bangalore",
        "addr:postcode": "560055",
        "addr:street": "17th cross",
        "name": "EarthWalk Pvt Ltd",
        "opening_hours": "09:00-19:00",
        "shop": "travel_agency",
        "website": "http://www.earthwalk.in/"
      }
    },
    {
      "type": "node",
      "id": 4008859835,
      "lat": 13.0076756,
      "lon": 77.5640516,
      "tags": {
        "addr:city": "Bangalore",
        "addr:postcode": "560055",
        "addr:street": "8th Main Road",
        "amenity": "restaurant",
        "capacity": "20",
        "cuisine": "indian",
        "delivery": "no",
        "name": "Shristi Sagar",
        "opening_hours": "06:00-10:00",
        "smoking": "no",
        "takeaway": "yes"
      }
    },
    {
      "type": "node",
      "id": 4008910182,
      "lat": 13.0077615,
      "lon": 77.5640174,
      "tags": {
        "shop": "radiotechnics"
      }
    },
    {
      "type": "node",
      "id": 4008910183,
      "lat": 13.007887,
      "lon": 77.5639611,
      "tags": {
        "addr:city": "Bangalore",
        "addr:street": "8th Main Road",
        "name": "Recharge Only",
        "shop": "mobile_phone"
      }
    },
    {
      "type": "node",
      "id": 4008910184,
      "lat": 13.0079066,
      "lon": 77.5639571,
      "tags": {
        "amenity": "atm",
        "brand": "Corporation Bank",
        "brand:wikidata": "Q2003387",
        "name": "Corporation Bank",
        "name:kn": "ಕಾರ್ಪರೇಷನ್ ಬ್ಯಾಂಕ್ ಎಟಿಎಂ",
        "operator": "Corporation Bank",
        "operator:wikidata": "Q2003387"
      }
    },
    {
      "type": "node",
      "id": 4008910194,
      "lat": 13.0083852,
      "lon": 77.5631417,
      "tags": {
        "shop": "medical_supply"
      }
    },
    {
      "type": "node",
      "id": 4008910195,
      "lat": 13.0084004,
      "lon": 77.5631918,
      "tags": {
        "amenity": "doctors"
      }
    },
    {
      "type": "node",
      "id": 4087938731,
      "lat": 12.9985096,
      "lon": 77.5700901,
      "tags": {
        "amenity": "bank",
        "brand": "State Bank of India",
        "brand:wikidata": "Q1340361",
        "brand:wikipedia": "en:State Bank of India",
        "name": "State Bank of India",
        "name:kn": "ಭಾರತೀಯ ಸ್ಟೇಟ್ ಬ್ಯಾಂಕ್",
        "short_name": "SBI",
        "website": "https://www.sbi.co.in"
      }
    },
    {
      "type": "node",
      "id": 4173824529,
      "lat": 13.0051746,
      "lon": 77.5787373,
      "tags": {
        "amenity": "public_bookcase",
        "name": "Sapna Book House",
        "name:kn": "ಸಪ್ನ ಬುಕ್ ಹೌಸ್"
      }
    },
    {
      "type": "node",
      "id": 4173839908,
      "lat": 13.0033921,
      "lon": 77.5783685,
      "tags": {
        "addr:postcode": "560003",
        "amenity": "restaurant",
        "cuisine": "indian",
        "name": "Pakvan"
      }
    },
    {
      "type": "node",
      "id": 4258205108,
      "lat": 13.0053566,
      "lon": 77.5712414,
      "tags": {
        "amenity": "cafe",
        "name": "Oye Lassi"
      }
    },
    {
      "type": "node",
      "id": 4258205109,
      "lat": 13.0055639,
      "lon": 77.5713909,
      "tags": {
        "addr:housenumber": "596",
        "addr:postcode": "560003",
        "addr:street": "15th Cross Road",
        "name": "Reddy Electricals",
        "shop": "electronics"
      }
    },
    {
      "type": "node",
      "id": 4264037789,
      "lat": 13.0054082,
      "lon": 77.5691051,
      "tags": {
        "addr:housenumber": "33",
        "addr:postcode": "560003",
        "addr:street": "15th Cross Road",
        "amenity": "restaurant",
        "name": "Udupi Upachaar Veg",
        "name:kn": "ಉಡುಪಿ ಉಪಚಾರ ಭವನ"
      }
    },
    {
      "type": "node",
      "id": 4286285293,
      "lat": 13.0084103,
      "lon": 77.5636893,
      "tags": {
        "name": "Groceries",
        "shop": "department_store"
      }
    },
    {
      "type": "node",
      "id": 4286285432,
      "lat": 13.0084784,
      "lon": 77.5636911,
      "tags": {
        "name": "Cut 'N' style",
        "shop": "hairdresser"
      }
    },
    {
      "type": "node",
      "id": 4302369009,
      "lat": 13.0085444,
      "lon": 77.5695202,
      "tags": {
        "amenity": "cafe",
        "brand": "Chai Point",
        "brand:wikidata": "Q28173415",
        "cuisine": "coffee_shop",
        "name": "Chai Point",
        "shop": "pastry",
        "takeaway": "yes",
        "website": "https://chaipoint.com/"
      }
    },
    {
      "type": "node",
      "id": 4302369010,
      "lat": 13.0085466,
      "lon": 77.5693751,
      "tags": {
        "addr:housenumber": "64",
        "addr:street": "18th Cross",
        "name": "Pedals and Wheels",
        "phone": "+91 080 23463520",
        "phone:mobile": "+91 9880073281",
        "repair": "yes",
        "shop": "bicycle",
        "website": "https://www.pedalsandwheels.com/"
      }
    },
    {
      "type": "node",
      "id": 4444035799,
      "lat": 13.0002869,
      "lon": 77.5718472,
      "tags": {
        "addr:city": "Bangalore",
        "addr:housenumber": "18/2",
        "addr:postcode": "560003",
        "addr:street": "10th Cross, Malleswaram",
        "amenity": "restaurant",
        "cuisine": "fast_food",
        "delivery": "yes",
        "name": "Mumbai Spice",
        "opening_hours": "11:30-23:00",
        "phone": "+91 9880055571",
        "takeaway": "yes"
      }
    },
    {
      "type": "node",
      "id": 4444077849,
      "lat": 13.0007561,
      "lon": 77.5723691,
      "tags": {
        "addr:city": "Malleshwaram,Bangaloe",
        "addr:housenumber": "405",
        "addr:postcode": "560003",
        "addr:street": "Sampige Road",
        "amenity": "restaurant",
        "cuisine": "fast_food",
        "name": "Asha Sweet Center",
        "opening_hours": "08:30-22:00",
        "phone": "080 4206 7320",
        "takeaway": "yes",
        "website": "https://ashasweetcenter.com/"
      }
    },
    {
      "type": "node",
      "id": 4444099475,
      "lat": 12.9992108,
      "lon": 77.5722756,
      "tags": {
        "addr:city": "Malleshwaram,Bangaloe",
        "addr:housenumber": "10, 3",
        "addr:postcode": "560003",
        "addr:street": "8th Cross Road",
        "amenity": "restaurant",
        "cuisine": "indian;seafood",
        "name": "Chandu's Deluxe",
        "opening_hours": "11:30-20:30",
        "phone": "080 6599 6565",
        "takeaway": "yes"
      }
    },
    {
      "type": "node",
      "id": 4444115321,
      "lat": 13.0026752,
      "lon": 77.5720532,
      "tags": {
        "addr:city": "Malleshwaram,Bangalore",
        "addr:housenumber": "2nd",
        "addr:postcode": "56003",
        "addr:street": "Temple Street",
        "amenity": "restaurant",
        "diet:vegetarian": "yes",
        "name": "Sri Venkateshwara Hotel",
        "opening_hours": "09:00-22:00",
        "phone": "+91 80 4965 2659",
        "takeaway": "yes"
      }
    },
    {
      "type": "node",
      "id": 4444125315,
      "lat": 12.9972964,
      "lon": 77.5718337,
      "tags": {
        "addr:city": "Malleswaram, Bangalore",
        "addr:housenumber": "59",
        "addr:postcode": "560003",
        "addr:street": "3rd Temple Road",
        "amenity": "restaurant",
        "cuisine": "indian",
        "name": "New Fishland",
        "opening_hours": "11:30-23:00",
        "phone": "+91 8553464945",
        "takeaway": "yes"
      }
    },
    {
      "type": "node",
      "id": 4444142525,
      "lat": 13.00764,
      "lon": 77.5640167,
      "tags": {
        "addr:city": "Bangalore",
        "addr:housenumber": "food court,3rd floor,mantri square mall",
        "addr:postcode": "560055",
        "addr:street": "8th Main Road",
        "amenity": "restaurant",
        "cuisine": "indian",
        "name": "Srushti Coffee",
        "opening_hours": "11:00-23:00",
        "phone": "+91 98456 87778",
        "takeaway": "yes"
      }
    },
    {
      "type": "node",
      "id": 4444149087,
      "lat": 13.0067326,
      "lon": 77.5642658,
      "tags": {
        "addr:city": "Bangalore",
        "addr:housenumber": "35/2",
        "addr:postcode": "560003",
        "addr:street": "16th Cross Road",
        "amenity": "restaurant",
        "cuisine": "fast_food",
        "name": "Chetty's Corner",
        "opening_hours": "10:00-23:00",
        "phone": "098440 95576",
        "takeaway": "yes",
        "website": "https://www.chettyscorner.com/"
      }
    },
    {
      "type": "node",
      "id": 4444162516,
      "lat": 13.0018939,
      "lon": 77.5784746,
      "tags": {
        "addr:city": "Bangalore",
        "addr:housenumber": "Opposite Vyatikal Police Station",
        "addr:postcode": "560003",
        "addr:street": "Vyalikaval Main Road",
        "amenity": "restaurant",
        "cuisine": "indian,chinese",
        "name": "Hotel Ayodhya Upahar",
        "opening_hours": "07:00-22:30",
        "phone": "+91 96200 56546",
        "takeaway": "yes"
      }
    },
    {
      "type": "node",
      "id": 4444173276,
      "lat": 13.008246,
      "lon": 77.563189,
      "tags": {
        "addr:city": "Bangalore",
        "addr:housenumber": "133",
        "addr:street": "8th Main Road,Malleshwaram",
        "amenity": "restaurant",
        "cuisine": "regional",
        "name": "Brahmins Thatte Idli",
        "opening_hours": "07:00-22:30",
        "phone": "099006 44777",
        "takeaway": "yes",
        "website": "https://www.facebook.com/brahminsthatteidli"
      }
    },
    {
      "type": "node",
      "id": 4444983153,
      "lat": 13.0044531,
      "lon": 77.5783579,
      "tags": {
        "addr:city": "Bangalore",
        "addr:housenumber": "48",
        "addr:postcode": "560003",
        "addr:street": "Vyalikaval Main Road",
        "amenity": "restaurant",
        "cuisine": "chinese",
        "name": "Chung Wah",
        "name:kn": "ಚುಂಗ್ ವಾ",
        "opening_hours": "12:00-23:00",
        "phone": "080 23567888",
        "takeaway": "yes",
        "website": "www.chungwah.in/"
      }
    },
    {
      "type": "node",
      "id": 4444989839,
      "lat": 13.0056571,
      "lon": 77.5690976,
      "tags": {
        "addr:city": "Malleshwaram,Bangalore",
        "addr:housenumber": "5, 4th Floor, Above GIRIAS",
        "addr:postcode": "560003",
        "addr:street": "15th Cross Road",
        "amenity": "restaurant",
        "cuisine": "indian",
        "name": "1947 Restaurant",
        "opening_hours": "12:30-22:30",
        "phone": "080 2679 1213",
        "takeaway": "yes"
      }
    },
    {
      "type": "node",
      "id": 4445397516,
      "lat": 12.9951627,
      "lon": 77.5738144,
      "tags": {
        "addr:city": "Bangalore",
        "addr:district": "Bengaluru Urban",
        "addr:full": "No: 2, Sirur Park Road (Behind Natraja Theatre) Seshadripuram",
        "addr:housenumber": "191/1",
        "addr:postcode": "560020",
        "addr:state": "Karnataka",
        "addr:street": ", 2nd cross, Link Road, Malleswaram",
        "amenity": "hospital",
        "name": "Dr Solankis Eye Hospital",
        "phone": "080 2356 2211",
        "source": "OpenGovernmentData"
      }
    },
    {
      "type": "node",
      "id": 4445426218,
      "lat": 13.0009261,
      "lon": 77.5732095,
      "tags": {
        "addr:city": "Bangalore",
        "addr:housenumber": "5/19",
        "addr:postcode": "560003",
        "addr:street": "1st Main, Vyalikaval",
        "amenity": "clinic",
        "name": "Ramani Orthopaedic Hospital",
        "phone": "080 2331 1295"
      }
    },
    {
      "type": "node",
      "id": 4445430292,
      "lat": 13.0053923,
      "lon": 77.5713352,
      "tags": {
        "addr:city": "bangalore",
        "addr:housenumber": "316",
        "addr:postcode": "560003",
        "addr:street": "3rd Flr, Srikrupa, Nxt To Adiga Hotel, 15th Crs, Sampige Mn Rd, Malleswaram",
        "amenity": "hospital",
        "healthcare": "hospital",
        "name": "Sri Sanjeevini Cold Laser Therapy",
        "phone": "080663 79862"
      }
    },
    {
      "type": "node",
      "id": 4445433675,
      "lat": 13.0057354,
      "lon": 77.5763934,
      "tags": {
        "addr:city": "bangalore",
        "addr:housenumber": "33",
        "addr:postcode": "560003",
        "addr:street": "2nd Main Road, Near-Pizza Hut, Vyalikaval",
        "amenity": "pharmacy",
        "healthcare": "pharmacy",
        "name": "Keshava Medicals And General Stores",
        "phone": "080 4113 8233"
      }
    },
    {
      "type": "node",
      "id": 4445443065,
      "lat": 13.0072979,
      "lon": 77.5708356,
      "tags": {
        "addr:city": "Bangalore",
        "addr:postcode": "560003",
        "addr:street": "17th Cross, Sampige Road, Malleshwaram",
        "amenity": "clinic",
        "name": "Sri Ranga Pulmonary Clinic",
        "phone": "080 2334 7483"
      }
    },
    {
      "type": "node",
      "id": 4445451366,
      "lat": 13.0081894,
      "lon": 77.5638484,
      "tags": {
        "addr:city": "Bangalore",
        "addr:housenumber": "112",
        "addr:postcode": "560055",
        "addr:street": "8th Main, 18th Cross, H V Nanjundaiah Rd, Malleshwaram",
        "amenity": "pharmacy",
        "healthcare": "pharmacy",
        "name": "Sri Ganesh Medicals And Surgicals",
        "phone": "080 2331 2346"
      }
    },
    {
      "type": "node",
      "id": 4446528557,
      "lat": 13.0008545,
      "lon": 77.5631699,
      "tags": {
        "addr:city": "bangalore",
        "addr:housenumber": "19",
        "addr:postcode": "560003",
        "addr:street": "8th Main Rd, Malleshwaram",
        "amenity": "pharmacy",
        "name": "Pushyamee Medicals",
        "phone": "+91 80 2356 5016"
      }
    },
    {
      "type": "node",
      "id": 4446553289,
      "lat": 12.9966939,
      "lon": 77.5687228,
      "tags": {
        "addr:city": "bangalore",
        "addr:housenumber": "49",
        "addr:postcode": "560003",
        "addr:street": "5th Cross, 4th Main,Malleshwaram",
        "amenity": "restaurant",
        "cuisine": "regional",
        "name": "Hotel Moon Light",
        "opening_hours": "12:00-23:00",
        "outdoor_seating": "no",
        "phone": "080 23442993"
      }
    },
    {
      "type": "node",
      "id": 4446606617,
      "lat": 13.0081862,
      "lon": 77.5709853,
      "tags": {
        "addr:city": "Bangalore",
        "addr:housenumber": "268",
        "addr:postcode": "560003",
        "addr:street": "Near 18th Cross, Sampige Road, Malleshwaram",
        "amenity": "restaurant",
        "cuisine": "pizza",
        "name": "Pizza stop",
        "opening_hours": "11:00-23:00",
        "phone": "+91 7760830320",
        "website": "pizzastop.in"
      }
    },
    {
      "type": "node",
      "id": 4446613297,
      "lat": 13.0024248,
      "lon": 77.571574,
      "tags": {
        "amenity": "pharmacy",
        "healthcare": "pharmacy"
      }
    },
    {
      "type": "node",
      "id": 4446613298,
      "lat": 13.0023294,
      "lon": 77.5719173,
      "tags": {
        "addr:city": "bangalore",
        "addr:housenumber": "40",
        "addr:postcode": "560003",
        "addr:street": "12th Cross, Kodandarampura, Near-Prasidh Clinic, Malleshwaram",
        "amenity": "pharmacy",
        "healthcare": "pharmacy",
        "name": "Megha Medicals",
        "name:kn": "ಮೇಘ ಮೆಡಿಕಲ್ಸ್",
        "phone": "+91 80 2334 7034"
      }
    },
    {
      "type": "node",
      "id": 4446632053,
      "lat": 12.9987069,
      "lon": 77.5699054,
      "tags": {
        "addr:city": "bangalore",
        "addr:housenumber": "4",
        "addr:postcode": "560003",
        "addr:street": "Near Devi Prasad Home Appliances, 7th & 8th Cross, West Park RD, Malleshwaram",
        "amenity": "restaurant",
        "cuisine": "regional",
        "name": "Iyer Mess",
        "opening_hours": "11:30-15:15,19:15-21:15",
        "phone": "080 23343418"
      }
    },
    {
      "type": "node",
      "id": 4446632255,
      "lat": 13.0021664,
      "lon": 77.5742095,
      "tags": {
        "addr:city": "Bangalore",
        "addr:housenumber": "812",
        "addr:postcode": "560003",
        "addr:street": "11th Cross, Vyalikaval, Near-Sukruthi Eye Care",
        "amenity": "clinic",
        "healthcare": "clinic",
        "name": "Sri Manjunatha Clinic",
        "phone": "+918023448987"
      }
    },
    {
      "type": "node",
      "id": 4446967197,
      "lat": 13.0058891,
      "lon": 77.571338,
      "tags": {
        "addr:city": "bangalore",
        "addr:housenumber": "311",
        "addr:postcode": "560003",
        "addr:street": "16th Cross, Sampige Road,",
        "amenity": "pharmacy",
        "healthcare": "pharmacy",
        "name": "Isha Diagnostics",
        "phone": "8023562111",
        "website": "https://ishadiagnostics.com/"
      }
    },
    {
      "type": "node",
      "id": 4446978239,
      "lat": 12.9982337,
      "lon": 77.570518,
      "tags": {
        "addr:city": "bangalore",
        "addr:postcode": "560003",
        "addr:street": "7th Cross, Sampige Road, Malleshwaram",
        "amenity": "restaurant",
        "cuisine": "regional",
        "name": "Antarastriya",
        "name:kn": "ಅಂತರಾಷ್ಟಿಯ",
        "opening_hours": "12:00-22:00",
        "phone": "+91 9741412613"
      }
    },
    {
      "type": "node",
      "id": 4446989687,
      "lat": 13.0071899,
      "lon": 77.5682268,
      "tags": {
        "addr:city": "Bangalore",
        "addr:postcode": "560003",
        "addr:street": "4th Main, 16th Cross, Malleshwaram",
        "amenity": "restaurant",
        "cuisine": "regional",
        "diet:vegetarian": "yes",
        "name": "Paakashala",
        "opening_hours": "07:30-22:00",
        "website": "https://paakashala.com/"
      }
    },
    {
      "type": "node",
      "id": 4446992387,
      "lat": 13.0050001,
      "lon": 77.5654236,
      "tags": {
        "addr:city": "Bangalore",
        "addr:housenumber": "139",
        "addr:postcode": "560003",
        "addr:street": "4th Floor, 8th Main, Above Nilgiris, Near Bumble Bee Studio, Malleshwaram",
        "amenity": "restaurant",
        "cuisine": "regional",
        "name": "Big Straw Boba Bistro",
        "opening_hours": "11:00-21:00",
        "phone": "+91 9945164425",
        "website": "bigstraw.in"
      }
    },
    {
      "type": "node",
      "id": 4446993180,
      "lat": 13.0007571,
      "lon": 77.563817,
      "tags": {
        "addr:city": "bangalore",
        "addr:postcode": "560003",
        "addr:street": "Opposite Manipal North Side Hospital, Near Malleshwaram Railway Station, Malleshwaram",
        "amenity": "restaurant",
        "cuisine": "regional",
        "delivery": "no",
        "name": "Sri Raghavendra Store",
        "opening_hours": "06:00-13:00,16:00-21:00",
        "outdoor_seating": "no",
        "phone": "080 23348477",
        "takeaway": "yes"
      }
    },
    {
      "type": "node",
      "id": 4447001196,
      "lat": 12.9985408,
      "lon": 77.5695317,
      "tags": {
        "addr:city": "bangalore",
        "addr:housenumber": "147",
        "addr:postcode": "560003",
        "addr:street": "7th Cross, Near Malleswaram Association, Below Axis Bank, Malleshwaram",
        "amenity": "restaurant",
        "check_date": "2023-07-01",
        "cuisine": "regional",
        "mapillary": "974297190378633",
        "name": "Satvik Grand"
      }
    },
    {
      "type": "node",
      "id": 4447006716,
      "lat": 13.0012483,
      "lon": 77.5723483,
      "tags": {
        "addr:city": "Bangalore",
        "addr:housenumber": "92",
        "addr:postcode": "560003",
        "addr:street": "1st Main, 10th Cross Temple Road, Sampige Road, Malleshwaram",
        "amenity": "restaurant",
        "cuisine": "regional",
        "name": "Suchi ruchi veg",
        "opening_hours": "11:00-23:30",
        "phone": "91 9448804902"
      }
    },
    {
      "type": "node",
      "id": 4447006769,
      "lat": 13.0082375,
      "lon": 77.566471,
      "tags": {
        "addr:city": "Bangalore",
        "addr:housenumber": "5/3",
        "addr:postcode": "560003",
        "addr:street": "margosa 18th Cross, Malleswaram",
        "amenity": "clinic",
        "name": "Kottakkal Arya Vaidya Shala",
        "name:kn": "ಕೊಟ್ಟಕಲ್ ಆರ್ಯ ವೈದ್ಯಶಾಲ",
        "phone": "+91 80 2346 2358",
        "source": "www.justdial.com",
        "website": "https://www.aryavaidyasala.com/"
      }
    },
    {
      "type": "node",
      "id": 4447006919,
      "lat": 13.0026859,
      "lon": 77.5738983,
      "tags": {
        "addr:city": "Bangalore",
        "addr:housenumber": "40",
        "addr:postcode": "560003",
        "addr:street": "12th Cross, Kodandarampura, Near-Prasidh Clinic, Malleshwaram",
        "amenity": "pharmacy",
        "healthcare": "pharmacy",
        "name": "Megha Medicals",
        "name:kn": "ಮೇಘ ಮೆಡಿಕಲ್ಸ್",
        "phone": "080 2334 7034"
      }
    },
    {
      "type": "node",
      "id": 4447007999,
      "lat": 13.0019448,
      "lon": 77.5716235,
      "tags": {
        "addr:city": "Bangalore",
        "addr:housenumber": "42",
        "addr:postcode": "560003",
        "addr:street": "Vyalikaval, 2nd Main, Opposite-Rajesh Hotel, Sadashiv Nagar",
        "amenity": "pharmacy",
        "healthcare": "pharmacy",
        "name": "Janhavi Medicals Malleshwaram",
        "phone": "080 2336 6503"
      }
    },
    {
      "type": "node",
      "id": 4447009028,
      "lat": 13.0020076,
      "lon": 77.5713914,
      "tags": {
        "addr:city": "Bangalore",
        "addr:housenumber": "17",
        "addr:postcode": "560003",
        "addr:street": "1, 3rd Cross Rd, Malleshwaram",
        "amenity": "pharmacy",
        "healthcare": "pharmacy",
        "name": "K C G Pharma And Generals",
        "phone": "094485 11024"
      }
    },
    {
      "type": "node",
      "id": 4447010696,
      "lat": 13.0081626,
      "lon": 77.5645162,
      "tags": {
        "addr:city": "Bangalore",
        "addr:housenumber": "83/87",
        "addr:postcode": "560003",
        "addr:street": ", Soundarya Apartment, 5, Malleshwaram",
        "amenity": "clinic",
        "name": "Mera Health Care Private Limited",
        "phone": "080 2331 7521"
      }
    },
    {
      "type": "node",
      "id": 4447010999,
      "lat": 12.9961953,
      "lon": 77.5715924,
      "tags": {
        "addr:city": "Bangalore",
        "addr:housenumber": "502",
        "addr:postcode": "560003",
        "addr:street": "3rd Cross, Sampige Road, Malleshwaram",
        "amenity": "restaurant",
        "cuisine": "regional",
        "name": "A1 Biryani Restaurant",
        "opening_hours": "11:00-23:00",
        "phone": "+91 7411144480"
      }
    },
    {
      "type": "node",
      "id": 4447013196,
      "lat": 13.005882,
      "lon": 77.5761593,
      "tags": {
        "addr:city": "bangalore",
        "addr:postcode": "560003",
        "addr:street": "Gayathri Devi Park Extension, Kodandarampura",
        "amenity": "pharmacy",
        "healthcare": "pharmacy",
        "name": "Medall Clumax Diagnostics",
        "phone": "+9180 4933 7777",
        "source": "www.justdial.com",
        "website": "https://www.medall.in/"
      }
    },
    {
      "type": "node",
      "id": 4447016309,
      "lat": 13.0011281,
      "lon": 77.5724061,
      "tags": {
        "addr:city": "Bangalore",
        "addr:housenumber": "27",
        "addr:postcode": "560003",
        "addr:street": "10th Cross Rd, Yalappa Garden, Malleshwaram, Bengaluru",
        "amenity": "restaurant",
        "check_date": "2023-10-02",
        "cuisine": "regional",
        "name": "Holige Mane",
        "opening_hours": "10:00-21:30",
        "phone": "+91 97317 31105"
      }
    },
    {
      "type": "node",
      "id": 4447076790,
      "lat": 13.0022281,
      "lon": 77.5739218,
      "tags": {
        "addr:city": "Bangalore",
        "addr:housenumber": "16",
        "addr:postcode": "560003",
        "addr:street": "12th cross, Palace Guttahalli main road, Malleshwaram",
        "amenity": "pharmacy",
        "healthcare": "pharmacy",
        "name": "Roots Advanced Hair Transplant Center",
        "phone": "+9194821 66333",
        "source": "www.asklaila.com",
        "website": "rootshairclinic.com"
      }
    },
    {
      "type": "node",
      "id": 4447171840,
      "lat": 12.9947201,
      "lon": 77.5715879,
      "tags": {
        "addr:city": "Bangalore",
        "addr:housenumber": "1",
        "addr:postcode": "560003",
        "addr:street": "2nd Cross Rd, Malleshwaram",
        "amenity": "hospital",
        "name": "The Homoeo World",
        "phone": "080 2346 1995"
      }
    },
    {
      "type": "node",
      "id": 4447193074,
      "lat": 13.006544,
      "lon": 77.5647739,
      "tags": {
        "addr:city": "Bangalore",
        "addr:housenumber": "136",
        "addr:postcode": "560003",
        "addr:street": "Near MES College, 8th Main, 15th Cross, Malleshwaram",
        "amenity": "restaurant",
        "cuisine": "regional",
        "name": "viking",
        "opening_hours": "Mo-Su 11:30-15:30,18:30-23:30",
        "phone": "080 23444411"
      }
    },
    {
      "type": "node",
      "id": 4448630864,
      "lat": 12.9977152,
      "lon": 77.5695405,
      "tags": {
        "addr:city": "bangalore",
        "addr:housenumber": "40",
        "addr:postcode": "560003",
        "addr:street": "Margosa Road",
        "check_date": "2023-07-01",
        "mapillary": "970079694184738",
        "name": "Lawrence and Mayo",
        "opening_hours": "week 9:30-18:30",
        "phone": "+(91)-80-23311392",
        "phone_1": "23310539",
        "shop": "optician",
        "website": "https://stores.lawrenceandmayo.co.in/"
      }
    },
    {
      "type": "node",
      "id": 4488025977,
      "lat": 13.0062209,
      "lon": 77.574224,
      "tags": {
        "addr:city": "bangalore",
        "addr:housenumber": "72/4",
        "addr:postcode": "560003",
        "addr:street": "16th Cross, Vyalikaval, Malleswaram, Near Sankey Tank And Chowdiah Memorial Hall, Bhadrappa Layout, Vyalikaval, Kodandarampura, Malleshwaram, Bengaluru, Karnataka 560003",
        "name": "Rakhra Sports House",
        "opening_hours": "10:30-20:30",
        "phone": "080 2334 2909",
        "shop": "sports"
      }
    },
    {
      "type": "node",
      "id": 4488035143,
      "lat": 12.9974177,
      "lon": 77.5721787,
      "tags": {
        "addr:city": "Malleswaram, Bangalore",
        "addr:housenumber": "224",
        "addr:postcode": "560003",
        "addr:street": "Sampige Road, Opposite Sai Temple, Sampige Road, Bhadrappa Layout, Malleshwaram",
        "name": "olympic the sports shop",
        "opening_hours": "10:00-21:30",
        "phone": "080 2346 4839",
        "shop": "sports",
        "website": "olympicthesportshop.in"
      }
    },
    {
      "type": "node",
      "id": 4488516241,
      "lat": 12.9993517,
      "lon": 77.5766782,
      "tags": {
        "addr:city": "Bangalore",
        "addr:housenumber": "No23",
        "addr:postcode": "560003",
        "addr:street": "Palace Guttahalli Main Road, Malleswaram",
        "name": "Roots Beauty Clinic",
        "opening_hours": "10:00-21:00",
        "phone": "+91-80-23441974",
        "shop": "beauty",
        "website": "www.rootspa.in"
      }
    },
    {
      "type": "node",
      "id": 4530000597,
      "lat": 13.0056414,
      "lon": 77.5689362,
      "tags": {
        "addr:street": "15th Cross Road",
        "amenity": "bank",
        "brand": "ICICI Bank",
        "brand:wikidata": "Q1653258",
        "check_date": "2025-10-27",
        "name": "ICICI Bank",
        "name:en": "ICICI Bank",
        "name:kn": "ಐಸಿಐಸಿಐ ಬ್ಯಾಂಕು",
        "short_name": "ICICI",
        "website": "https://www.icicibank.com"
      }
    },
    {
      "type": "node",
      "id": 4530031501,
      "lat": 13.0056405,
      "lon": 77.5691365,
      "tags": {
        "check_date": "2025-10-27",
        "name": "Girias",
        "name:en": "Girias",
        "name:kn": "ಗಿರಿಯಾಸ್",
        "shop": "electronics"
      }
    },
    {
      "type": "node",
      "id": 4530031502,
      "lat": 13.0056769,
      "lon": 77.5691145,
      "tags": {
        "addr:street": "Margosa Road",
        "amenity": "bank",
        "brand": "HDFC Bank",
        "brand:wikidata": "Q631047",
        "check_date": "2025-10-27",
        "name": "HDFC Bank",
        "name:en": "HDFC Bank",
        "name:kn": "ಎಚ್ ಡಿ ಎಫ್ ಸಿ ಬ್ಯಾಂಕ್",
        "short_name": "HDFC"
      }
    },
    {
      "type": "node",
      "id": 4530032204,
      "lat": 13.0056199,
      "lon": 77.568864,
      "tags": {
        "leisure": "fitness_centre",
        "name": "Gold Gym",
        "name:en": "Gold Gym"
      }
    },
    {
      "type": "node",
      "id": 4578768492,
      "lat": 13.006013,
      "lon": 77.5785274,
      "tags": {
        "addr:housenumber": "1",
        "addr:postcode": "560003",
        "addr:street": "Vyalikaval Main Road",
        "amenity": "doctors",
        "healthcare": "doctor",
        "name": "Medall Clumax Diagnostics",
        "name:en": "MEDALL CLUMAX DIAGNOSTICS",
        "opening_hours": "Mo-Su 08:00-21:00",
        "phone": "08049337777",
        "website": "https://www.medall.in/"
      }
    },
    {
      "type": "node",
      "id": 4623723103,
      "lat": 12.9962755,
      "lon": 77.5733477,
      "tags": {
        "amenity": "atm",
        "brand": "HDFC Bank",
        "brand:wikidata": "Q631047",
        "name": "HDFC Bank",
        "operator": "HDFC Bank",
        "operator:wikidata": "Q631047",
        "short_name": "HDFC"
      }
    },
    {
      "type": "node",
      "id": 4928125521,
      "lat": 13.0055374,
      "lon": 77.5711178,
      "tags": {
        "addr:street": "15th Cross Road",
        "amenity": "cafe",
        "name": "ಬಿಸ್ಕ",
        "name:en": "Biska",
        "name:kn": "ಬಿಸ್ಕ"
      }
    },
    {
      "type": "node",
      "id": 5002993742,
      "lat": 13.0053606,
      "lon": 77.568853,
      "tags": {
        "amenity": "theatre",
        "check_date": "2025-10-27",
        "name": "Shukra Auditorium",
        "name:en": "Shukra Auditorium",
        "name:kn": "ಶುಕ್ರ ಆಡಿಟೋರಿಯಂ"
      }
    },
    {
      "type": "node",
      "id": 5008973980,
      "lat": 13.0056696,
      "lon": 77.5692888,
      "tags": {
        "addr:street": "183, 15th Cross, Malleshwaram, Margosa Road, Malleshwaram West, Bengaluru, Karnataka 560003",
        "amenity": "fast_food",
        "check_date": "2025-10-27",
        "cuisine": "regional",
        "name": "Veena Stores",
        "opening_hours": "Mo-Sa 06:30-12:00, 15:30-21:00; Su 06:30-12:00",
        "phone": "080 2334 4838",
        "takeaway": "yes"
      }
    },
    {
      "type": "node",
      "id": 5061380658,
      "lat": 12.9961873,
      "lon": 77.5650383,
      "tags": {
        "name": "Iyer's Coffee",
        "shop": "coffee"
      }
    },
    {
      "type": "node",
      "id": 5061380659,
      "lat": 12.9966687,
      "lon": 77.5728097,
      "tags": {
        "amenity": "bank",
        "brand": "Indian Bank",
        "brand:wikidata": "Q2003789",
        "brand:wikipedia": "en:Indian Bank",
        "name": "Indian Bank",
        "name:kn": "ಇಂಡಿಯನ್ ಬ್ಯಾಂಕ್"
      }
    },
    {
      "type": "node",
      "id": 5061380660,
      "lat": 12.9955482,
      "lon": 77.5737403,
      "tags": {
        "brand": "TVS",
        "brand:wikidata": "Q3300084",
        "name": "TVS",
        "shop": "motorcycle"
      }
    },
    {
      "type": "node",
      "id": 5109182061,
      "lat": 12.9982553,
      "lon": 77.5692914,
      "tags": {
        "check_date": "2024-05-12",
        "name": "Nandini Milk Parlour",
        "name:kn": "ನಂದಿನಿ ಹಾಲಿನ ಅಂಗಡಿ",
        "shop": "dairy"
      }
    },
    {
      "type": "node",
      "id": 5109182072,
      "lat": 13.0087266,
      "lon": 77.5640845,
      "tags": {
        "name": "Boston Cotton",
        "shop": "clothes"
      }
    },
    {
      "type": "node",
      "id": 5109214489,
      "lat": 13.0085363,
      "lon": 77.5690421,
      "tags": {
        "amenity": "bank",
        "atm": "yes",
        "brand": "Kotak Mahindra Bank",
        "brand:wikidata": "Q2040404",
        "name": "Kotak Mahindra Bank",
        "name:kn": "ಕೋಟಕ್ ಮಹಿಂದ್ರ ಬ್ಯಾಂಕ್"
      }
    },
    {
      "type": "node",
      "id": 5175027884,
      "lat": 12.9961986,
      "lon": 77.5651338,
      "tags": {
        "amenity": "fast_food",
        "name": "SLN Food Point"
      }
    },
    {
      "type": "node",
      "id": 5175027885,
      "lat": 12.9966191,
      "lon": 77.5675674,
      "tags": {
        "check_date": "2024-08-11",
        "name": "Mahendra Diamonds and Jewellers",
        "shop": "jewelry"
      }
    },
    {
      "type": "node",
      "id": 5175027886,
      "lat": 12.9966897,
      "lon": 77.5686323,
      "tags": {
        "amenity": "bank",
        "name": "SVC Co-Operative Bank Ltd."
      }
    },
    {
      "type": "node",
      "id": 5175027887,
      "lat": 12.9969169,
      "lon": 77.5685986,
      "tags": {
        "amenity": "toilets"
      }
    },
    {
      "type": "node",
      "id": 5175027889,
      "lat": 12.9967704,
      "lon": 77.573453,
      "tags": {
        "leisure": "fitness_centre",
        "name": "Fitness World"
      }
    },
    {
      "type": "node",
      "id": 5175027890,
      "lat": 12.9967906,
      "lon": 77.5734927,
      "tags": {
        "amenity": "dentist",
        "healthcare": "dentist",
        "name": "Specialists Dental Clinic"
      }
    },
    {
      "type": "node",
      "id": 5227399598,
      "lat": 12.9961831,
      "lon": 77.5642198,
      "tags": {
        "name": "Queen's Studio",
        "shop": "photo"
      }
    },
    {
      "type": "node",
      "id": 5227399599,
      "lat": 12.9961741,
      "lon": 77.5643288,
      "tags": {
        "name": "Variety Footware",
        "shop": "shoes"
      }
    },
    {
      "type": "node",
      "id": 5229456533,
      "lat": 12.9967132,
      "lon": 77.5693101,
      "tags": {
        "amenity": "fast_food",
        "brand": "Indira Canteen",
        "brand:wikidata": "Q36164828",
        "cuisine": "south_indian",
        "delivery": "no",
        "name": "Indira Canteen",
        "note": "Dattatreya Temple Ward",
        "operator": "BBMP",
        "takeaway": "no"
      }
    },
    {
      "type": "node",
      "id": 5229456534,
      "lat": 12.9966535,
      "lon": 77.5702704,
      "tags": {
        "amenity": "bank",
        "brand": "Syndicate Bank",
        "brand:wikidata": "Q2004088",
        "brand:wikipedia": "en:Syndicate Bank",
        "name": "Syndicate Bank",
        "name:kn": "ಸಿಂಡಿಕೇಟ್ ಬ್ಯಾಂಕ್"
      }
    },
    {
      "type": "node",
      "id": 5229456535,
      "lat": 12.9966843,
      "lon": 77.57085,
      "tags": {
        "amenity": "bank",
        "brand": "Canara Bank",
        "brand:en": "Canara Bank",
        "brand:hi": "केनरा बैंक",
        "brand:kn": "ಕೆನರಾ ಬ್ಯಾಂಕ್",
        "brand:pa": "ਕੇਨਰਾ ਬੈਂਕ",
        "brand:pnb": "کینرا بینک",
        "brand:ur": "کینرا بینک",
        "brand:wikidata": "Q2003777",
        "brand:wikipedia": "en:Canara Bank",
        "brand:wikipedia:pa": "ਕੇਨਰਾ ਬੈਂਕ",
        "name": "Canara Bank",
        "name:en": "Canara Bank",
        "name:hi": "केनरा बैंक",
        "name:kn": "ಕೆನರಾ ಬ್ಯಾಂಕ್",
        "name:pa": "ਕੇਨਰਾ ਬੈਂਕ",
        "name:pnb": "کینرا بینک",
        "name:ur": "کینرا بینک"
      }
    },
    {
      "type": "node",
      "id": 5402307931,
      "lat": 13.0053962,
      "lon": 77.5671027,
      "tags": {
        "brand": "Maruti Suzuki",
        "brand:wikidata": "Q963718",
        "name": "Maruti Suzuki Arena",
        "name:kn": "ಮಾರುತಿ ಸುಜುಕಿ",
        "shop": "car"
      }
    },
    {
      "type": "node",
      "id": 5402308125,
      "lat": 12.9945667,
      "lon": 77.5691333,
      "tags": {
        "amenity": "bar"
      }
    },
    {
      "type": "node",
      "id": 5611358758,
      "lat": 12.9979072,
      "lon": 77.5695359,
      "tags": {
        "amenity": "restaurant",
        "check_date": "2023-07-01",
        "cuisine": "regional",
        "mapillary": "1368363073742740",
        "name": "Aramane Donne Biriyani"
      }
    },
    {
      "type": "node",
      "id": 5685637244,
      "lat": 13.0068403,
      "lon": 77.5711956,
      "tags": {
        "amenity": "atm",
        "brand": "State Bank of India",
        "brand:wikidata": "Q1340361",
        "name": "State Bank of India",
        "name:kn": "ಭಾರತೀಯ ಸ್ಟೇಟ್ ಬ್ಯಾಂಕ್",
        "operator": "State Bank of India",
        "operator:wikidata": "Q1340361",
        "short_name": "SBI"
      }
    },
    {
      "type": "node",
      "id": 5685637283,
      "lat": 13.0062108,
      "lon": 77.5712536,
      "tags": {
        "amenity": "post_office",
        "brand": "Desk to Desk Courier & Cargo",
        "brand:short": "DTDC",
        "brand:wikidata": "Q55608802",
        "name": "DTDC",
        "operator": "Desk to Desk Courier & Cargo",
        "operator:short": "DTDC",
        "operator:wikidata": "Q55608802"
      }
    },
    {
      "type": "node",
      "id": 5685647407,
      "lat": 12.9999132,
      "lon": 77.571399,
      "tags": {
        "email": "rachoteshwarcommunication@gmail.com",
        "name": "Rachoteshwar Communication",
        "phone": "08041626111",
        "shop": "computer"
      }
    },
    {
      "type": "node",
      "id": 6108140990,
      "lat": 12.9975806,
      "lon": 77.5696166,
      "tags": {
        "access": "yes",
        "amenity": "toilets",
        "fee": "yes"
      }
    },
    {
      "type": "node",
      "id": 6419042636,
      "lat": 12.9988158,
      "lon": 77.5705059,
      "tags": {
        "addr:street": "8th cross, Malleshwaram",
        "amenity": "community_centre",
        "name": "Vasavi Mahal"
      }
    },
    {
      "type": "node",
      "id": 6699734792,
      "lat": 13.0073672,
      "lon": 77.5659241,
      "tags": {
        "addr:city": "Bengaluru",
        "addr:country": "IN",
        "addr:housenumber": "37",
        "addr:postcode": "560003",
        "addr:street": "17th Cross Road",
        "amenity": "coworking_space",
        "email": "hello@jaaga.in",
        "name": "Jaaga DNA",
        "office": "coworking",
        "opening_hours": "9:00-18:30",
        "operator": "Jaaga",
        "website": "https://www.jaaga.in/"
      }
    },
    {
      "type": "node",
      "id": 6860307802,
      "lat": 12.9987692,
      "lon": 77.5695013,
      "tags": {
        "name": "Boots",
        "shop": "bag"
      }
    },
    {
      "type": "node",
      "id": 6886594855,
      "lat": 12.9960444,
      "lon": 77.5693788,
      "tags": {
        "addr:city": "Bengaluru",
        "addr:district": "BENGALURU URBAN",
        "addr:full": "Malleshwaram",
        "addr:postcode": "560003",
        "addr:state": "Karnataka",
        "amenity": "blood_bank",
        "contact:mobile": "8722604100",
        "contact:phone": "8023343791",
        "name": "K. C. General Hospital Blood Bank",
        "operator:type": "government",
        "source": "OpenGovernmentData"
      }
    },
    {
      "type": "node",
      "id": 6937892396,
      "lat": 12.9981979,
      "lon": 77.568151,
      "tags": {
        "addr:district": "Bengaluru Urban",
        "addr:full": "53, 7Th Cross , 4Th Main Road, Malleswaram",
        "addr:postcode": "560003",
        "addr:state": "Karnataka",
        "amenity": "hospital",
        "name": "Dr. B. Venkatasubbarao Memorial Hospital",
        "source": "OpenGovernmentData"
      }
    },
    {
      "type": "node",
      "id": 6937909849,
      "lat": 13.0020449,
      "lon": 77.5723708,
      "tags": {
        "addr:district": "Bengaluru Urban",
        "addr:full": "No.33, II Main Road, Near Police Station, Vyalikaval",
        "addr:postcode": "560003",
        "addr:state": "Karnataka",
        "amenity": "clinic",
        "healthcare": "clinic",
        "name": "Curad My Center For Diabetes",
        "operator:type": "private",
        "source": "OpenGovernmentData",
        "website": "http://dpal.kar.nic.in/Kanunu%20padakosha%20PDF%20Files/Recognised%20Hospitals.pdf"
      }
    },
    {
      "type": "node",
      "id": 6938414183,
      "lat": 12.9998457,
      "lon": 77.5663653,
      "tags": {
        "addr:district": "Bengaluru Urban",
        "addr:full": "28, 7Th Main 9Th Cross, Malleshwaram",
        "addr:postcode": "560003",
        "addr:state": "Karnataka",
        "amenity": "hospital",
        "name": "Jupiter Hospital And Institute Of Vascular Surgery",
        "source": "OpenGovernmentData"
      }
    },
    {
      "type": "node",
      "id": 6938690611,
      "lat": 13.0020083,
      "lon": 77.5763887,
      "tags": {
        "addr:district": "Bengaluru Urban",
        "addr:full": "148, Vyalikval Malleswaram Xi Cross Malleshwaram",
        "addr:postcode": "560003",
        "addr:state": "Karnataka",
        "amenity": "clinic",
        "name": "Sukruthi Eye Care Microsurgical Centre",
        "source": "OpenGovernmentData"
      }
    },
    {
      "type": "node",
      "id": 6938690612,
      "lat": 13.0004311,
      "lon": 77.5663774,
      "tags": {
        "addr:district": "Bengaluru Urban",
        "addr:full": "25/1 Prajna 7Nth Main 9Th Cross Malleswaram",
        "addr:postcode": "560003",
        "addr:state": "Karnataka",
        "amenity": "clinic",
        "name": "Indira Eye Clinic",
        "source": "OpenGovernmentData"
      }
    },
    {
      "type": "node",
      "id": 6938690614,
      "lat": 13.0058226,
      "lon": 77.5694512,
      "tags": {
        "addr:district": "Bengaluru Urban",
        "addr:full": "No. 95 and 96, Margosa Road, 15Th Cross, Malleswaram",
        "addr:postcode": "560055",
        "addr:state": "Karnataka",
        "amenity": "hospital",
        "check_date": "2024-05-12",
        "name": "Lakshmi Maternity Home",
        "source": "OpenGovernmentData"
      }
    },
    {
      "type": "node",
      "id": 6938690615,
      "lat": 13.0074887,
      "lon": 77.5708352,
      "tags": {
        "addr:district": "Bengaluru Urban",
        "addr:full": "260, Sampinge Road Near 17Th Cross Malleshwaram",
        "addr:postcode": "560003",
        "addr:state": "Karnataka",
        "amenity": "clinic",
        "name": "Shaker Nursing Home",
        "source": "OpenGovernmentData"
      }
    },
    {
      "type": "node",
      "id": 6938690621,
      "lat": 13.0077265,
      "lon": 77.5696993,
      "tags": {
        "addr:district": "Bengaluru Urban",
        "addr:full": "# 90/1, West Park Road,Between 17Th And 18Th Cross,Malleswaram",
        "addr:postcode": "560055",
        "addr:state": "Karnataka",
        "amenity": "hospital",
        "name": "Manjunatha Maternity Home and Surgical Centre",
        "source": "OpenGovernmentData"
      }
    },
    {
      "type": "node",
      "id": 6938717990,
      "lat": 12.9966677,
      "lon": 77.5716037,
      "tags": {
        "addr:district": "Bengaluru Urban",
        "addr:full": "24/1 5Th Cross Malleswaram",
        "addr:postcode": "560003",
        "addr:state": "Karnataka",
        "amenity": "hospital",
        "healthcare": "hospital",
        "name": "Malleswaram Eye Day Care Hospital - Bengalore",
        "source": "OpenGovernmentData"
      }
    },
    {
      "type": "node",
      "id": 6938775802,
      "lat": 12.9989898,
      "lon": 77.5776748,
      "tags": {
        "addr:district": "Bengaluru Urban",
        "addr:full": "No. 2 Muneswara Block, Vinayaka Circle, Palace Guttahalli Main Road",
        "addr:postcode": "560003",
        "addr:state": "Karnataka",
        "amenity": "clinic",
        "name": "Anugraha Nursing Home",
        "source": "OpenGovernmentData"
      }
    },
    {
      "type": "node",
      "id": 6944992838,
      "lat": 12.9981241,
      "lon": 77.5715661,
      "tags": {
        "addr:district": "Bengaluru Urban",
        "addr:full": "452, R S Plaza, 1st Floor(Above Kids Kingdom),Between 6Th & 7Th Cross, Sampige Road",
        "addr:postcode": "560003",
        "addr:state": "Karnataka",
        "amenity": "clinic",
        "healthcare": "clinic",
        "name": "Sudharsana Nethralaya",
        "source": "OpenGovernmentData"
      }
    },
    {
      "type": "node",
      "id": 6948582739,
      "lat": 13.0059324,
      "lon": 77.57696,
      "tags": {
        "addr:district": "Bengaluru Urban",
        "addr:full": "#79/18, 1st Cross , Vith Main Road, Gayathridevi Park Extn. Vylikaval",
        "addr:postcode": "560003",
        "addr:state": "Karnataka",
        "amenity": "social_facility",
        "name": "Ramakrishna Nursing Home, Bengaluru Urban",
        "social_facility": "nursing_home",
        "social_facility:for": "senior",
        "source": "OpenGovernmentData"
      }
    },
    {
      "type": "node",
      "id": 7087593327,
      "lat": 12.9961698,
      "lon": 77.5641029,
      "tags": {
        "name": "Malavalli Metal Mart",
        "shop": "hardware"
      }
    },
    {
      "type": "node",
      "id": 7087593338,
      "lat": 12.9985638,
      "lon": 77.5730158,
      "tags": {
        "amenity": "place_of_worship",
        "religion": "hindu"
      }
    },
    {
      "type": "node",
      "id": 7087593339,
      "lat": 12.9987859,
      "lon": 77.5735831,
      "tags": {
        "name": "SKR Bicycle Bazar",
        "shop": "bicycle"
      }
    },
    {
      "type": "node",
      "id": 7176651862,
      "lat": 12.9962848,
      "lon": 77.5660287,
      "tags": {
        "amenity": "dentist",
        "name": "Krupa Dental Clinic"
      }
    },
    {
      "type": "node",
      "id": 7176651863,
      "lat": 12.9961267,
      "lon": 77.5644824,
      "tags": {
        "amenity": "bank",
        "atm": "yes",
        "brand": "Canara Bank",
        "brand:en": "Canara Bank",
        "brand:hi": "केनरा बैंक",
        "brand:kn": "ಕೆನರಾ ಬ್ಯಾಂಕ್",
        "brand:pa": "ਕੇਨਰਾ ਬੈਂਕ",
        "brand:pnb": "کینرا بینک",
        "brand:ur": "کینرا بینک",
        "brand:wikidata": "Q2003777",
        "brand:wikipedia": "en:Canara Bank",
        "brand:wikipedia:pa": "ਕੇਨਰਾ ਬੈਂਕ",
        "name": "Canara Bank",
        "name:en": "Canara Bank",
        "name:hi": "केनरा बैंक",
        "name:kn": "ಕೆನರಾ ಬ್ಯಾಂಕ್",
        "name:pa": "ਕੇਨਰਾ ਬੈਂਕ",
        "name:pnb": "کینرا بینک",
        "name:ur": "کینرا بینک"
      }
    },
    {
      "type": "node",
      "id": 7698870387,
      "lat": 13.0033891,
      "lon": 77.5712054,
      "tags": {
        "name:ru": "фруктовый рынок",
        "shop": "greengrocer"
      }
    },
    {
      "type": "node",
      "id": 8187962349,
      "lat": 13.0063435,
      "lon": 77.5760173,
      "tags": {
        "addr:full": "No 7/A, Vagdevi Mane, 2nd Main Rd, Vyalikaval, Kodandarampura, Malleshwaram, Bengaluru, Karnataka",
        "addr:state": "Karnataka",
        "amenity": "bank",
        "brand": "State Bank of India",
        "brand:wikidata": "Q1340361",
        "brand:wikipedia": "en:State Bank of India",
        "name": "State Bank of India",
        "short_name": "SBI"
      }
    },
    {
      "type": "node",
      "id": 8187962397,
      "lat": 13.0009024,
      "lon": 77.5715721,
      "tags": {
        "addr:full": "Malleshwaram branch, No 16 Nanjundeshwara Complex 10 TH CROSS, Sampige Rd, Vyalikaval, Yalappa Garden, Malleshwaram, Bengaluru, Karnataka",
        "addr:state": "Karnataka",
        "amenity": "bank",
        "atm": "yes",
        "name": "Vijaya Bank",
        "name:kn": "ವಿಜಯ ಬ್ಯಾಂಕು"
      }
    },
    {
      "type": "node",
      "id": 8187962405,
      "lat": 13.0001224,
      "lon": 77.5712818,
      "tags": {
        "addr:full": "No 24, Lalitha 2nd Cross, Sampige Rd, Yalappa Garden, Malleshwaram, Bengaluru, Karnataka",
        "addr:state": "Karnataka",
        "amenity": "bank",
        "brand": "State Bank of India",
        "brand:wikidata": "Q1340361",
        "brand:wikipedia": "en:State Bank of India",
        "name": "State Bank of India",
        "short_name": "SBI"
      }
    },
    {
      "type": "node",
      "id": 8187962417,
      "lat": 12.9984609,
      "lon": 77.5730292,
      "tags": {
        "addr:full": "7th Cross Rd, Malleshwaram, Bengaluru, Karnataka",
        "addr:state": "Karnataka",
        "amenity": "bank",
        "brand": "Bank of Baroda",
        "brand:wikidata": "Q2003797",
        "brand:wikipedia": "en:Bank of Baroda",
        "name": "Bank of Baroda",
        "name:kn": "ಬ್ಯಾಂಕ್ ಆಫ್ ಬರೋಡ"
      }
    },
    {
      "type": "node",
      "id": 8187962426,
      "lat": 12.9977681,
      "lon": 77.5717257,
      "tags": {
        "addr:full": "Malleshwaram 6th cross, 159, 3rd Temple Rd, Sangeetha Apts, Malleshwaram, Bengaluru, Karnataka",
        "addr:state": "Karnataka",
        "amenity": "bank",
        "brand": "State Bank of India",
        "brand:wikidata": "Q1340361",
        "brand:wikipedia": "en:State Bank of India",
        "name": "State Bank of India",
        "short_name": "SBI"
      }
    },
    {
      "type": "node",
      "id": 8187986324,
      "lat": 13.0096996,
      "lon": 77.5760799,
      "tags": {
        "addr:full": "3rd Main Rd, Sadashiva Nagar, Armane Nagar, Bengaluru, Karnataka",
        "addr:state": "Karnataka",
        "amenity": "clinic",
        "healthcare": "clinic",
        "name": "Richfeel Hair And Scalp Clinic"
      }
    },
    {
      "type": "node",
      "id": 8187986339,
      "lat": 13.0055162,
      "lon": 77.5739831,
      "tags": {
        "addr:full": "Vyalikaval, Kodandarampura, Malleshwaram, Bengaluru, Karnataka",
        "addr:state": "Karnataka",
        "amenity": "clinic",
        "healthcare": "clinic",
        "name": "Dhanvanthri Clinic"
      }
    },
    {
      "type": "node",
      "id": 8187986357,
      "lat": 12.9982397,
      "lon": 77.5710706,
      "tags": {
        "addr:full": "7th Cross Road, Sampige Rd, Sangeetha Apts, Malleshwaram, Bengaluru, Karnataka",
        "addr:state": "Karnataka",
        "amenity": "clinic",
        "healthcare": "clinic",
        "name": "Namma Vaidyashaala Clinic"
      }
    },
    {
      "type": "node",
      "id": 8188018381,
      "lat": 12.9953,
      "lon": 77.567335,
      "tags": {
        "addr:full": "11th Main Rd, Malleshwaram, Bengaluru, Karnataka",
        "addr:state": "Karnataka",
        "amenity": "dentist",
        "name": "Dental 360"
      }
    },
    {
      "type": "node",
      "id": 8188038659,
      "lat": 13.006795,
      "lon": 77.571159,
      "tags": {
        "addr:full": "260/1, Abhiram, Near 17th Cross, Sampige Road, Malleswaram, Ranganathapura, Malleshwaram, Bengaluru, Karnataka",
        "addr:state": "Karnataka",
        "amenity": "hospital",
        "healthcare": "hospital",
        "name": "Nayanalaya Super Speciality Eye Care Centre"
      }
    },
    {
      "type": "node",
      "id": 8188038670,
      "lat": 13.005821,
      "lon": 77.5725746,
      "tags": {
        "addr:full": "17, 3rd, 15th-16th Cross, Temple Road, Malleshwaram Bengaluru, Vyalikaval, Kodandarampura, Malleshwaram, Bengaluru, Karnataka",
        "addr:state": "Karnataka",
        "amenity": "hospital",
        "healthcare": "hospital",
        "name": "Srinidhi Health Centre"
      }
    },
    {
      "type": "node",
      "id": 8188038674,
      "lat": 13.0054934,
      "lon": 77.5719519,
      "tags": {
        "addr:full": "1/1, 15th Cross 1st Temple Road, Behind-Hotel Adigas Sampige, Malleshwaram, Vyalikaval, Kodandarampura, Malleshwaram, Bengaluru, Karnataka",
        "addr:state": "Karnataka",
        "amenity": "hospital",
        "healthcare": "hospital",
        "name": "Orthopedic & Eye Care Center"
      }
    },
    {
      "type": "node",
      "id": 8188038683,
      "lat": 13.0044307,
      "lon": 77.5785238,
      "tags": {
        "addr:full": "5/19, 1st Main, Vyalikaval, Lower Palace Orchards, Guttahalli, Bengaluru, Karnataka",
        "addr:state": "Karnataka",
        "amenity": "hospital",
        "healthcare": "hospital",
        "healthcare:speciality": "orthopaedics",
        "name": "Ramani Orthopaedic Hospital"
      }
    },
    {
      "type": "node",
      "id": 8188038691,
      "lat": 13.0015461,
      "lon": 77.5721683,
      "tags": {
        "addr:full": "11th Cross Rd, HN Layout, Malleshwaram, Bengaluru, Karnataka",
        "addr:state": "Karnataka",
        "amenity": "hospital",
        "healthcare": "hospital",
        "name": "RICH CARE HOMEOPATHY"
      }
    },
    {
      "type": "node",
      "id": 8188038712,
      "lat": 12.9969996,
      "lon": 77.5730038,
      "tags": {
        "addr:full": "Sangeetha Apts, Malleshwaram, Bengaluru, Karnataka",
        "addr:state": "Karnataka",
        "amenity": "hospital",
        "healthcare": "hospital",
        "name": "Supra Diagnostics Spine Care And Ortho Care Hospital"
      }
    },
    {
      "type": "node",
      "id": 8188038718,
      "lat": 12.9960244,
      "lon": 77.5693714,
      "tags": {
        "addr:full": "89, 5th Cross Rd, Behind Police Station, Malleshwaram, Bengaluru, Karnataka",
        "addr:state": "Karnataka",
        "amenity": "hospital",
        "healthcare": "hospital",
        "name": "K.C.General Hospital"
      }
    },
    {
      "type": "node",
      "id": 8254993097,
      "lat": 13.0031804,
      "lon": 77.5726589,
      "tags": {
        "access": "permissive",
        "amenity": "toilets"
      }
    },
    {
      "type": "node",
      "id": 8254993098,
      "lat": 13.0055947,
      "lon": 77.5783104,
      "tags": {
        "brand": "Dell",
        "shop": "computer"
      }
    },
    {
      "type": "node",
      "id": 8254999683,
      "lat": 13.0060868,
      "lon": 77.5785404,
      "tags": {
        "brand": "Wildcraft",
        "shop": "sports"
      }
    },
    {
      "type": "node",
      "id": 8255015075,
      "lat": 13.0087525,
      "lon": 77.5693951,
      "tags": {
        "amenity": "cafe",
        "name": "Coffee Break"
      }
    },
    {
      "type": "node",
      "id": 8255020171,
      "lat": 13.0088221,
      "lon": 77.5684154,
      "tags": {
        "amenity": "toilets"
      }
    },
    {
      "type": "node",
      "id": 8255020378,
      "lat": 13.007644,
      "lon": 77.565718,
      "tags": {
        "addr:floor": "G",
        "addr:postcode": "560055",
        "amenity": "post_office",
        "brand": "India Post",
        "check_date": "2025-06-30",
        "level": "0",
        "name": "Malleswaram West",
        "opening_hours": "Mo-Sa 09:00-17:00",
        "wheelchair": "limited"
      }
    },