{
  "area_name": "Mariappanapalya",
  "osm_id": 10979969456,
  "osm_type": "node",
  "place_type": "neighbourhood",
  "amenity_count": 727,
  "amenities": [
    {
      "type": "node",
      "id": 446995814,
      "lat": 12.9907411,
      "lon": 77.5577577,
      "tags": {
        "amenity": "bar",
        "name": "Navarang Bar",
        "wheelchair": "no"
      }
    },
    {
      "type": "node",
      "id": 1118255762,
      "lat": 12.9945063,
      "lon": 77.554298,
      "tags": {
        "amenity": "police",
        "check_date": "2025-03-18",
        "name": "Rajaji Nagar Police Station",
        "name:kn": "ರಾಜಾಜಿನಗರ ಆರಕ್ಷಕ ಠಾಣೆ",
        "name:ta": "ராஜாஜிநகர காவல் நிலையம்"
      }
    },
    {
      "type": "node",
      "id": 1465059607,
      "lat": 13.0061311,
      "lon": 77.5536439,
      "tags": {
        "amenity": "pharmacy",
        "dispensing": "yes",
        "name": "St Theresa Pharmacy"
      }
    },
    {
      "type": "node",
      "id": 1467779070,
      "lat": 13.0042469,
      "lon": 77.550715,
      "tags": {
        "amenity": "fast_food",
        "name": "New Sagar Fast Food"
      }
    },
    {
      "type": "node",
      "id": 1470547253,
      "lat": 12.9970293,
      "lon": 77.5539717,
      "tags": {
        "amenity": "fast_food",
        "name": "Shanti Sagar Hotel",
        "wheelchair": "no"
      }
    },
    {
      "type": "node",
      "id": 1471781028,
      "lat": 13.0037682,
      "lon": 77.5498337,
      "tags": {
        "addr:district": "Bengaluru Urban",
        "addr:full": "359 / 360, 19Th Main 1 St Block Rajajinagar Near Indian Bank",
        "addr:postcode": "560010",
        "addr:state": "Karnataka",
        "amenity": "hospital",
        "healthcare": "hospital",
        "name": "Diacon Hospital",
        "source": "OpenGovernmentData",
        "wheelchair": "yes"
      }
    },
    {
      "type": "node",
      "id": 1471781252,
      "lat": 13.0034363,
      "lon": 77.5499517,
      "tags": {
        "addr:city": "Bengaluru",
        "addr:country": "IN",
        "addr:housenumber": "363",
        "addr:postcode": "560010",
        "addr:street": "19th Main Road",
        "addr:suburb": "Rajajinagar",
        "amenity": "cafe",
        "name": "Cafe 363",
        "website": "https://www.cafe363.in/"
      }
    },
    {
      "type": "node",
      "id": 1471851161,
      "lat": 13.0042683,
      "lon": 77.5512142,
      "tags": {
        "name": "Cake Palace",
        "name:kn": "ಕೇಕ್ ಪ್ಯಾಲೇಸ್",
        "shop": "bakery"
      }
    },
    {
      "type": "node",
      "id": 1471851171,
      "lat": 13.0045087,
      "lon": 77.5525527,
      "tags": {
        "amenity": "place_of_worship",
        "name": "Punyadhaama Raghavendra Mutt",
        "name:kn": "ಪುಣ್ಯಧಾಮ ರಾಘವೇಂದ್ರ ಮಠ",
        "religion": "hindu"
      }
    },
    {
      "type": "node",
      "id": 1472808790,
      "lat": 13.004565,
      "lon": 77.549383,
      "tags": {
        "amenity": "kindergarten",
        "name": "Blossom Prenursery"
      }
    },
    {
      "type": "node",
      "id": 1472858745,
      "lat": 13.0043509,
      "lon": 77.5522566,
      "tags": {
        "name": "Sony Showroom",
        "name:kn": "ಸೋನಿ ಶೋ ರೂಮ್",
        "shop": "electronics"
      }
    },
    {
      "type": "node",
      "id": 1472858747,
      "lat": 13.0039955,
      "lon": 77.551299,
      "tags": {
        "name": "Mahalakshmi Liquor Shop",
        "shop": "alcohol"
      }
    },
    {
      "type": "node",
      "id": 1472858748,
      "lat": 13.0045496,
      "lon": 77.5532355,
      "tags": {
        "name": "Shubham Electronics",
        "shop": "electronics"
      }
    },
    {
      "type": "node",
      "id": 1472858749,
      "lat": 13.0044766,
      "lon": 77.5534808,
      "tags": {
        "amenity": "atm",
        "operator": "ABM AMRO ATM"
      }
    },
    {
      "type": "node",
      "id": 1472858753,
      "lat": 13.0042778,
      "lon": 77.551637,
      "tags": {
        "amenity": "marketplace",
        "name": "Philips Arena Showroom"
      }
    },
    {
      "type": "node",
      "id": 1472858755,
      "lat": 13.0039772,
      "lon": 77.5509235,
      "tags": {
        "amenity": "restaurant",
        "name": "Cane Crush",
        "name:kn": "ಕೇನ್ ಕ್ರಶ್"
      }
    },
    {
      "type": "node",
      "id": 1472858834,
      "lat": 13.0037708,
      "lon": 77.5547591,
      "tags": {
        "amenity": "school",
        "name": "Sri Vani Education Society"
      }
    },
    {
      "type": "node",
      "id": 1474819884,
      "lat": 12.997825,
      "lon": 77.5499844,
      "tags": {
        "addr:city": "Bangalore",
        "addr:housenumber": "5",
        "addr:postcode": "560010",
        "addr:street": "Modi Hospital Main Road",
        "amenity": "restaurant",
        "cuisine": "regional",
        "delivery": "yes",
        "name": "Swati Deluxe",
        "name:kn": "ಸ್ವಾತಿ ಡಿಲಕ್ಸ್",
        "opening_hours": "11:30-16:00,18:30-21:00",
        "phone": "+(91)-80-23595565",
        "phone_1": "23597075",
        "phone_2": "23498074"
      }
    },
    {
      "type": "node",
      "id": 1474819885,
      "lat": 12.9971233,
      "lon": 77.5512976,
      "tags": {
        "amenity": "pharmacy",
        "healthcare": "pharmacy",
        "name": "Sri Rama Medicals and General Stores"
      }
    },
    {
      "type": "node",
      "id": 1474819886,
      "lat": 13.0022409,
      "lon": 77.5490879,
      "tags": {
        "addr:district": "Bengaluru Urban",
        "addr:full": "111, West Of Chord Road, Mahalakshmipuram, Rajajinagar I Block",
        "addr:postcode": "560086",
        "addr:state": "Karnataka",
        "alt_name": "Fortis Hospitals Limited, Rajajinagar",
        "amenity": "hospital",
        "healthcare": "hospital",
        "name": "Fortis Hospital",
        "name:kn": "ಫೋರ್ಟಿಸ್ ಆಸ್ಪತ್ರೆ",
        "source": "OpenGovernmentData"
      }
    },
    {
      "type": "node",
      "id": 1474819887,
      "lat": 12.9955579,
      "lon": 77.5503454,
      "tags": {
        "amenity": "place_of_worship",
        "name": "Ranganatha Swamy Temple",
        "name:kn": "ರಂಗನಾಥಸ್ವಾಮಿ ದೇವಸ್ಥಾನ",
        "religion": "hindu"
      }
    },
    {
      "type": "node",
      "id": 1474819888,
      "lat": 12.998275,
      "lon": 77.550863,
      "tags": {
        "addr:city": "Bangalore",
        "addr:housenumber": "399/34",
        "addr:postcode": "560010",
        "addr:street": "19th Main (Goorur Ramaswamy Iyengar Road)",
        "air_conditioning": "no",
        "alt_name": "Udipi Brahmin's Cafe",
        "amenity": "restaurant",
        "cuisine": "regional",
        "delivery": "yes",
        "diet:halal": "no",
        "diet:vegan": "yes",
        "diet:vegetarian": "only",
        "indoor_seating": "yes",
        "name": "Gokul Vegetarian",
        "name:kn": "ಗೋಕುಲ್ ವೆಜಿಟೆರಿಯನ್",
        "opening_hours": "11:00-22:30",
        "outdoor_seating": "no",
        "payment:credit_cards": "yes",
        "payment:debit_cards": "yes",
        "phone": "+91 80 2342 3955",
        "phone_1": "+91 9741116699",
        "smoking": "no",
        "wheelchair": "no"
      }
    },
    {
      "type": "node",
      "id": 1474819889,
      "lat": 12.9980255,
      "lon": 77.5499457,
      "tags": {
        "name": "My Looks",
        "shop": "clothes"
      }
    },
    {
      "type": "node",
      "id": 1474819894,
      "lat": 12.9963776,
      "lon": 77.5514093,
      "tags": {
        "addr:city": "Bangalore",
        "addr:housenumber": "156",
        "addr:postcode": "560010",
        "addr:street": "19th Main (Goorur Ramaswamy Iyengar Road)",
        "name": "Health and Glow",
        "phone": "+(91)-80-32466651",
        "shop": "supermarket"
      }
    },
    {
      "type": "node",
      "id": 1474819896,
      "lat": 12.9956506,
      "lon": 77.5510696,
      "tags": {
        "addr:city": "Bangalore",
        "addr:district": "Bengaluru Urban",
        "addr:full": "25/91, Chord Road, Iind Block, Rajajinagar",
        "addr:housenumber": "25/91",
        "addr:postcode": "560010",
        "addr:state": "Karnataka",
        "addr:street": "Chord Road",
        "amenity": "hospital",
        "name": "Citi Hospital",
        "opening_hours": "24/7",
        "phone": "+(91)-80-23131778",
        "phone_1": "23131777",
        "phone_2": "23526910",
        "source": "OpenGovernmentData"
      }
    },
    {
      "type": "node",
      "id": 1474819897,
      "lat": 12.9995223,
      "lon": 77.5505328,
      "tags": {
        "addr:city": "Bengaluru",
        "addr:country": "IN",
        "addr:district": "Bengaluru Urban",
        "addr:full": "Old 389, New 46, 19th Main, 1st Block, Rajaji Nagar",
        "addr:hamlet": "Rajajinagar 1st Block",
        "addr:housenumber": "46",
        "addr:postcode": "560010",
        "addr:state": "Karnataka",
        "addr:street": "19th Cross Road",
        "amenity": "hospital",
        "healthcare": "hospital",
        "name": "Vasan Eye Care Hospital, Rajaji Nagar",
        "source": "OpenGovernmentData",
        "wheelchair": "no"
      }
    },
    {
      "type": "node",
      "id": 1474819898,
      "lat": 12.9998205,
      "lon": 77.55045,
      "tags": {
        "addr:district": "Bengaluru Urban",
        "addr:full": "No.389/44, 19th Main, 1st Block, Rajajinagar",
        "addr:postcode": "560010",
        "addr:state": "Karnataka",
        "amenity": "hospital",
        "contact:email": "enquiries@ananyahospital.org",
        "emergency_telephone_code": "080 23527411;09980783835",
        "healthcare": "hospital",
        "healthcare:speciality": "Cardiology;Cosmetology;Dermatology;Diabetology;Emergency Medicine;ENT;Gastroenterology;General Medicine;General Surgery;Internal Medicine;Laparoscopic Surgery;Medical Oncology;Nephrology;Obesity;Obstetricsand Gynaecology",
        "medical_system": "Allopathic",
        "name": "Ananya Hospital",
        "name:kn": "ಅನನ್ಯ ಆಸ್ಪತ್ರೆ",
        "operator:type": "private",
        "source": "https://data.gov.in",
        "website": "www.ananyahospital.org"
      }
    },
    {
      "type": "node",
      "id": 1474819899,
      "lat": 12.998911,
      "lon": 77.5484169,
      "tags": {
        "amenity": "community_centre",
        "name": "Akkamahadevi Kalyana Mantapa",
        "name:kn": "ಅಕ್ಕಮಹಾದೇವಿ ಕಲ್ಯಾಣ ಮಂಟಪ"
      }
    },
    {
      "type": "node",
      "id": 1474819901,
      "lat": 12.9940551,
      "lon": 77.5513325,
      "tags": {
        "amenity": "place_of_worship",
        "name": "Yesukrupalaya Church",
        "religion": "christian"
      }
    },
    {
      "type": "node",
      "id": 1796500621,
      "lat": 13.0030523,
      "lon": 77.5524729,
      "tags": {
        "amenity": "place_of_worship",
        "name": "Ganesha Temple",
        "name:kn": "ಗಣೇಶ ದೇವಸ್ಥಾನ",
        "religion": "hindu"
      }
    },
    {
      "type": "node",
      "id": 1808814311,
      "lat": 12.9976921,
      "lon": 77.5475818,
      "tags": {
        "amenity": "restaurant",
        "cuisine": "indian",
        "name": "Kadamba Veg",
        "name:kn": "ಕದಂಬ ವೆಜ್"
      }
    },
    {
      "type": "node",
      "id": 1808814321,
      "lat": 12.9972835,
      "lon": 77.5465706,
      "tags": {
        "addr:city": "Bangalore",
        "addr:housenumber": "729",
        "addr:postcode": "560086",
        "addr:street": "Modi Hospital Main Road",
        "alt_name": "Kentucky Fried Chicken",
        "alt_name:en": "Kentucky Fried Chicken",
        "alt_name:hi": "केंटुकी फ्राइड चिकन",
        "alt_name:pa": "ਕੈਂਟੁਕੀ ਫ੍ਰਾਈਡ ਚਿਕਨ",
        "alt_name:pnb": "کینٹکی فرائیڈ چکن",
        "alt_name:ur": "کینٹکی فرائیڈ چکن",
        "amenity": "fast_food",
        "brand": "KFC",
        "brand:en": "KFC",
        "brand:hi": "केएफसी",
        "brand:pa": "ਕੇਐਫਸੀ",
        "brand:pnb": "کے ایف سی",
        "brand:ur": "کے ایف سی",
        "brand:wikidata": "Q524757",
        "brand:wikipedia": "en:KFC",
        "brand:wikipedia:pa": "ਕੇਐਫਸੀ",
        "brand:wikipedia:ur": "کینٹکی فرائیڈ چکن",
        "contact:phone": "080 42102114",
        "cuisine": "chicken",
        "delivery": "yes",
        "name": "KFC",
        "name:en": "KFC",
        "name:hi": "केएफसी",
        "name:pa": "ਕੇਐਫਸੀ",
        "name:pnb": "کے ایف سی",
        "name:ur": "کے ایف سی",
        "opening_hours": "11:00-23:00",
        "operator": "KFC",
        "phone": "080 44844484",
        "takeaway": "yes",
        "website": "https://online.kfc.co.in/"
      }
    },
    {
      "type": "node",
      "id": 1813501242,
      "lat": 12.9989198,
      "lon": 77.552547,
      "tags": {
        "addr:city": "bangalore",
        "addr:housenumber": "5 & 6",
        "addr:postcode": "560010",
        "addr:street": "Dr. Rajkumar Road",
        "amenity": "restaurant",
        "cuisine": "regional",
        "delivery": "yes",
        "name": "Jalpaan",
        "name:kn": "ಜಪ್ಲಾನ್",
        "opening_hours": "12:00-15:30,19:00-23:00",
        "phone": "+91 9591996822",
        "phone_1": "080 41701550",
        "wheelchair": "no"
      }
    },
    {
      "type": "node",
      "id": 1813502850,
      "lat": 12.9993994,
      "lon": 77.5525068,
      "tags": {
        "amenity": "bank",
        "atm": "yes",
        "branch": "Rajajinagar",
        "brand": "Axis Bank",
        "brand:wikidata": "Q2003549",
        "check_date": "2023-01-02",
        "designation": "Axis Bank",
        "fee": "no",
        "name": "Axis Bank",
        "name:kn": "ಆಕ್ಸಿಸ್ ಬ್ಯಾಂಕ್",
        "operator": "Axis Bank",
        "source": "Survey",
        "wheelchair": "no"
      }
    },
    {
      "type": "node",
      "id": 1979096567,
      "lat": 12.9972801,
      "lon": 77.5609014,
      "tags": {
        "amenity": "place_of_worship",
        "name": "Circle Ganapathi Temple",
        "religion": "hindu",
        "wheelchair": "no"
      }
    },
    {
      "type": "node",
      "id": 2026076836,
      "lat": 12.9993857,
      "lon": 77.5606403,
      "tags": {
        "addr:district": "Bengaluru Urban",
        "addr:full": "No 3367,5Th Cross, Gayathri Nagar",
        "addr:postcode": "560021",
        "addr:state": "Karnataka",
        "amenity": "hospital",
        "emergency": "yes",
        "name": "Nayak Hospital, Gayathri Nagar",
        "source": "OpenGovernmentData"
      }
    },
    {
      "type": "node",
      "id": 2249047993,
      "lat": 12.9916432,
      "lon": 77.5578265,
      "tags": {
        "amenity": "fuel",
        "brand": "Hindustan Petroleum",
        "brand:wikidata": "Q1619375",
        "brand:wikipedia": "en:Hindustan Petroleum",
        "compressed_air": "yes",
        "name": "HP",
        "name:kn": "ಹಿಂದುಸ್ತಾನ್ ಪೆಟ್ರೋಲಿಯಂ",
        "official_name": "Hindustan Petroleum"
      }
    },
    {
      "type": "node",
      "id": 2296631913,
      "lat": 12.9977544,
      "lon": 77.5472561,
      "tags": {
        "amenity": "restaurant",
        "cuisine": "indian",
        "name": "New Shanti Sagar"
      }
    },
    {
      "type": "node",
      "id": 2301063513,
      "lat": 12.9975064,
      "lon": 77.5499528,
      "tags": {
        "shop": "alcohol"
      }
    },
    {
      "type": "node",
      "id": 2301066273,
      "lat": 12.9973524,
      "lon": 77.5476248,
      "tags": {
        "addr:city": "Bangalore",
        "addr:housenumber": "725",
        "addr:postcode": "560086",
        "addr:street": "Modi Hospital Main Road",
        "amenity": "restaurant",
        "cuisine": "seafood",
        "delivery": "yes",
        "level": "1",
        "name": "Sea Route Restaurant",
        "opening_hours": "11:30-15:30, 18:30-23:00",
        "phone": "080 41222292",
        "phone_1": "+91 9900166088"
      }
    },
    {
      "type": "node",
      "id": 2531808714,
      "lat": 12.9985477,
      "lon": 77.5510414,
      "tags": {
        "amenity": "restaurant",
        "cuisine": "regional",
        "name": "New Prashanth Hotel",
        "name:kn": "ಪ್ರಶಾಂತ್ ಹೋಟೆಲ್",
        "user_defined": "Restaurant",
        "wheelchair": "no"
      }
    },
    {
      "type": "node",
      "id": 2774710664,
      "lat": 12.9960866,
      "lon": 77.5543901,
      "tags": {
        "amenity": "place_of_worship",
        "name": "Raghavendra Swamy Mutt",
        "name:kn": "ರಾಘವೇಂದ್ರ ಸ್ವಾಮಿ ಮಠ",
        "religion": "hindu"
      }
    },
    {
      "type": "node",
      "id": 3201207024,
      "lat": 12.9955091,
      "lon": 77.5546879,
      "tags": {
        "amenity": "library",
        "name": "City Central Library",
        "name:kn": "ಕೇಂದ್ರಿಯ ಗ್ರಂಥಾಲಯ",
        "operator": "Karnataka government"
      }
    },
    {
      "type": "node",
      "id": 3209500886,
      "lat": 12.9914598,
      "lon": 77.5546233,
      "tags": {
        "name": "O. G. Variar and Sons Bakery",
        "shop": "bakery"
      }
    },
    {
      "type": "node",
      "id": 3209503890,
      "lat": 12.9895284,
      "lon": 77.5574083,
      "tags": {
        "name": "Nandini Milk Booth",
        "name:kn": "ನಂದಿನಿ ಹಾಲಿನ ಅಂಗಡಿ",
        "shop": "dairy"
      }
    },
    {
      "type": "node",
      "id": 3391133321,
      "lat": 12.9976064,
      "lon": 77.5512613,
      "tags": {
        "amenity": "pharmacy",
        "brand": "Apollo Pharmacy",
        "brand:wikidata": "Q62562612",
        "healthcare": "pharmacy",
        "name": "Apollo Pharmacy",
        "name:kn": "ಅಪೊಲೋ ಫಾರ್ಮಸಿ"
      }
    },
    {
      "type": "node",
      "id": 3391133322,
      "lat": 13.0041482,
      "lon": 77.5498362,
      "tags": {
        "name": "Eshwari Matching Center",
        "shop": "clothes"
      }
    },
    {
      "type": "node",
      "id": 3391134117,
      "lat": 12.9952537,
      "lon": 77.5517627,
      "tags": {
        "name": "Manjunath Dry Cleaners",
        "shop": "dry_cleaning"
      }
    },
    {
      "type": "node",
      "id": 3391134552,
      "lat": 12.9894264,
      "lon": 77.5544249,
      "tags": {
        "name": "Vinutha Jewellers",
        "shop": "jewelry"
      }
    },
    {
      "type": "node",
      "id": 3391135056,
      "lat": 12.989866,
      "lon": 77.554497,
      "tags": {
        "name": "Mahesh Opticals",
        "shop": "optician"
      }
    },
    {
      "type": "node",
      "id": 3391135057,
      "lat": 12.9899339,
      "lon": 77.5526805,
      "tags": {
        "amenity": "restaurant",
        "name": "New Sagar Fast Food & Party Hall"
      }
    },
    {
      "type": "node",
      "id": 3412354770,
      "lat": 12.9893163,
      "lon": 77.5570578,
      "tags": {
        "name": "Nandini General Stores",
        "shop": "general"
      }
    },
    {
      "type": "node",
      "id": 3412355482,
      "lat": 12.9893048,
      "lon": 77.5569651,
      "tags": {
        "building": "publishers",
        "name": "Bhavesh Publications Pvt Limited",
        "shop": "publi"
      }
    },
    {
      "type": "node",
      "id": 3412360994,
      "lat": 12.9896534,
      "lon": 77.5570551,
      "tags": {
        "name": "Artway tailors - Ladies and Gents",
        "shop": "tailor"
      }
    },
    {
      "type": "node",
      "id": 3412365834,
      "lat": 12.9893115,
      "lon": 77.5569048,
      "tags": {
        "name": "U S Chemicals",
        "shop": "yes"
      }
    },
    {
      "type": "node",
      "id": 3412377280,
      "lat": 12.9893195,
      "lon": 77.5568469,
      "tags": {
        "name": "Ganesh Jeans Alteration Center",
        "shop": "tailor"
      }
    },
    {
      "type": "node",
      "id": 3412384583,
      "lat": 12.9893684,
      "lon": 77.5574688,
      "tags": {
        "brand": "HOPCOMS",
        "brand:wikidata": "Q22908959",
        "name": "HOPCOMS",
        "name:kn": "ಹಾಪ್ ಕಾಮ್ಸ್",
        "shop": "greengrocer"
      }
    },
    {
      "type": "node",
      "id": 3412396638,
      "lat": 12.9893418,
      "lon": 77.5560549,
      "tags": {
        "name": "Marvel Abrasive Tools",
        "shop": "hardware"
      }
    },
    {
      "type": "node",
      "id": 3412397362,
      "lat": 12.9898332,
      "lon": 77.5561709,
      "tags": {
        "amenity": "cafe",
        "brand": "Cafe Coffee Day",
        "brand:wikidata": "Q5017235",
        "brand:wikipedia": "en:Café Coffee Day",
        "cuisine": "coffee_shop",
        "name": "Cafe Coffee Day",
        "name:kn": "ಕಫೆ ಕಾಫಿ ಡೇ",
        "takeaway": "yes",
        "wheelchair": "no"
      }
    },
    {
      "type": "node",
      "id": 3412398779,
      "lat": 12.989787,
      "lon": 77.5560235,
      "tags": {
        "building": "gymnasium",
        "leisure": "sports_centre",
        "name": "Body Flex Fitness Center and Gymnasium"
      }
    },
    {
      "type": "node",
      "id": 3412399008,
      "lat": 12.9893375,
      "lon": 77.5561073,
      "tags": {
        "amenity": "library",
        "name": "Just Books Lending Library",
        "wheelchair": "no"
      }
    },
    {
      "type": "node",
      "id": 3412399842,
      "lat": 12.9895832,
      "lon": 77.5560181,
      "tags": {
        "amenity": "clinic",
        "healthcare": "clinic",
        "name": "CKV Clinic"
      }
    },
    {
      "type": "node",
      "id": 3412401298,
      "lat": 12.9896302,
      "lon": 77.5560208,
      "tags": {
        "amenity": "pharmacy",
        "name": "Standard Medicals",
        "wheelchair": "no"
      }
    },
    {
      "type": "node",
      "id": 3412403085,
      "lat": 12.9894943,
      "lon": 77.5560074,
      "tags": {
        "name": "Khadi Gramodyog Bhavan",
        "shop": "clothes"
      }
    },
    {
      "type": "node",
      "id": 3412403732,
      "lat": 12.9894211,
      "lon": 77.556002,
      "tags": {
        "name": "Sri Manjunatha Condiments",
        "shop": "yes"
      }
    },
    {
      "type": "node",
      "id": 3412403797,
      "lat": 12.9894159,
      "lon": 77.556053,
      "tags": {
        "name": "Raikar Jewellery Works",
        "shop": "jewelry"
      }
    },
    {
      "type": "node",
      "id": 3412405288,
      "lat": 12.9893868,
      "lon": 77.5550414,
      "tags": {
        "name": "Classic Alteration Centre",
        "shop": "tailor"
      }
    },
    {
      "type": "node",
      "id": 3412406635,
      "lat": 12.9894133,
      "lon": 77.5560959,
      "tags": {
        "name": "Toddler's Den",
        "shop": "clothes"
      }
    },
    {
      "type": "node",
      "id": 3412406636,
      "lat": 12.9894159,
      "lon": 77.5561388,
      "tags": {
        "name": "Manju Dry Cleaners",
        "shop": "dry_cleaning"
      }
    },
    {
      "type": "node",
      "id": 3412411945,
      "lat": 12.9895753,
      "lon": 77.5545027,
      "tags": {
        "name": "Lidkar Leather Emporium",
        "shop": "shoes"
      }
    },
    {
      "type": "node",
      "id": 3412418277,
      "lat": 12.9894313,
      "lon": 77.554456,
      "tags": {
        "building": "company",
        "name": "Stella's Beauty Salon",
        "shop": "beauty"
      }
    },
    {
      "type": "node",
      "id": 3412443803,
      "lat": 12.9891535,
      "lon": 77.5550832,
      "tags": {
        "name": "Global Management Services",
        "shop": "services"
      }
    },
    {
      "type": "node",
      "id": 3412445610,
      "lat": 12.989273,
      "lon": 77.5551359,
      "tags": {
        "name": "Hi Tech Junction - Jeans Alteration",
        "shop": "tailor"
      }
    },
    {
      "type": "node",
      "id": 3412449880,
      "lat": 12.9893267,
      "lon": 77.5559106,
      "tags": {
        "name": "Om Ganesh Video Vision",
        "shop": "video"
      }
    },
    {
      "type": "node",
      "id": 3412449884,
      "lat": 12.9892765,
      "lon": 77.5559234,
      "tags": {
        "name": "Ganesh Enterprises",
        "shop": "stationery"
      }
    },
    {
      "type": "node",
      "id": 3412643476,
      "lat": 12.9892743,
      "lon": 77.5559849,
      "tags": {
        "amenity": "dentist",
        "building": "dentist",
        "name": "Kanva Dental Super Specialty Center"
      }
    },
    {
      "type": "node",
      "id": 3412647285,
      "lat": 12.9892332,
      "lon": 77.5559116,
      "tags": {
        "name": "Sun Stamps and Seals",
        "shop": "stamps"
      }
    },
    {
      "type": "node",
      "id": 3412649472,
      "lat": 12.9891936,
      "lon": 77.5559165,
      "tags": {
        "amenity": "clinic",
        "name": "Santosh Clinic - Family Physician"
      }
    },
    {
      "type": "node",
      "id": 3412651166,
      "lat": 12.9891599,
      "lon": 77.5559116,
      "tags": {
        "amenity": "pharmacy",
        "name": "Sairam Medicals and General Stores"
      }
    },
    {
      "type": "node",
      "id": 3412653247,
      "lat": 12.989107,
      "lon": 77.5559009,
      "tags": {
        "name": "Bombay Fashions - Ladies Tailors",
        "shop": "tailor"
      }
    },
    {
      "type": "node",
      "id": 3412653248,
      "lat": 12.9890068,
      "lon": 77.5559058,
      "tags": {
        "name": "Bhairav Jewellers",
        "shop": "jewelry"
      }
    },
    {
      "type": "node",
      "id": 3412653430,
      "lat": 12.9890694,
      "lon": 77.5558999,
      "tags": {
        "amenity": "bank",
        "atm": "yes",
        "brand": "Syndicate Bank",
        "brand:wikidata": "Q2004088",
        "building": "bank",
        "name": "Syndicate Bank",
        "name:en": "Syndicate Bank",
        "name:kn": "ಸಿಂಡಿಕೇಟ್ ಬ್ಯಾಂಕ್",
        "website": "https://www.syndicatebank.in"
      }
    },
    {
      "type": "node",
      "id": 3412656229,
      "lat": 12.9893325,
      "lon": 77.5559867,
      "tags": {
        "name": "Sri Maruti Air Travels",
        "shop": "travel_agency"
      }
    },
    {
      "type": "node",
      "id": 3412656370,
      "lat": 12.9893394,
      "lon": 77.5559942,
      "tags": {
        "name": "Sri Raghavendra Condiments",
        "shop": "convenience"
      }
    },
    {
      "type": "node",
      "id": 3412656669,
      "lat": 12.9891463,
      "lon": 77.5559752,
      "tags": {
        "name": "M N Tailors",
        "shop": "tailor"
      }
    },
    {
      "type": "node",
      "id": 3412659107,
      "lat": 12.9892592,
      "lon": 77.5559827,
      "tags": {
        "building": "services",
        "name": "Touch One Stop Repair Services - Laptop, Desktop, Tablet, Accessories",
        "shop": "electronics"
      }
    },
    {
      "type": "node",
      "id": 3412661323,
      "lat": 12.989092,
      "lon": 77.5559747,
      "tags": {
        "name": "Kailash Fashion Jewellery",
        "shop": "jewelry"
      }
    },
    {
      "type": "node",
      "id": 3412667183,
      "lat": 12.9891135,
      "lon": 77.5559765,
      "tags": {
        "amenity": "internet_cafe",
        "name": "A. Cyber Joint - Browsing Center"
      }
    },
    {
      "type": "node",
      "id": 3412667782,
      "lat": 12.9890532,
      "lon": 77.5559703,
      "tags": {
        "amenity": "dentist",
        "name": "Sangam Dental Center"
      }
    },
    {
      "type": "node",
      "id": 3412669259,
      "lat": 12.9890644,
      "lon": 77.5559708,
      "tags": {
        "name": "Sri Charan stores",
        "shop": "convenience"
      }
    },
    {
      "type": "node",
      "id": 3412672603,
      "lat": 12.9890834,
      "lon": 77.5559738,
      "tags": {
        "name": "Soundarya Beauty Parlour",
        "shop": "beauty"
      }
    },
    {
      "type": "node",
      "id": 3412675541,
      "lat": 12.9890052,
      "lon": 77.5559614,
      "tags": {
        "name": "Sri Manjunath Stores",
        "shop": "convenience"
      }
    },
    {
      "type": "node",
      "id": 3412676559,
      "lat": 12.9890226,
      "lon": 77.5559646,
      "tags": {
        "name": "Pradhan Jewellers",
        "shop": "jewelry"
      }
    },
    {
      "type": "node",
      "id": 3412677002,
      "lat": 12.9890135,
      "lon": 77.5559637,
      "tags": {
        "name": "Sri Balaji Agency",
        "shop": "travel_agency"
      }
    },
    {
      "type": "node",
      "id": 3412678729,
      "lat": 12.9890002,
      "lon": 77.5559632,
      "tags": {
        "name": "Mobile and More",
        "shop": "mobile_phone"
      }
    },
    {
      "type": "node",
      "id": 3412680703,
      "lat": 12.9889846,
      "lon": 77.555961,
      "tags": {
        "name": "Mamatha Jewels",
        "shop": "jewelry"
      }
    },
    {
      "type": "node",
      "id": 3412680704,
      "lat": 12.9889803,
      "lon": 77.5559601,
      "tags": {
        "name": "Gyan Exports",
        "shop": "clothes"
      }
    },
    {
      "type": "node",
      "id": 3412680774,
      "lat": 12.9889687,
      "lon": 77.555961,
      "tags": {
        "name": "Vishal Tea Company",
        "shop": "tea"
      }
    },
    {
      "type": "node",
      "id": 3412680901,
      "lat": 12.988954,
      "lon": 77.5559592,
      "tags": {
        "name": "Prasad Coffee Powder",
        "shop": "yes"
      }
    },
    {
      "type": "node",
      "id": 3412690280,
      "lat": 12.9904639,
      "lon": 77.5569256,
      "tags": {
        "amenity": "pharmacy",
        "healthcare": "pharmacy",
        "name": "Sri Prasamshi Medical Stores"
      }
    },
    {
      "type": "node",
      "id": 4194066092,
      "lat": 13.0042893,
      "lon": 77.5513853,
      "tags": {
        "addr:housenumber": "No 14, 10th",
        "addr:street": "Vidhya Vardhaka Sangha Road",
        "email": "rjnpremium@adishwarindia.com",
        "internet_access": "wlan",
        "name": "Adishwar India Limited",
        "name:kn": "ಅದಿಶ್ವರ್ ಇಂಡಿಯಾ ಲಿಮಿಟೆಡ್",
        "opening_hours": "Mo-Su 10:00-22:00",
        "phone": "080-41610910",
        "shop": "electronics",
        "website": "https://www.adishwarestore.com/"
      }
    },
    {
      "type": "node",
      "id": 4382905014,
      "lat": 12.9973946,
      "lon": 77.5485023,
      "tags": {
        "brand": "Reliance Fresh",
        "brand:wikidata": "Q7311014",
        "brand:wikipedia": "en:Reliance Fresh",
        "name": "Reliance Fresh",
        "name:kn": "ರಿಲಾಯನ್ಸ್ ಫ್ರೆಶ್",
        "shop": "supermarket"
      }
    },
    {
      "type": "node",
      "id": 4382905015,
      "lat": 12.9989255,
      "lon": 77.5489709,
      "tags": {
        "amenity": "fast_food",
        "cuisine": "indian",
        "name": "Appu's Kitchen",
        "opening_hours": "8:00-3:00"
      }
    },
    {
      "type": "node",
      "id": 4382905016,
      "lat": 12.9992855,
      "lon": 77.5495195,
      "tags": {
        "amenity": "restaurant",
        "name": "Sarayu Fine Dine"
      }
    },
    {
      "type": "node",
      "id": 4382905017,
      "lat": 12.9992349,
      "lon": 77.5495341,
      "tags": {
        "addr:city": "Bangalore",
        "addr:housenumber": "46",
        "addr:postcode": "560010",
        "addr:street": "Chord Road",
        "brand": "Snap Fitness",
        "brand:wikidata": "Q7547254",
        "brand:wikipedia": "en:Snap Fitness",
        "leisure": "fitness_centre",
        "name": "Snap Fitness",
        "opening_hours": "6:00-21:00",
        "phone": "8065651050",
        "website": "www.snapfitnessindia.com"
      }
    },
    {
      "type": "node",
      "id": 4382905021,
      "lat": 13.0016723,
      "lon": 77.5506179,
      "tags": {
        "addr:floor": "0",
        "addr:housenumber": "144/39",
        "addr:postcode": "560010",
        "addr:street": "11th Cross Road",
        "air_conditioning": "no",
        "building:levels": "0",
        "check_date": "2025-01-05",
        "currency:INR": "yes",
        "diet:dairy": "yes",
        "diet:ovo_vegetarian": "yes",
        "diet:vegan": "yes",
        "diet:vegetarian": "yes",
        "internet_access": "no",
        "level": "0",
        "name": "New Akshaya Mini Bazaar",
        "opening_hours": "Mo-Su 08:00-22:00",
        "organic": "yes",
        "payment:cash": "yes",
        "payment:credit_cards": "yes",
        "payment:debit_cards": "yes",
        "phone": "+91 87620 59892",
        "second_hand": "no",
        "shop": "supermarket",
        "source": "local knowledge",
        "stroller": "limited",
        "toilets": "no",
        "toilets:wheelchair": "no",
        "wheelchair": "limited"
      }
    },
    {
      "type": "node",
      "id": 4382905023,
      "lat": 13.0038504,
      "lon": 77.5534613,
      "tags": {
        "amenity": "fast_food",
        "brand": "Domino's",
        "brand:ks": "ڈومینوز",
        "brand:pa": "ਡੋਮੀਨੋਜ਼",
        "brand:ur": "ڈومینوز",
        "brand:wikidata": "Q839466",
        "brand:wikipedia": "en:Domino's Pizza",
        "cuisine": "pizza",
        "name": "Domino's",
        "name:kn": "ಡಾಮಿನೋಸ್",
        "name:ks": "ڈومینوز",
        "name:pa": "ਡੋਮੀਨੋਜ਼",
        "name:ur": "ڈومینوز",
        "takeaway": "yes"
      }
    },
    {
      "type": "node",
      "id": 4383592314,
      "lat": 12.9974503,
      "lon": 77.5496185,
      "tags": {
        "brand": "Bata",
        "brand:wikidata": "Q688082",
        "name": "Bata",
        "name:kn": "ಬಾಟಾ",
        "shop": "shoes"
      }
    },
    {
      "type": "node",
      "id": 4383592315,
      "lat": 12.9977051,
      "lon": 77.5495154,
      "tags": {
        "addr:city": "Bangalore",
        "addr:housenumber": "16",
        "addr:postcode": "560086",
        "addr:street": "Modi Hospital Main Road",
        "name": "Parmar",
        "phone": "+(91)-80-23496604",
        "phone_1": "+(91)-9448492269",
        "shop": "stationery"
      }
    },
    {
      "type": "node",
      "id": 4383676406,
      "lat": 12.9939186,
      "lon": 77.5513274,
      "tags": {
        "name": "Simply Organics",
        "organic": "only",
        "shop": "supermarket"
      }
    },
    {
      "type": "node",
      "id": 4383686517,
      "lat": 12.9988718,
      "lon": 77.5498125,
      "tags": {
        "amenity": "pharmacy",
        "healthcare": "pharmacy",
        "name": "Universal Pharma"
      }
    },
    {
      "type": "node",
      "id": 4383686518,
      "lat": 12.9993009,
      "lon": 77.54958,
      "tags": {
        "brand": "Tata",
        "brand:wikidata": "Q188514",
        "name": "Tata",
        "shop": "car"
      }
    },
    {
      "type": "node",
      "id": 4383686519,
      "lat": 13.0038472,
      "lon": 77.5495336,
      "tags": {
        "addr:floor": "2",
        "addr:postcode": "560010",
        "air_conditioning": "yes",
        "check_date": "2024-01-10",
        "currency:INR": "yes",
        "internet_access": "no",
        "level": "2",
        "name": "Malabar Jewellers",
        "payment:cash": "yes",
        "payment:credit_cards": "yes",
        "payment:debit_cards": "yes",
        "second_hand": "no",
        "shop": "jewelry",
        "source": "local knowledge",
        "stroller": "limited",
        "wheelchair": "no"
      }
    },
    {
      "type": "node",
      "id": 4391574432,
      "lat": 13.0022573,
      "lon": 77.5531469,
      "tags": {
        "name": "Sugama Tourism",
        "shop": "travel_agency"
      }
    },
    {
      "type": "node",
      "id": 4391574437,
      "lat": 12.9932191,
      "lon": 77.5546749,
      "tags": {
        "amenity": "driving_school",
        "name": "Shekhar Driving School"
      }
    },
    {
      "type": "node",
      "id": 4443484964,
      "lat": 12.9898377,
      "lon": 77.5550568,
      "tags": {
        "addr:city": "bangalore",
        "addr:housenumber": "723/B",
        "addr:postcode": "560010",
        "addr:street": "11th Main Rd, 3rd Block, Rajaji Nagar",
        "amenity": "pharmacy",
        "healthcare": "pharmacy",
        "name": "Dr. Suresh's Dia Care",
        "phone": "080 2338 2867",
        "website": "drsureshdiacare.com"
      }
    },
    {
      "type": "node",
      "id": 4443504959,
      "lat": 12.9988814,
      "lon": 77.5552883,
      "tags": {
        "addr:city": "bangalore",
        "addr:housenumber": "2941/5",
        "addr:postcode": "560010",
        "addr:street": "Mahakavi Kuvempu Road, 2nd Stage, Rajajinagar, Near Varalaxmi Nursing Home, D-Block, Gayatrinagar, Rajaji Nagar",
        "amenity": "pharmacy",
        "name": "Health Shopee by Manjushree Medicals",
        "phone": "+91 98861 14333"
      }
    },
    {
      "type": "node",
      "id": 4443574301,
      "lat": 13.00546,
      "lon": 77.5563835,
      "tags": {
        "addr:city": "bangalore",
        "addr:postcode": "560010",
        "addr:street": "E block, Subramanyanagar,2 State, Rajaji Nagar",
        "amenity": "clinic",
        "name": "Sri Venkateshwara Medicals",
        "phone": "+91-96327 00311"
      }
    },
    {
      "type": "node",
      "id": 4446256785,
      "lat": 13.0044548,
      "lon": 77.5493716,
      "tags": {
        "addr:city": "bangalore",
        "addr:postcode": "560010",
        "addr:street": "19th Main, 9th Cross, 1st Block,Rajajinagar,",
        "amenity": "restaurant",
        "cuisine": "regional",
        "diet:vegetarian": "yes",
        "name": "Aramane Hotel",
        "opening_hours": "07:00-22:00",
        "phone": "+91 9986626663"
      }
    },
    {
      "type": "node",
      "id": 4446271460,
      "lat": 12.9908258,
      "lon": 77.5578843,
      "tags": {
        "addr:city": "bangalore",
        "addr:housenumber": "1000",
        "addr:postcode": "560010",
        "addr:street": "4th Block, Dr Rajkumar Road,Rajajinagar",
        "amenity": "restaurant",
        "cuisine": "regional",
        "name": "Navarang Kabab Corner",
        "opening_hours": "12:00-15:00,18:30-22:00",
        "phone": "080 41487575",
        "website": "navrangkababkorner.in"
      }
    },
    {
      "type": "node",
      "id": 4446314013,
      "lat": 12.999247,
      "lon": 77.5495939,
      "tags": {
        "addr:city": "Bengaluru",
        "addr:housenumber": "46",
        "addr:postcode": "560086",
        "addr:street": "10th Cross Road",
        "addr:suburb": "Rajajinagar",
        "amenity": "restaurant",
        "delivery": "no",
        "name": "Dwinks Gastropub",
        "reservation": "recommended",
        "takeaway": "yes"
      }
    },
    {
      "type": "node",
      "id": 4446322676,
      "lat": 12.9903931,
      "lon": 77.5584441,
      "tags": {
        "addr:city": "bangalore",
        "addr:housenumber": "73",
        "addr:postcode": "560010",
        "addr:street": "Kantha Complex, Dr. Rajkumar Road, 3rd Stage, Rajajinaga",
        "amenity": "restaurant",
        "cuisine": "regional",
        "name": "Kudla beach",
        "opening_hours": "11:30-16:30,18:30-23:00",
        "phone": "080 32409844"
      }
    },
    {
      "type": "node",
      "id": 4446343508,
      "lat": 12.9967355,
      "lon": 77.5543173,
      "tags": {
        "addr:city": "bangalore",
        "addr:postcode": "560010",
        "addr:street": "Dr Rajkumar Road, Opposite KLE College, Near Navrang Theatre,Rajajinaga",
        "amenity": "restaurant",
        "check_date": "2025-03-18",
        "cuisine": "regional",
        "diet:vegan": "no",
        "diet:vegetarian": "only",
        "indoor_seating": "yes",
        "name": "Sagar Caterers and Hotel",
        "opening_hours": "11:00-23:00",
        "outdoor_seating": "no",
        "payment:credit_cards": "yes",
        "payment:debit_cards": "yes",
        "phone": "080 23325917",
        "wheelchair": "no"
      }
    },
    {
      "type": "node",
      "id": 4446670981,
      "lat": 12.9883267,
      "lon": 77.5549712,
      "tags": {
        "addr:city": "bangalore",
        "addr:housenumber": "2",
        "addr:postcode": "560010",
        "addr:street": "46th cross, Rajajinagar 4th Block",
        "amenity": "pharmacy",
        "name": "Nandhi Medicals",
        "phone": "+91 80 2314 5334"
      }
    },
    {
      "type": "node",
      "id": 4446692224,
      "lat": 12.9898567,
      "lon": 77.5542305,
      "tags": {
        "addr:city": "Bangalore",
        "addr:housenumber": "955",
        "addr:postcode": "560010,",
        "addr:street": "3rd Block, Rajajinagar",
        "amenity": "pharmacy",
        "healthcare": "pharmacy",
        "name": "Sri Venkateshwara Medical & General Store",
        "phone": "+91 94491 68854"
      }
    },
    {
      "type": "node",
      "id": 4446987473,
      "lat": 12.9985585,
      "lon": 77.5476618,
      "tags": {
        "addr:city": "bangalore",
        "addr:housenumber": "2941/5,",
        "addr:postcode": "560010",
        "addr:street": "Mahakavi Kuvempu Road, 2nd Stage, Rajajinagar",
        "amenity": "pharmacy",
        "healthcare": "pharmacy",
        "name": "Health Shopee by Manjushree Medicals",
        "phone": "+91 98861 14333",
        "source": "www.justdial.com"
      }
    },
    {
      "type": "node",
      "id": 4446994840,
      "lat": 13.0053426,
      "lon": 77.5542101,
      "tags": {
        "addr:city": "bangalore",
        "addr:postcode": "560010,",
        "addr:street": "Subramanyanagar,2",
        "amenity": "pharmacy",
        "name": "Venkateshwara Medicals",
        "phone": "+9196327 00311",
        "source": "www.yellowpages.co.in"
      }
    },
    {
      "type": "node",
      "id": 4446999695,
      "lat": 12.9887964,
      "lon": 77.5555474,
      "tags": {
        "addr:city": "Bangalore",
        "addr:housenumber": "2/835/64/1,",
        "addr:postcode": "560010",
        "addr:street": "4th Block, Rajaji Nagar",
        "amenity": "pharmacy",
        "name": "Nandhi Medicals",
        "phone": "+9180 2314 5334",
        "source": "www.justdial.com"
      }
    },
    {
      "type": "node",
      "id": 4447073029,
      "lat": 13.0029689,
      "lon": 77.5526666,
      "tags": {
        "addr:city": "bangalore",
        "addr:postcode": "560010",
        "addr:street": "10A Crossroad",
        "amenity": "hospital",
        "healthcare": "hospital",
        "name": "The Family Doctor Malleswaram",
        "phone": "+9180 2337 6262",
        "source": "www.yellowpages.co.in",
        "website": "https://thefamilydoctor.co.in/"
      }
    },
    {
      "type": "node",
      "id": 4447076789,
      "lat": 12.9985137,
      "lon": 77.5523235,
      "tags": {
        "addr:city": "bangalore",
        "addr:housenumber": "28",
        "addr:postcode": "560010",
        "addr:street": "12th Main, Near Navarang Theatre, Rajajinagar, Bengaluru",
        "amenity": "restaurant",
        "cuisine": "regional",
        "indoor_seating": "yes",
        "name": "Hotel Nalapaka",
        "name:kn": "ನಳಪಾಕ",
        "opening_hours": "07:30-15:30,17:00-22:30",
        "outdoor_seating": "yes",
        "phone": "080 2352 3108",
        "phone_1": "+91 9740381399"
      }
    },
    {
      "type": "node",
      "id": 4447156426,
      "lat": 12.9898003,
      "lon": 77.5500343,
      "tags": {
        "addr:city": "bangalore",
        "addr:housenumber": "5",
        "addr:postcode": "560010",
        "addr:street": "1st Stage, West Shivanahalli, Chord Road, Shivanagar, Rajaji Nagar",
        "amenity": "restaurant",
        "cuisine": "regional",
        "name": "Shree Nandini Palace",
        "opening_hours": "10:30-16:00,18:00-22:30",
        "phone": "080 2335 0055"
      }
    },
    {
      "type": "node",
      "id": 4448781935,
      "lat": 12.998169,
      "lon": 77.5496373,
      "tags": {
        "addr:city": "Bangalore",
        "addr:housenumber": "12",
        "addr:postcode": "560086",
        "addr:street": "1st Main Road",
        "amenity": "bank",
        "brand": "Bank of Baroda",
        "brand:wikidata": "Q2003797",
        "brand:wikipedia": "en:Vijaya Bank",
        "name": "Bank of Baroda",
        "name:kn": "ವಿಜಯ ಬ್ಯಾಂಕು",
        "phone": "+91 80 25584066"
      }
    },
    {
      "type": "node",
      "id": 4453499055,
      "lat": 12.9974074,
      "lon": 77.548344,
      "tags": {
        "shop": "stationery"
      }
    },
    {
      "type": "node",
      "id": 4453499060,
      "lat": 12.9977215,
      "lon": 77.5488179,
      "tags": {
        "name": "Patel Fancy Store",
        "shop": "stationery"
      }
    },
    {
      "type": "node",
      "id": 4453499061,
      "lat": 12.9970994,
      "lon": 77.5484588,
      "tags": {
        "shop": "hairdresser"
      }
    },
    {
      "type": "node",
      "id": 4477083305,
      "lat": 12.9977967,
      "lon": 77.5474478,
      "tags": {
        "addr:city": "bangalore",
        "addr:housenumber": "706",
        "addr:postcode": "560086",
        "addr:street": "Modi Hospital Main Road",
        "amenity": "restaurant",
        "cuisine": "italian",
        "delivery": "yes",
        "level": "3",
        "name": "Onesta",
        "phone": "7760714154",
        "takeaway": "yes",
        "website": "https://www.onestalove.com/"
      }
    },
    {
      "type": "node",
      "id": 4477083306,
      "lat": 12.9973118,
      "lon": 77.5469972,
      "tags": {
        "addr:city": "bangalore",
        "addr:housenumber": "726",
        "addr:postcode": "560086",
        "addr:street": "Modi Hospital Main Road",
        "amenity": "restaurant",
        "cuisine": "chinese",
        "delivery": "yes",
        "name": "Chung's Chinese Corner",
        "opening_hours": "12:00-15:00, 19:00-23:00",
        "phone": "080 23104929",
        "phone_1": "080 23207729",
        "takeaway": "yes"
      }
    },
    {
      "type": "node",
      "id": 4483975441,
      "lat": 12.997569,
      "lon": 77.5505796,
      "tags": {
        "name": "Boots Bazaar",
        "shop": "shoes"
      }
    },
    {
      "type": "node",
      "id": 4484938760,
      "lat": 12.9978014,
      "lon": 77.5491399,
      "tags": {
        "amenity": "toilets"
      }
    },
    {
      "type": "node",
      "id": 4484938761,
      "lat": 13.0042698,
      "lon": 77.5500123,
      "tags": {
        "amenity": "toilets",
        "check_date": "2024-01-27",
        "fee": "yes",
        "wheelchair": "no"
      }
    },
    {
      "type": "node",
      "id": 4484938762,
      "lat": 13.005121,
      "lon": 77.5538043,
      "tags": {
        "amenity": "toilets"
      }
    },
    {
      "type": "node",
      "id": 4484938763,
      "lat": 13.0043687,
      "lon": 77.5524019,
      "tags": {
        "brand": "Samsung",
        "brand:wikidata": "Q20718",
        "brand:wikipedia": "en:Samsung Electronics",
        "name": "Samsung",
        "name:kn": "ಸ್ಯಾಮ್‌ಸಂಗ್",
        "shop": "electronics"
      }
    },
    {
      "type": "node",
      "id": 4484938764,
      "lat": 13.0044499,
      "lon": 77.5530755,
      "tags": {
        "addr:city": "bangalore",
        "addr:housenumber": "34/3",
        "addr:postcode": "560010",
        "addr:street": "Vidhya Vardhaka Sangha Road",
        "amenity": "hospital",
        "healthcare": "hospital",
        "name": "Tamara Hospital & IVF Centre",
        "phone": "+91 80 2337 0780",
        "website": "https://tamarahealthcare.com/"
      }
    },
    {
      "type": "node",
      "id": 4484938765,
      "lat": 13.004338,
      "lon": 77.5520754,
      "tags": {
        "brand": "LG",
        "brand:wikidata": "Q162345",
        "brand:wikipedia": "en:LG Electronics",
        "name": "LG",
        "name:kn": "ಎಲ್ಜಿ ಎಲೆಕ್ಟ್ರಾನಿಕ್ಸ್",
        "shop": "electronics"
      }
    },
    {
      "type": "node",
      "id": 4484938766,
      "lat": 13.0040428,
      "lon": 77.5519822,
      "tags": {
        "brand": "Cromā",
        "brand:wikidata": "Q5187683",
        "name": "Cromā",
        "name:kn": "ಕ್ರೋಮ",
        "shop": "electronics"
      }
    },
    {
      "type": "node",
      "id": 4484938767,
      "lat": 12.9989871,
      "lon": 77.547589,
      "tags": {
        "amenity": "kindergarten",
        "name": "Aaramba Preschool"
      }
    },
    {
      "type": "node",
      "id": 4488045269,
      "lat": 12.9926468,
      "lon": 77.5570803,
      "tags": {
        "addr:city": "bangalore",
        "addr:housenumber": "101",
        "addr:postcode": "560021",
        "addr:street": "7th cross, 11th Main Rd, Bhadrappa Layout, Prakash Nagar, Rajaji Nagar",
        "name": "reenix sports india pvt ltd",
        "opening_hours": "10:00-21:30",
        "phone": "+9198868 11390",
        "shop": "sports"
      }
    },
    {
      "type": "node",
      "id": 4488058690,
      "lat": 13.0041656,
      "lon": 77.5533333,
      "tags": {
        "addr:city": "bangalore",
        "addr:housenumber": "60/A",
        "addr:postcode": "560010",
        "addr:street": "Ground Floor, 1st & 2nd Shop, Dr Rajkumar Road, 1st 'N' Block, Rajajinagar, 1st Block, Rajaji Nagar",
        "name": "Sri Kadamba Sports And Fittness",
        "opening_hours": "10:00-21:30",
        "phone": "+9178291 33583",
        "shop": "sports"
      }
    },
    {
      "type": "node",
      "id": 4489149510,
      "lat": 12.9982313,
      "lon": 77.5586322,
      "tags": {
        "addr:city": "bangalore",
        "addr:housenumber": "2904",
        "addr:postcode": "560021",
        "addr:street": "Mahakavi Kuvempu Rd, Bhadrappa Layout, Mariappanapalya, Rajaji Nagar",
        "name": "Bismilla Cycle Mart",
        "opening_hours": "10:00-21:30",
        "phone": "+9196862 54320",
        "shop": "sports"
      }
    },
    {
      "type": "node",
      "id": 4489232255,
      "lat": 13.0042886,
      "lon": 77.5536072,
      "tags": {
        "addr:city": "bangalore",
        "addr:housenumber": "60/A",
        "addr:postcode": "560010",
        "addr:street": "Ground Floor, 1st & 2nd Shop, Dr Rajkumar Road, 1st 'N' Block, Rajajinagar, 1st Block, Rajaji Nagar",
        "name": "Kadamba Sports & Fitness",
        "opening_hours": "10:30-21:00",
        "phone": "+917829133583",
        "shop": "sports"
      }
    },
    {
      "type": "node",
      "id": 4489849129,
      "lat": 12.9980214,
      "lon": 77.5495463,
      "tags": {
        "addr:city": "Bangalore",
        "addr:housenumber": "Sri Gururagavendra Complex, Rajajinaga",
        "addr:postcode": "560010",
        "addr:street": "Modi Hospital Main Road",
        "leisure": "sports_centre",
        "name": "Magic Feel Beauty",
        "opening_hours": "10:00-21:30",
        "phone": "91)-80-23119993"
      }
    },
    {
      "type": "node",
      "id": 4490247190,
      "lat": 13.0021514,
      "lon": 77.5530417,
      "tags": {
        "addr:city": "bangalore",
        "addr:housenumber": "No. 2nd Floor",
        "addr:postcode": "560010",
        "addr:street": "Above Kadamba Sports, Bangalore 560010, 140, Dr Rajkumar Rd, 1st Block, Rajaji Nagar, Bengaluru, Karnataka",
        "leisure": "sports_centre",
        "name": "Quadz Fitness",
        "opening_hours": "5:00-21:00",
        "phone": "8884673332"
      }
    },
    {
      "type": "node",
      "id": 4490265653,
      "lat": 12.998558,
      "lon": 77.5543175,
      "tags": {
        "addr:city": "bangalore",
        "addr:housenumber": "No 13,",
        "addr:postcode": "560010",
        "addr:street": "Mahakavi Kuvempu Road,D Block,2nd Stage, Rajajinagar",
        "name": "Lakme Salon",
        "name:kn": "ಲಾಕ್ಮೆ",
        "opening_hours": "10:00-20:00",
        "phone": "91 80 33051011",
        "shop": "beauty"
      }
    },
    {
      "type": "node",
      "id": 4528688849,
      "lat": 12.9978601,
      "lon": 77.5495201,
      "tags": {
        "amenity": "atm"
      }
    },
    {
      "type": "node",
      "id": 4528688850,
      "lat": 12.9981241,
      "lon": 77.5495926,
      "tags": {
        "amenity": "atm"
      }
    },
    {
      "type": "node",
      "id": 4528688851,
      "lat": 12.9974416,
      "lon": 77.550126,
      "tags": {
        "amenity": "atm",
        "brand": "State Bank of India",
        "brand:wikidata": "Q1340361",
        "name": "State Bank of India",
        "operator": "State Bank of India",
        "operator:wikidata": "Q1340361",
        "short_name": "SBI"
      }
    },
    {
      "type": "node",
      "id": 4530356087,
      "lat": 12.9889585,
      "lon": 77.555959,
      "tags": {
        "amenity": "cafe",
        "name": "Priya Tiffin Room"
      }
    },
    {
      "type": "node",
      "id": 4559831520,
      "lat": 12.9977049,
      "lon": 77.5482864,
      "tags": {
        "addr:city": "Bangalore",
        "addr:housenumber": "712",
        "addr:postcode": "560086",
        "addr:street": "Modi Hospital Main Road",
        "name": "Shree Venkateshwara Traders",
        "phone": "9036092531",
        "shop": "hardware"
      }
    },
    {
      "type": "node",
      "id": 4581424990,
      "lat": 12.9988676,
      "lon": 77.5502861,
      "tags": {
        "addr:city": "Bangalore",
        "addr:housenumber": "68",
        "addr:postcode": "560010",
        "addr:street": "Chord Road",
        "name": "Damro Furniture",
        "opening_hours": "9:30-21:00",
        "phone": "+91 80 6999 9300",
        "shop": "furniture",
        "website": "https://damroindia.com"
      }
    },
    {
      "type": "node",
      "id": 4586321862,
      "lat": 12.9974969,
      "lon": 77.5501201,
      "tags": {
        "addr:city": "Bangalore",
        "addr:housenumber": "1",
        "addr:postcode": "560010",
        "addr:street": "Modi Hospital Main Road",
        "amenity": "fast_food",
        "delivery": "yes",
        "name": "Rolls Kitchen",
        "opening_hours": "12:00-22:30",
        "outdoor_seating": "no",
        "phone": "+91 7022164745"
      }
    },
    {
      "type": "node",
      "id": 4586321863,
      "lat": 12.9978602,
      "lon": 77.5519674,
      "tags": {
        "addr:city": "Bangalore",
        "addr:housenumber": "32",
        "addr:postcode": "560010",
        "addr:street": "Mahakavi Kuvempu Road",
        "amenity": "restaurant",
        "cuisine": "regional",
        "delivery": "yes",
        "name": "Empire Plaza",
        "opening_hours": "11:00-23:00"
      }
    },
    {
      "type": "node",
      "id": 4586321864,
      "lat": 12.9984348,
      "lon": 77.5530658,
      "tags": {
        "addr:city": "Bangalore",
        "addr:housenumber": "2961",
        "addr:postcode": "560010",
        "addr:street": "Mahakavi Kuvempu Road",
        "amenity": "restaurant",
        "cuisine": "regional",
        "delivery": "yes",
        "name": "Nisarga Family Resturant",
        "opening_hours": "7:00-20:30",
        "phone": "080 23130006"
      }
    },
    {
      "type": "node",
      "id": 4590779232,
      "lat": 13.0011521,
      "lon": 77.5502895,
      "tags": {
        "addr:city": "bangalore",
        "addr:housenumber": "382",
        "addr:postcode": "560010",
        "addr:street": "19th Main (Goorur Ramaswamy Iyengar Road)",
        "name": "Dhanlakshmi Kitchen World",
        "opening_hours": "10:30 - 21:00",
        "phone": "080 4128 5801",
        "shop": "houseware"
      }
    },
    {
      "type": "node",
      "id": 4590779233,
      "lat": 13.001507,
      "lon": 77.5502669,
      "tags": {
        "name": "Manish Tailors",
        "shop": "tailor"
      }
    },
    {
      "type": "node",
      "id": 4595634973,
      "lat": 13.0037755,
      "lon": 77.5492444,
      "tags": {
        "amenity": "toilets"
      }
    },
    {
      "type": "node",
      "id": 4596136692,
      "lat": 12.9973268,
      "lon": 77.5478423,
      "tags": {
        "addr:city": "Bangalore",
        "addr:housenumber": "706",
        "addr:postcode": "560086",
        "addr:street": "Modi Hospital Main Road",
        "amenity": "fast_food",
        "brand": "Burger King",
        "brand:pa": "ਬਰਗਰ ਕਿੰਗ",
        "brand:ur": "برگر کنگ",
        "brand:wikidata": "Q177054",
        "brand:wikipedia": "en:Burger King",
        "brand:wikipedia:pa": "ਬਰਗਰ ਕਿੰਗ",
        "brand:wikipedia:ur": "برگر کنگ",
        "cuisine": "burger",
        "delivery": "yes",
        "name": "Burger King",
        "name:kn": "ಬರ್ಗರ್ ಕಿಂಗ್",
        "name:pa": "ਬਰਗਰ ਕਿੰਗ",
        "name:ru": "Бургер Кинг",
        "name:ur": "برگر کنگ",
        "outdoor_seating": "no",
        "phone": "080 33558000",
        "takeaway": "yes",
        "website": "https://burgerking.com/"
      }
    },
    {
      "type": "node",
      "id": 4596136694,
      "lat": 12.9973971,
      "lon": 77.5480936,
      "tags": {
        "brand": "Liberty",
        "brand:wikidata": "Q6541947",
        "name": "Liberty Exclusive Showroom",
        "shop": "shoes"
      }
    },
    {
      "type": "node",
      "id": 4597419989,
      "lat": 12.9966984,
      "lon": 77.5613324,
      "tags": {
        "amenity": "restaurant",
        "name": "Al-Bek",
        "name:en": "Al-Bek"
      }
    },
    {
      "type": "node",
      "id": 4597818303,
      "lat": 12.9982685,
      "lon": 77.5476352,
      "tags": {
        "addr:city": "Bangalore",
        "addr:postcode": "560086",
        "addr:street": "9th A Cross Road",
        "amenity": "kindergarten",
        "name": "Kangaroo Kids Preschool"
      }
    },
    {
      "type": "node",
      "id": 4597818305,
      "lat": 12.9979863,
      "lon": 77.546329,
      "tags": {
        "name": "Raagam Digital Photo Studio",
        "shop": "photo"
      }
    },
    {
      "type": "node",
      "id": 4597818306,
      "lat": 12.9979157,
      "lon": 77.5464283,
      "tags": {
        "shop": "copyshop"
      }
    },
    {
      "type": "node",
      "id": 4597818307,
      "lat": 12.9981587,
      "lon": 77.5465007,
      "tags": {
        "amenity": "bank",
        "name": "Janatha Co-Operative Bank"
      }
    },
    {
      "type": "node",
      "id": 4597818308,
      "lat": 12.9992093,
      "lon": 77.5463437,
      "tags": {
        "amenity": "toilets"
      }
    },
    {
      "type": "node",
      "id": 4597831685,
      "lat": 13.0017936,
      "lon": 77.5488666,
      "tags": {
        "amenity": "fast_food",
        "name": "Udupi Veg",
        "old_name": "Sri Ganesh Upahara"
      }
    },
    {
      "type": "node",
      "id": 4597831686,
      "lat": 13.0016695,
      "lon": 77.5504554,
      "tags": {
        "addr:postcode": "560010",
        "air_conditioning": "no",
        "brand": "Nandini",
        "building:levels": "0",
        "check_date": "2023-12-23",
        "currency:INR": "yes",
        "internet_access": "no",
        "name": "Thengu Mane",
        "operator": "Nandini",
        "payment:cash": "yes",
        "payment:credit_cards": "yes",
        "payment:debit_cards": "yes",
        "second_hand": "no",
        "shop": "dairy",
        "source": "local knowledge",
        "stroller": "limited",
        "toilets": "no",
        "toilets:wheelchair": "no",
        "wheelchair": "limited"
      }
    },
    {
      "type": "node",
      "id": 4597831687,
      "lat": 13.0022575,
      "lon": 77.5521631,
      "tags": {
        "alt_name": "Goli Vada Pav No.1",
        "amenity": "fast_food",
        "brand": "Goli Vada Pav",
        "brand:wikidata": "Q5580697",
        "cuisine": "indian",
        "name": "Goli Vada Pav",
        "takeaway": "yes"
      }
    },
    {
      "type": "node",
      "id": 4597833389,
      "lat": 12.9984887,
      "lon": 77.5504219,
      "tags": {
        "addr:district": "Bengaluru Urban",
        "addr:full": "No. 408, 20Th Main, 1st Block,Opp Swathi Hotel, Woc Road, Rajajinagar",
        "addr:postcode": "560010",
        "addr:state": "Karnataka",
        "amenity": "hospital",
        "healthcare": "hospital",
        "healthcare:speciality": "orthopaedics",
        "name": "Cauvery Orthopaedic Centre",
        "source": "OpenGovernmentData"
      }
    },
    {
      "type": "node",
      "id": 4599416991,
      "lat": 13.0036617,
      "lon": 77.5484817,
      "tags": {
        "amenity": "dentist",
        "healthcare": "dentist"
      }
    },
    {
      "type": "node",
      "id": 4599733255,
      "lat": 13.0017154,
      "lon": 77.5507797,
      "tags": {
        "addr:city": "Bengaluru",
        "addr:country": "IN",
        "addr:district": "Bengaluru Urban",
        "addr:floor": "0",
        "addr:hamlet": "Rajajinagar 1st Block",
        "addr:housenumber": "38",
        "addr:postcode": "560010",
        "addr:street": "11th Cross Road",
        "amenity": "pharmacy",
        "check_date": "2023-12-23",
        "dispensing": "no",
        "drive_through": "no",
        "healthcare": "pharmacy",
        "internet_access": "no",
        "level": "0",
        "name": "SS Pharma & Surgicals",
        "opening_hours": "Mo-Su 09:00-22:30",
        "payment:cash": "yes",
        "payment:credit_cards": "yes",
        "payment:debit_cards": "yes",
        "source": "local knowledge",
        "wheelchair": "no"
      }
    },
    {
      "type": "node",
      "id": 4599733256,
      "lat": 13.0017261,
      "lon": 77.5508671,
      "tags": {
        "addr:floor": "0",
        "amenity": "bank",
        "atm": "yes",
        "brand": "Punjab National Bank",
        "brand:wikidata": "Q2743499",
        "brand:wikipedia": "en:Punjab National Bank",
        "check_date": "2024-02-04",
        "currency:INR": "yes",
        "drive_through": "no",
        "internet_access": "no",
        "level": "0",
        "name": "Punjab National Bank",
        "name:en": "Punjab National Bank",
        "name:kn": "ಪಂಜಾಬ ರಾಷ್ಟ್ರೀಯ ಬ್ಯಾಂಕ್",
        "short_name": "PNB",
        "source": "local knowledge",
        "website": "https://www.pnbindia.in/",
        "wheelchair": "no"
      }
    },
    {
      "type": "node",
      "id": 4599733258,
      "lat": 13.0023588,
      "lon": 77.5528147,
      "tags": {
        "amenity": "fast_food",
        "cuisine": "indian"
      }
    },
    {
      "type": "node",
      "id": 4599733259,
      "lat": 13.0038982,
      "lon": 77.5534338,
      "tags": {
        "amenity": "dentist",
        "healthcare": "dentist",
        "name": "Braces and Faces"
      }
    },
    {
      "type": "node",
      "id": 4607641672,
      "lat": 13.0042862,
      "lon": 77.5488857,
      "tags": {
        "amenity": "school",
        "name": "Kumon Education Center"
      }
    },
    {
      "type": "node",
      "id": 4623723101,
      "lat": 12.997613,
      "lon": 77.5509423,
      "tags": {
        "addr:district": "Bengaluru Urban",
        "addr:full": "No.607/77, 1st Main, Dr.Rajkumar Road, Rajajinagar 2nd Block",
        "addr:postcode": "560021",
        "addr:state": "Karnataka",
        "amenity": "hospital",
        "healthcare": "hospital",
        "name": "Nethradhama Superspeciality Eye Hospital, Rajajinagar",
        "name:en": "Nethradhama",
        "name:kn": "ನೇತ್ರಧಾಮ",
        "source": "OpenGovernmentData"
      }
    },
    {
      "type": "node",
      "id": 4623723102,
      "lat": 12.9988689,
      "lon": 77.5556335,
      "tags": {
        "shop": "mobile_phone"
      }
    },
    {
      "type": "node",
      "id": 4716286889,
      "lat": 12.9989452,
      "lon": 77.5497945,
      "tags": {
        "amenity": "clinic",
        "healthcare": "clinic",
        "name": "Sree Clinic and Laboratory"
      }
    },
    {
      "type": "node",
      "id": 4975005036,
      "lat": 12.9977103,
      "lon": 77.5483913,
      "tags": {
        "name": "Aruna Silks",
        "shop": "clothes"
      }
    },
    {
      "type": "node",
      "id": 4975005037,
      "lat": 12.9972696,
      "lon": 77.548401,
      "tags": {
        "name": "Ram Medicals",
        "shop": "medical_supply"
      }
    },
    {
      "type": "node",
      "id": 4975005038,
      "lat": 12.9974316,
      "lon": 77.5486505,
      "tags": {
        "amenity": "atm",
        "brand": "State Bank of India",
        "brand:wikidata": "Q1340361",
        "name": "State Bank of India",
        "name:kn": "ಭಾರತೀಯ ಸ್ಟೇಟ್ ಬ್ಯಾಂಕ್",
        "operator": "State Bank of India",
        "operator:wikidata": "Q1340361",
        "short_name": "SBI"
      }
    },
    {
      "type": "node",
      "id": 4975005039,
      "lat": 12.9974264,
      "lon": 77.5485995,
      "tags": {
        "amenity": "bank",
        "atm": "yes",
        "brand": "State Bank of India",
        "brand:wikidata": "Q1340361",
        "name": "State Bank of India",
        "name:kn": "ಭಾರತೀಯ ಸ್ಟೇಟ್ ಬ್ಯಾಂಕ್",
        "short_name": "SBI"
      }
    },
    {
      "type": "node",
      "id": 4975005040,
      "lat": 12.9974496,
      "lon": 77.5487141,
      "tags": {
        "name": "Geetha Medicals",
        "shop": "medical_supply"
      }
    },
    {
      "type": "node",
      "id": 4975005041,
      "lat": 12.9974748,
      "lon": 77.5490415,
      "tags": {
        "amenity": "place_of_worship",
        "denomination": "hindu",
        "religion": "hindu"
      }
    },
    {
      "type": "node",
      "id": 4975005042,
      "lat": 12.9977093,
      "lon": 77.5495591,
      "tags": {
        "name": "New Feet Fashion",
        "shop": "shoes"
      }
    },
    {
      "type": "node",
      "id": 4975005043,
      "lat": 12.9983605,
      "lon": 77.5491093,
      "tags": {
        "amenity": "fast_food",
        "name": "Manjunath Gobi Corner"
      }
    },
    {
      "type": "node",
      "id": 4975005044,
      "lat": 12.9993056,
      "lon": 77.5494692,
      "tags": {
        "amenity": "juice_bar",
        "cuisine": "juice",
        "name": "Juice Adda",
        "name:kn": "ಜೂಸ್ ಅಡ್ಡ"
      }
    },
    {
      "type": "node",
      "id": 5036023484,
      "lat": 13.0022241,
      "lon": 77.5503743,
      "tags": {
        "name": "Pavan Fancy Store",
        "shop": "clothes"
      }
    },
    {
      "type": "node",
      "id": 5061380651,
      "lat": 12.9982067,
      "lon": 77.5499224,
      "tags": {
        "amenity": "bank",
        "brand": "United Bank of India",
        "brand:wikidata": "Q2003237",
        "name": "United Bank of India"
      }
    },
    {
      "type": "node",
      "id": 5061380652,
      "lat": 12.9977674,
      "lon": 77.5499952,
      "tags": {
        "amenity": "ice_cream",
        "name": "Cream House"
      }
    },
    {
      "type": "node",
      "id": 5061380655,
      "lat": 12.9981249,
      "lon": 77.5532794,
      "tags": {
        "amenity": "restaurant",
        "cuisine": "indian",
        "name": "Annappa's Naati Mane Hassan Style",
        "outdoor_seating": "no"
      }
    },
    {
      "type": "node",
      "id": 5061380656,
      "lat": 12.9981288,
      "lon": 77.5579299,
      "tags": {
        "amenity": "fast_food",
        "check_date": "2023-09-16",
        "name": "Sri Eshwar Fruit Juice Center"
      }
    },
    {
      "type": "node",
      "id": 5061380657,
      "lat": 12.996421,
      "lon": 77.5630308,
      "tags": {
        "name": "Kerala Jewels",
        "shop": "jewelry"
      }
    },
    {
      "type": "node",
      "id": 5076442467,
      "lat": 13.0018615,
      "lon": 77.5506272,
      "tags": {
        "name": "V Stitch",
        "shop": "clothes"
      }
    },
    {
      "type": "node",
      "id": 5076442468,
      "lat": 13.0016822,
      "lon": 77.550534,
      "tags": {
        "name": "Lahari Boutiques",
        "shop": "clothes"
      }
    },
    {
      "type": "node",
      "id": 5076490520,
      "lat": 13.0016786,
      "lon": 77.5503911,
      "tags": {
        "name": "Nandini Milk Booth",
        "name:kn": "ನಂದಿನಿ ಹಾಲಿನ ಅಂಗಡಿ",
        "shop": "dairy"
      }
    },
    {
      "type": "node",
      "id": 5076491222,
      "lat": 13.0005913,
      "lon": 77.5506192,
      "tags": {
        "name": "Mobile Aramane",
        "shop": "mobile_phone"
      }
    },
    {
      "type": "node",
      "id": 5076791290,
      "lat": 12.9977034,
      "lon": 77.5486648,
      "tags": {
        "name": "Navkar Jewels and Diamonds",
        "phone": "80-23190002",
        "shop": "jewelry"
      }
    },
    {
      "type": "node",
      "id": 5076791291,
      "lat": 12.997702,
      "lon": 77.5485734,
      "tags": {
        "name": "Grand Bell Dry Cleaner",
        "phone": "9900901141",
        "shop": "dry_cleaning"
      }
    },
    {
      "type": "node",
      "id": 5076861311,
      "lat": 12.9976818,
      "lon": 77.5468391,
      "tags": {
        "brand": "Kanti Sweets",
        "craft": "confectionery",
        "name": "Kanti Sweets",
        "shop": "confectionery"
      }
    },
    {
      "type": "node",
      "id": 5076861312,
      "lat": 12.9974378,
      "lon": 77.5497693,
      "tags": {
        "brand": "Liberty",
        "brand:wikidata": "Q6541947",
        "name": "Liberty Exclusive Showroom",
        "shop": "shoes"
      }
    },
    {
      "type": "node",
      "id": 5091022367,
      "lat": 12.9974809,
      "lon": 77.5498277,
      "tags": {
        "name": "Prakash Electronics",
        "shop": "electronics"
      }
    },
    {
      "type": "node",
      "id": 5091022372,
      "lat": 12.9995779,
      "lon": 77.5501734,
      "tags": {
        "name": "IFB Point",
        "shop": "appliance"
      }
    },
    {
      "type": "node",
      "id": 5091022373,
      "lat": 12.9977114,
      "lon": 77.5497952,
      "tags": {
        "name": "Bharathi Garments",
        "shop": "clothes"
      }
    },
    {
      "type": "node",
      "id": 5091022374,
      "lat": 12.997704,
      "lon": 77.5494434,
      "tags": {
        "amenity": "fast_food",
        "name": "Nandini Grand"
      }
    },
    {
      "type": "node",
      "id": 5109189322,
      "lat": 13.0051192,
      "lon": 77.5541327,
      "tags": {
        "brand": "Hyundai",
        "brand:wikidata": "Q55931",
        "name": "Hyundai Service Center",
        "shop": "car"
      }
    },
    {
      "type": "node",
      "id": 5109189323,
      "lat": 13.0039067,
      "lon": 77.5500713,
      "tags": {
        "addr:postcode": "560010",
        "air_conditioning": "no",
        "branch": "Rajajinagar",
        "brand": "Just Bake",
        "building:levels": "0",
        "check_date": "2024-01-10",
        "currency:INR": "yes",
        "internet_access": "no",
        "name": "Just Bake",
        "name:kn": "ಜಸ್ಟ್ ಬೇಕ್",
        "payment:cash": "yes",
        "payment:credit_cards": "yes",
        "payment:debit_cards": "yes",
        "second_hand": "no",
        "shop": "bakery",
        "source": "local knowledge",
        "stroller": "limited",
        "toilets": "no",
        "toilets:wheelchair": "no",
        "wheelchair": "limited"
      }
    },
    {
      "type": "node",
      "id": 5109189324,
      "lat": 13.0037961,
      "lon": 77.5484357,
      "tags": {
        "male": "yes",
        "name": "Cultural Men's Parlour",
        "shop": "hairdresser"
      }
    },
    {
      "type": "node",
      "id": 5140587436,
      "lat": 13.0037951,
      "lon": 77.5488708,
      "tags": {
        "addr:city": "bangalore",
        "addr:housenumber": "120",
        "addr:postcode": "560086",
        "addr:street": "12th Cross Road",
        "addr:unit": "2nd Stage",
        "name": "Navrathan Jewellers",
        "phone": "+91 (080) 61227600",
        "phone_1": "+91 (080) 61227699",
        "shop": "jewelry",
        "website": "https://navrathan.com/"
      }
    },
    {
      "type": "node",
      "id": 5157373777,
      "lat": 12.9974787,
      "lon": 77.5492772,
      "tags": {
        "name": "Khalandar Mutton Stall",
        "shop": "butcher"
      }
    },
    {
      "type": "node",
      "id": 5157373778,
      "lat": 12.9933689,
      "lon": 77.5528214,
      "tags": {
        "amenity": "college",
        "name": "Government First Grade College"
      }
    },
    {
      "type": "node",
      "id": 5157373803,
      "lat": 12.9899364,
      "lon": 77.5528432,
      "tags": {
        "amenity": "pharmacy",
        "healthcare": "pharmacy",
        "name": "Kasturi Pharma and General Stores"
      }
    },
    {
      "type": "node",
      "id": 5168325353,
      "lat": 13.0014727,
      "lon": 77.5504372,
      "tags": {
        "name": "Motorola Mobile Cafe",
        "shop": "mobile_phone"
      }
    },
    {
      "type": "node",
      "id": 5175027874,
      "lat": 12.9973521,
      "lon": 77.5501349,
      "tags": {
        "name": "Mahaveer Hardware",
        "shop": "hardware"
      }
    },
    {
      "type": "node",
      "id": 5175027875,
      "lat": 12.9977279,
      "lon": 77.5514466,
      "tags": {
        "name": "7 Colors",
        "shop": "clothes"
      }
    },
    {
      "type": "node",
      "id": 5175027876,
      "lat": 12.9977954,
      "lon": 77.5516928,
      "tags": {
        "brand": "Vivo",
        "brand:wikidata": "Q18301787",
        "brand:wikipedia": "en:Vivo (technology company)",
        "name": "Vivo",
        "shop": "mobile_phone"
      }
    },
    {
      "type": "node",
      "id": 5175027877,
      "lat": 12.9979084,
      "lon": 77.5521686,
      "tags": {
        "amenity": "atm",
        "brand": "HDFC Bank",
        "brand:wikidata": "Q631047",
        "name": "HDFC Bank",
        "operator": "HDFC Bank",
        "operator:wikidata": "Q631047",
        "short_name": "HDFC"
      }
    },
    {
      "type": "node",
      "id": 5175027878,
      "lat": 12.998422,
      "lon": 77.5532934,
      "tags": {
        "name": "Sangeetha",
        "shop": "electronics"
      }
    },
    {
      "type": "node",
      "id": 5175027879,
      "lat": 12.9981821,
      "lon": 77.5535026,
      "tags": {
        "name": "Titan",
        "shop": "watches"
      }
    },
    {
      "type": "node",
      "id": 5175027880,
      "lat": 12.9985641,
      "lon": 77.5552753,
      "tags": {
        "amenity": "atm",
        "brand": "Axis Bank",
        "brand:wikidata": "Q2003549",
        "name": "Axis Bank",
        "name:kn": "ಆಕ್ಸಿಸ್ ಬ್ಯಾಂಕ್",
        "operator": "Axis Bank",
        "operator:wikidata": "Q2003549"
      }
    },
    {
      "type": "node",
      "id": 5175027881,
      "lat": 12.9984849,
      "lon": 77.5554044,
      "tags": {
        "amenity": "atm",
        "brand": "ICICI Bank",
        "brand:wikidata": "Q1653258",
        "name": "ICICI Bank",
        "operator": "ICICI Bank",
        "operator:wikidata": "Q1653258",
        "short_name": "ICICI"
      }
    },
    {
      "type": "node",
      "id": 5175027882,
      "lat": 12.9982334,
      "lon": 77.557495,
      "tags": {
        "name": "HP World",
        "shop": "electronics"
      }
    },
    {
      "type": "node",
      "id": 5175027883,
      "lat": 12.9969598,
      "lon": 77.5613556,
      "tags": {
        "name": "Tan Shoes",
        "shop": "shoes"
      }
    },
    {
      "type": "node",
      "id": 5227398203,
      "lat": 12.997507,
      "lon": 77.5500266,
      "tags": {
        "amenity": "restaurant",
        "name": "Santhosh Bar & Restaurant"
      }
    },
    {
      "type": "node",
      "id": 5227399587,
      "lat": 12.9979227,
      "lon": 77.5522341,
      "tags": {
        "amenity": "restaurant",
        "name": "Hotel Nalapaka",
        "name:kn": "ನಳಪಾಕ"
      }
    },
    {
      "type": "node",
      "id": 5227399588,
      "lat": 12.9982738,
      "lon": 77.5526311,
      "tags": {
        "amenity": "clinic",
        "healthcare": "clinic",
        "name": "Dr. Shetty's Cosmetic Centre"
      }
    },
    {
      "type": "node",
      "id": 5227399589,
      "lat": 12.9983619,
      "lon": 77.5528438,
      "tags": {
        "amenity": "fast_food",
        "check_date": "2024-08-11",
        "name": "Al Ambur Dum Biryani"
      }
    },
    {
      "type": "node",
      "id": 5227399590,
      "lat": 12.9983443,
      "lon": 77.5530904,
      "tags": {
        "amenity": "fast_food",
        "name": "Gopal's Pure Veg and Sweets"
      }
    },
    {
      "type": "node",
      "id": 5227399591,
      "lat": 12.9981658,
      "lon": 77.5533488,
      "tags": {
        "name": "SRN Gems & Jewellery Works",
        "shop": "jewelry"
      }
    },
    {
      "type": "node",
      "id": 5227399592,
      "lat": 12.9981764,
      "lon": 77.5534478,
      "tags": {
        "name": "Ideal Decor",
        "shop": "furniture"
      }
    },
    {
      "type": "node",
      "id": 5227399593,
      "lat": 12.9981822,
      "lon": 77.5534003,
      "tags": {
        "name": "Nisarga Holidays",
        "shop": "travel_agency"
      }
    },
    {
      "type": "node",
      "id": 5227399594,
      "lat": 12.9985671,
      "lon": 77.5553891,
      "tags": {
        "name": "Sri Ganesha Stationeries",
        "shop": "stationery"
      }
    },
    {
      "type": "node",
      "id": 5227399595,
      "lat": 12.9987696,
      "lon": 77.5561682,
      "tags": {
        "name": "Shiva Vision Care",
        "shop": "optician"
      }
    },
    {
      "type": "node",
      "id": 5227399596,
      "lat": 12.9969929,
      "lon": 77.5613395,
      "tags": {
        "amenity": "fast_food",
        "name": "Malgudi's Donne Biryani"
      }
    },
    {
      "type": "node",
      "id": 5227399597,
      "lat": 12.9967846,
      "lon": 77.5626479,
      "tags": {
        "amenity": "bank",
        "atm": "yes",
        "brand": "Karnataka Bank",
        "brand:wikidata": "Q2042632",
        "name": "Karnataka Bank",
        "name:kn": "ಕರ್ನಾಟಕ ಬ್ಯಾಂಕ್"
      }
    },
    {
      "type": "node",
      "id": 5232581129,
      "lat": 12.9971748,
      "lon": 77.5483724,
      "tags": {
        "name": "Saanvi Rice Traders",
        "shop": "yes"
      }
    },
    {
      "type": "node",
      "id": 5232581130,
      "lat": 12.9974492,
      "lon": 77.5488565,
      "tags": {
        "amenity": "fast_food",
        "name": "Sree Ganesh Fruit Juice Center"
      }
    },
    {
      "type": "node",
      "id": 5265572204,
      "lat": 12.996966,
      "lon": 77.5523974,
      "tags": {
        "amenity": "bank",
        "name": "HDFC Securities"
      }
    },
    {
      "type": "node",
      "id": 5269219819,
      "lat": 13.0024301,
      "lon": 77.5491202,
      "tags": {
        "amenity": "community_centre",
        "name": "Lakshmi Convention Hall"
      }
    },
    {
      "type": "node",
      "id": 5269220021,
      "lat": 13.0041302,
      "lon": 77.5494448,
      "tags": {
        "name": "Sri Ganesha Medicals",
        "shop": "medical_supply"
      }
    },
    {
      "type": "node",
      "id": 5274915541,
      "lat": 12.9978121,
      "lon": 77.5505122,
      "tags": {
        "amenity": "fast_food",
        "brand": "Indira Canteen",
        "brand:wikidata": "Q36164828",
        "cuisine": "south_indian",
        "delivery": "no",
        "drive_through": "no",
        "name": "Indira Canteen",
        "operator": "BBMP",
        "takeaway": "no"
      }
    },
    {
      "type": "node",
      "id": 5274915550,
      "lat": 13.0021777,
      "lon": 77.5528331,
      "tags": {
        "amenity": "fast_food",
        "cuisine": "regional",
        "drive_through": "no",
        "name": "Big Mishra Pedha"
      }
    },
    {
      "type": "node",
      "id": 5277355067,
      "lat": 12.9971501,
      "lon": 77.5484803,
      "tags": {
        "amenity": "atm",
        "brand": "Corporation Bank",
        "brand:wikidata": "Q2003387",
        "name": "Corporation Bank",
        "name:kn": "ಕಾರ್ಪರೇಷನ್ ಬ್ಯಾಂಕ್",
        "operator": "Corporation Bank",
        "operator:wikidata": "Q2003387"
      }
    },
    {
      "type": "node",
      "id": 5277355068,
      "lat": 12.9973648,
      "lon": 77.5483946,
      "tags": {
        "amenity": "ice_cream",
        "name": "Arun Ice Creams"
      }
    },
    {
      "type": "node",
      "id": 5277355069,
      "lat": 12.9978198,
      "lon": 77.5488214,
      "tags": {
        "name": "Sri Ranga Silks",
        "shop": "clothes"
      }
    },
    {
      "type": "node",
      "id": 5277355070,
      "lat": 12.997882,
      "lon": 77.5488237,
      "tags": {
        "name": "Marshall Tours n Travels",
        "shop": "travel_agency"
      }
    },
    {
      "type": "node",
      "id": 5277355071,
      "lat": 12.9977063,
      "lon": 77.5486255,
      "tags": {
        "craft": "watchmaker",
        "name": "Timex",
        "shop": "watches"
      }
    },
    {
      "type": "node",
      "id": 5277355072,
      "lat": 12.9974567,
      "lon": 77.5489079,
      "tags": {
        "shop": "tailor"
      }
    },
    {
      "type": "node",
      "id": 5277355077,
      "lat": 12.9982228,
      "lon": 77.5491431,
      "tags": {
        "shop": "dairy"
      }
    },
    {
      "type": "node",
      "id": 5351138597,
      "lat": 13.0030661,
      "lon": 77.5518492,
      "tags": {
        "brand": "HOPCOMS",
        "brand:wikidata": "Q22908959",
        "name": "HOPCOMS",
        "name:kn": "ಹಾಪ್ ಕಾಮ್ಸ್",
        "shop": "greengrocer"
      }
    },
    {
      "type": "node",
      "id": 5402224029,
      "lat": 12.9985202,
      "lon": 77.5527956,
      "tags": {
        "amenity": "dentist",
        "healthcare": "dentist"
      }
    },
    {
      "type": "node",
      "id": 5402224030,
      "lat": 12.9953339,
      "lon": 77.5550415,
      "tags": {
        "name": "Karnataka Furniture",
        "shop": "furniture"
      }
    },
    {
      "type": "node",
      "id": 5402302822,
      "lat": 12.9910874,
      "lon": 77.5580951,
      "tags": {
        "shop": "motorcycle"
      }
    },
    {
      "type": "node",
      "id": 5402307932,
      "lat": 13.0046959,
      "lon": 77.5536477,
      "tags": {
        "name": "Aditya",
        "name:kn": "ಅದಿತ್ಯ",
        "shop": "car_parts"
      }
    },
    {
      "type": "node",
      "id": 5402307933,
      "lat": 12.9986872,
      "lon": 77.5531093,
      "tags": {
        "amenity": "place_of_worship",
        "religion": "hindu"
      }
    },
    {
      "type": "node",
      "id": 5402307934,
      "lat": 12.9924016,
      "lon": 77.5571593,
      "tags": {
        "shop": "motorcycle"
      }
    },
    {
      "type": "node",
      "id": 5412616124,
      "lat": 12.9978134,
      "lon": 77.5464292,
      "tags": {
        "shop": "copyshop"
      }
    },
    {
      "type": "node",
      "id": 5412616125,
      "lat": 12.9976813,
      "lon": 77.546322,
      "tags": {
        "shop": "jewelry"
      }
    },
    {
      "type": "node",
      "id": 5412616126,
      "lat": 12.9973139,
      "lon": 77.5462296,
      "tags": {
        "brand": "Ramraj Cotton",
        "brand:wikidata": "Q119161281",
        "clothes": "women;men;children",
        "name": "Ramraj Cotton",
        "operator": "Ramraj",
        "shop": "clothes"
      }
    },
    {
      "type": "node",
      "id": 5602313540,
      "lat": 13.0019458,
      "lon": 77.5518071,
      "tags": {
        "shop": "jewelry"
      }
    },
    {
      "type": "node",
      "id": 5602313541,
      "lat": 13.0021577,
      "lon": 77.5526639,
      "tags": {
        "amenity": "pharmacy",
        "dispensing": "yes",
        "healthcare": "pharmacy",
        "name": "Sri Banashankari Medicals"
      }
    },
    {
      "type": "node",
      "id": 5602313542,
      "lat": 13.0020532,
      "lon": 77.5523063,
      "tags": {
        "shop": "greengrocer"
      }
    },
    {
      "type": "node",
      "id": 5602313543,
      "lat": 13.0020126,
      "lon": 77.5521886,
      "tags": {
        "amenity": "clinic",
        "healthcare": "clinic"
      }
    },
    {
      "type": "node",
      "id": 5611358756,
      "lat": 12.9970708,
      "lon": 77.5484424,
      "tags": {
        "name": "Tanishka Xerox Centre",
        "service:print": "yes",
        "shop": "copyshop"
      }
    },
    {
      "type": "node",
      "id": 5611358757,
      "lat": 12.9976787,
      "lon": 77.5493004,
      "tags": {
        "addr:city": "Bangalore",
        "addr:housenumber": "27",
        "addr:postcode": "560086",
        "addr:street": "Modi Hospital Main Road",
        "brand": "Jockey",
        "brand:wikidata": "Q534235",
        "brand:wikipedia": "en:Jockey International",
        "email": "jockey.B60@pageind.com",
        "name": "Jockey",
        "phone": "+918043006571",
        "shop": "clothes",
        "website": "https://www.jockeyindia.com"
      }
    },
    {
      "type": "node",
      "id": 5624262705,
      "lat": 12.9898647,
      "lon": 77.5545636,
      "tags": {
        "name": "Sri Sai Fashion",
        "shop": "clothes"
      }
    },
    {
      "type": "node",
      "id": 5624262706,
      "lat": 12.9898621,
      "lon": 77.5546219,
      "tags": {
        "amenity": "atm",
        "brand": "indicash"
      }
    },
    {
      "type": "node",
      "id": 5624262707,
      "lat": 12.9898477,
      "lon": 77.5551537,
      "tags": {
        "name": "Aadinath Medicals",
        "shop": "medical_supply"
      }
    },
    {
      "type": "node",
      "id": 5624262708,
      "lat": 12.9898516,
      "lon": 77.5551738,
      "tags": {
        "amenity": "atm",
        "brand": "HDFC Bank",
        "brand:wikidata": "Q631047",
        "name": "HDFC Bank",
        "operator": "HDFC Bank",
        "operator:wikidata": "Q631047",
        "short_name": "HDFC"
      }
    },
    {
      "type": "node",
      "id": 5624262709,
      "lat": 12.9898484,
      "lon": 77.5553153,
      "tags": {
        "name": "Graduate Textiles & Tailors",
        "shop": "tailor"
      }
    },
    {
      "type": "node",
      "id": 5624262710,
      "lat": 12.9898418,
      "lon": 77.5553763,
      "tags": {
        "amenity": "atm",
        "brand": "Union Bank"
      }
    },
    {
      "type": "node",
      "id": 5624262711,
      "lat": 12.9898399,
      "lon": 77.5554641,
      "tags": {
        "amenity": "dentist",
        "healthcare": "dentist",
        "name": "Magi Orthodontic Dental Care Centre"
      }
    },
    {
      "type": "node",
      "id": 5624262712,
      "lat": 12.9898562,
      "lon": 77.5555627,
      "tags": {
        "name": "Shri Thrupti Real Estate",
        "shop": "copyshop"
      }
    },
    {
      "type": "node",
      "id": 5624262713,
      "lat": 12.9898575,
      "lon": 77.5556009,
      "tags": {
        "name": "Bombay Modern Tailors",
        "shop": "tailor"
      }
    },
    {
      "type": "node",
      "id": 5624262714,
      "lat": 12.9898562,
      "lon": 77.5556318,
      "tags": {
        "name": "Singer Showroom",
        "note": "Sewing Machine, Home Appliances",
        "shop": "houseware"
      }
    },
    {
      "type": "node",
      "id": 5624262715,
      "lat": 12.9898418,
      "lon": 77.555723,
      "tags": {
        "amenity": "clinic",
        "healthcare": "clinic",
        "name": "Deepashri Clinical Laboratory"
      }
    },
    {
      "type": "node",
      "id": 5624262716,
      "lat": 12.989817,
      "lon": 77.5558289,
      "tags": {
        "name": "N Rich Fashions",
        "shop": "clothes"
      }
    },
    {
      "type": "node",
      "id": 5624262717,
      "lat": 12.9896759,
      "lon": 77.5559161,
      "tags": {
        "name": "Just Bake",
        "name:kn": "ಜಸ್ಟ್ ಬೇಕ್",
        "shop": "bakery"
      }
    },
    {
      "type": "node",
      "id": 5624262718,
      "lat": 12.9895772,
      "lon": 77.5559134,
      "tags": {
        "name": "Party N Toys Zone",
        "shop": "toys"
      }
    },
    {
      "type": "node",
      "id": 5624262719,
      "lat": 12.9895269,
      "lon": 77.5559134,
      "tags": {
        "name": "The Mobile Track",
        "shop": "mobile_phone"
      }
    },
    {
      "type": "node",
      "id": 5624262720,
      "lat": 12.9885991,
      "lon": 77.555898,
      "tags": {
        "amenity": "atm",
        "name": "NKGSB Bank"
      }
    },
    {
      "type": "node",
      "id": 5624263021,
      "lat": 12.9887846,
      "lon": 77.555898,
      "tags": {
        "note": "name unknown",
        "shop": "supermarket"
      }
    },
    {
      "type": "node",
      "id": 5624263022,
      "lat": 12.9886337,
      "lon": 77.5558993,
      "tags": {
        "amenity": "bank",
        "atm": "yes",
        "name": "NKGSB Bank"
      }
    },
    {
      "type": "node",
      "id": 5624263023,
      "lat": 12.9885435,
      "lon": 77.5558846,
      "tags": {
        "name": "One Touch",
        "shop": "electronics"
      }
    },
    {
      "type": "node",
      "id": 5624263024,
      "lat": 12.9885148,
      "lon": 77.5558839,
      "tags": {
        "name": "Pradhan Jewels & Diamonds",
        "shop": "jewelry"
      }
    },
    {
      "type": "node",
      "id": 5624263025,
      "lat": 12.9884716,
      "lon": 77.5558826,
      "tags": {
        "shop": "copyshop"
      }
    },
    {
      "type": "node",
      "id": 5624263026,
      "lat": 12.9884632,
      "lon": 77.5557008,
      "tags": {
        "name": "GP Footwear",
        "shop": "shoes"
      }
    },
    {
      "type": "node",
      "id": 5922659263,
      "lat": 12.9971721,
      "lon": 77.5501728,
      "tags": {
        "shop": "yes"
      }
    },
    {
      "type": "node",
      "id": 5922659264,
      "lat": 12.9970049,
      "lon": 77.550213,
      "tags": {
        "amenity": "atm",
        "brand": "ICICI Bank",
        "brand:wikidata": "Q1653258",
        "name": "ICICI Bank",
        "operator": "ICICI Bank",
        "operator:wikidata": "Q1653258",
        "short_name": "ICICI"
      }
    },
    {
      "type": "node",
      "id": 5922659265,
      "lat": 12.9969748,
      "lon": 77.5502077,
      "tags": {
        "amenity": "atm",
        "brand": "Axis Bank",
        "brand:wikidata": "Q2003549",
        "name": "Axis Bank",
        "name:kn": "ಆಕ್ಸಿಸ್ ಬ್ಯಾಂಕ್",
        "operator": "Axis Bank",
        "operator:wikidata": "Q2003549"
      }
    },
    {
      "type": "node",
      "id": 5922659271,
      "lat": 12.994309,
      "lon": 77.5508192,
      "tags": {
        "name": "Rostar Mottan Stall",
        "note": "spelled as Mottan on board",
        "shop": "butcher"
      }
    },
    {
      "type": "node",
      "id": 5922659273,
      "lat": 12.9934544,
      "lon": 77.5508621,
      "tags": {
        "name": "The Ancient Buddha",
        "note": "Healthcare and Spa",
        "shop": "yes"
      }
    },
    {
      "type": "node",
      "id": 5922659275,
      "lat": 12.9928703,
      "lon": 77.550834,
      "tags": {
        "amenity": "fast_food",
        "cuisine": "regional",
        "name": "Hotel Park Inn"
      }
    },
    {
      "type": "node",
      "id": 5922659276,
      "lat": 12.9928193,
      "lon": 77.5508326,
      "tags": {
        "name": "Srinidhi Wines",
        "shop": "wine"
      }
    },
    {
      "type": "node",
      "id": 5922659277,
      "lat": 12.9921267,
      "lon": 77.5507937,
      "tags": {
        "brand": "Hyundai",
        "brand:wikidata": "Q55931",
        "name": "Trident Hyundai",
        "shop": "car"
      }
    },
    {
      "type": "node",
      "id": 5922659278,
      "lat": 12.9914563,
      "lon": 77.550787,
      "tags": {
        "amenity": "community_centre",
        "name": "Sri Channakeshava Kalyana Mantapa"
      }
    },
    {
      "type": "node",
      "id": 5922659279,
      "lat": 12.9913348,
      "lon": 77.5507951,
      "tags": {
        "amenity": "college",
        "name": "Hindi Shikshak Training College"
      }
    },
    {
      "type": "node",
      "id": 5922659280,
      "lat": 12.9911127,
      "lon": 77.5507508,
      "tags": {
        "name": "Sun Car Decore",
        "shop": "car_parts"
      }
    },
    {
      "type": "node",
      "id": 5922659281,
      "lat": 12.9909964,
      "lon": 77.5507374,
      "tags": {
        "name": "Bharath Car Fitting",
        "shop": "car_repair"
      }
    },
    {
      "type": "node",
      "id": 5922659282,
      "lat": 12.9910238,
      "lon": 77.5505564,
      "tags": {
        "amenity": "atm",
        "brand": "ICICI Bank",
        "brand:wikidata": "Q1653258",
        "operator": "ICICI Bank",
        "operator:wikidata": "Q1653258",
        "short_name": "ICICI"
      }
    },
    {
      "type": "node",
      "id": 5922660388,
      "lat": 12.9898921,
      "lon": 77.5536704,
      "tags": {
        "amenity": "dentist",
        "healthcare": "dentist",
        "name": "Ohan's Dental Care"
      }
    },
    {
      "type": "node",
      "id": 5922660389,
      "lat": 12.9899039,
      "lon": 77.5535725,
      "tags": {
        "name": "V. R. Opticians",
        "shop": "optician"
      }
    },
    {
      "type": "node",
      "id": 5922660390,
      "lat": 12.9899111,
      "lon": 77.5535088,
      "tags": {
        "name": "Annapoorneshwari Cars",
        "shop": "car"
      }
    },
    {
      "type": "node",
      "id": 5922660392,
      "lat": 12.9899111,
      "lon": 77.5532211,
      "tags": {
        "amenity": "restaurant",
        "cuisine": "regional",
        "name": "Sri Durga Grand Veg"
      }
    },
    {
      "type": "node",
      "id": 5922660393,
      "lat": 12.9899104,
      "lon": 77.5531138,
      "tags": {
        "amenity": "pharmacy",
        "name": "Seetha Medicals & General Store"
      }
    },
    {
      "type": "node",
      "id": 5922660394,
      "lat": 12.9899287,
      "lon": 77.5528993,
      "tags": {
        "amenity": "bank",
        "atm": "yes",
        "brand": "Axis Bank",
        "brand:wikidata": "Q2003549",
        "name": "Axis Bank",
        "name:kn": "ಆಕ್ಸಿಸ್ ಬ್ಯಾಂಕ್"
      }
    },
    {
      "type": "node",
      "id": 5922660395,
      "lat": 12.9899349,
      "lon": 77.5527977,
      "tags": {
        "amenity": "fast_food",
        "cuisine": "regional",
        "name": "Hotel Kaveri",
        "name:kn": "ಹೊಟೆಲ್ ಕಾವೇರಿ"
      }
    },
    {
      "type": "node",
      "id": 5954688579,
      "lat": 13.0000437,
      "lon": 77.550093,
      "tags": {
        "amenity": "fast_food",
        "check_date": "2025-03-18",
        "cuisine": "regional",
        "name": "Sogadu Heritage"
      }
    },
    {
      "type": "node",
      "id": 6000091923,
      "lat": 12.9996905,
      "lon": 77.5497732,
      "tags": {
        "amenity": "atm",
        "brand": "State Bank of India",
        "brand:wikidata": "Q1340361",
        "cash_in": "no",
        "layer": "1",
        "level": "1",
        "name": "State Bank of India",
        "name:kn": "ಎಸ್ ಬಿ ಐ",
        "operator": "State Bank of India",
        "operator:wikidata": "Q1340361",
        "short_name": "SBI"
      }
    },
    {
      "type": "node",
      "id": 6001786872,
      "lat": 13.0039371,
      "lon": 77.5537911,
      "tags": {
        "name": "Modern Pastries",
        "shop": "pastry"
      }
    },
    {
      "type": "node",
      "id": 6001786873,
      "lat": 13.0016761,
      "lon": 77.550501,
      "tags": {
        "name": "Dhanam Creations",
        "shop": "tailor"
      }
    },
    {
      "type": "node",
      "id": 6017445195,
      "lat": 13.0005945,
      "lon": 77.5496297,
      "tags": {
        "access": "customers",
        "amenity": "toilets",
        "female": "yes",
        "layer": "1",
        "level": "1",
        "male": "yes",
        "wheelchair": "limited"
      }
    },
    {
      "type": "node",
      "id": 6017445196,
      "lat": 13.0005043,
      "lon": 77.549682,
      "tags": {
        "amenity": "drinking_water",
        "fountain": "bubbler",
        "indoor": "yes",
        "layer": "1",
        "level": "1"
      }
    },
    {
      "type": "node",
      "id": 6017445197,
      "lat": 13.0001169,
      "lon": 77.5499562,
      "tags": {
        "amenity": "atm",
        "brand": "State Bank of India",
        "brand:wikidata": "Q1340361",
        "cash_in": "no",
        "layer": "1",
        "level": "1",
        "name": "State Bank of India",
        "operator": "State Bank of India",
        "operator:wikidata": "Q1340361",
        "short_name": "SBI"
      }
    },
    {
      "type": "node",
      "id": 6017445199,
      "lat": 12.9977118,
      "lon": 77.5467135,
      "tags": {
        "amenity": "restaurant",
        "brand": "Empire",
        "cuisine": "indian",
        "delivery": "yes",
        "name": "Empire",
        "name:kn": "ಎಂಪೈರ್",
        "takeaway": "yes"
      }
    },
    {
      "type": "node",
      "id": 6017490876,
      "lat": 12.9995622,
      "lon": 77.5496994,
      "tags": {
        "amenity": "fast_food",
        "check_date": "2024-07-28",
        "cuisine": "regional",
        "name": "Brahmin's Thatte Idli",
        "takeaway": "yes"
      }
    },
    {
      "type": "node",
      "id": 6017490877,
      "lat": 12.998341,
      "lon": 77.5488936,
      "tags": {
        "amenity": "bench",
        "backrest": "no",
        "material": "stone",
        "seats": "2"
      }
    },
    {
      "type": "node",
      "id": 6017490878,
      "lat": 12.9983365,
      "lon": 77.5488747,
      "tags": {
        "amenity": "bench",
        "backrest": "no",
        "material": "stone",
        "seats": "2"
      }
    },
    {
      "type": "node",
      "id": 6017490879,
      "lat": 12.9983307,
      "lon": 77.5488551,
      "tags": {
        "amenity": "bench",
        "seats": "2"
      }
    },
    {
      "type": "node",
      "id": 6017490880,
      "lat": 12.998326,
      "lon": 77.5488359,
      "tags": {
        "amenity": "bench",
        "seats": "2"
      }
    },
    {
      "type": "node",
      "id": 6017490881,
      "lat": 12.9983224,
      "lon": 77.548819,
      "tags": {
        "amenity": "bench",
        "backrest": "no",
        "material": "stone",
        "seats": "2"
      }
    },
    {
      "type": "node",
      "id": 6108140989,
      "lat": 12.997195,
      "lon": 77.5603577,
      "tags": {
        "access": "yes",
        "amenity": "toilets",
        "fee": "yes"
      }
    },
    {
      "type": "node",
      "id": 6209420987,
      "lat": 12.9976496,
      "lon": 77.5474572,
      "tags": {
        "brand": "Lenskart",
        "brand:wikidata": "Q17068753",
        "level": "0",
        "name": "Lenskart",
        "shop": "optician"
      }
    },
    {
      "type": "node",
      "id": 6284075469,
      "lat": 13.0002762,
      "lon": 77.5500211,
      "tags": {
        "amenity": "restaurant",
        "indoor_seating": "yes",
        "outdoor_seating": "no"
      }
    },
    {
      "type": "node",
      "id": 6487165551,
      "lat": 12.9904646,
      "lon": 77.5505346,
      "tags": {
        "amenity": "restaurant",
        "cuisine": "indian",
        "name": "Udupi Upachar"
      }
    },
    {
      "type": "node",
      "id": 6487165552,
      "lat": 12.9954423,
      "lon": 77.5504727,
      "tags": {
        "name": "True Cars",
        "shop": "car"
      }
    },
    {
      "type": "node",
      "id": 6508610153,
      "lat": 12.9974487,
      "lon": 77.5487521,
      "tags": {
        "name": "Sri Sai Mementos and Trophies",
        "shop": "interior_decoration"
      }
    },
    {
      "type": "node",
      "id": 6508610154,
      "lat": 12.9974496,
      "lon": 77.5487807,
      "tags": {
        "name": "Vivek Steel Furnitures",
        "shop": "furniture"
      }
    },
    {
      "type": "node",
      "id": 6508610155,
      "lat": 12.9983548,
      "lon": 77.5489481,
      "tags": {
        "amenity": "bench",
        "backrest": "no",
        "material": "stone",
        "seats": "2"
      }
    },
    {
      "type": "node",
      "id": 6508610156,
      "lat": 12.9983497,
      "lon": 77.5489277,
      "tags": {
        "amenity": "bench",
        "backrest": "no",
        "material": "stone",
        "seats": "2"
      }
    },
    {
      "type": "node",
      "id": 6508610157,
      "lat": 12.9983454,
      "lon": 77.5489095,
      "tags": {
        "amenity": "bench",
        "backrest": "no",
        "material": "stone",
        "seats": "2"
      }
    },
    {
      "type": "node",
      "id": 6508610158,
      "lat": 12.9976732,
      "lon": 77.5490208,
      "tags": {
        "name": "Nandini Milk Parlour",
        "name:kn": "ನಂದಿನಿ ಹಾಲಿನ ಅಂಗಡಿ",
        "shop": "dairy"
      }
    },