{
  "area_name": "MICO Layout",
  "osm_id": 2941487973,
  "osm_type": "node",
  "place_type": "neighbourhood",
  "amenity_count": 580,
  "amenities": [
    {
      "type": "node",
      "id": 306850490,
      "lat": 12.9163076,
      "lon": 77.6103158,
      "tags": {
        "addr:city": "BTM Layout, Bangalore",
        "addr:housenumber": "72",
        "addr:street": "2nd Stage, 16th Main",
        "amenity": "pub",
        "name": "Avon Pub"
      }
    },
    {
      "type": "node",
      "id": 876627766,
      "lat": 12.9130435,
      "lon": 77.6099326,
      "tags": {
        "name": "Trends Woman",
        "shop": "clothes"
      }
    },
    {
      "type": "node",
      "id": 945903493,
      "lat": 12.9107877,
      "lon": 77.6100543,
      "tags": {
        "brand": "HOPCOMS",
        "brand:wikidata": "Q22908959",
        "name": "HOPCOMS",
        "name:kn": "ಹಾಪ್ ಕಾಮ್ಸ್",
        "shop": "greengrocer"
      }
    },
    {
      "type": "node",
      "id": 949313545,
      "lat": 12.9140567,
      "lon": 77.6099682,
      "tags": {
        "check_date": "2023-10-15",
        "clothes": "underwear",
        "name": "Jockey",
        "opening_hours": "Mo-Su 09:00-21:00",
        "shop": "clothes"
      }
    },
    {
      "type": "node",
      "id": 949313546,
      "lat": 12.9141469,
      "lon": 77.6116922,
      "tags": {
        "addr:place": "B T M Layout",
        "amenity": "school",
        "isced:level": "3",
        "name": "St Josephs Eng Pri Sch, B T M Layout W No 65",
        "name:kn": "ಸೆಂಟ್‌ ಜೋಸೆಫ್ ಆಂಗ್ಲ ಪ್ರಾಥಮಿಕ ಶಾಲೆ, ಬಿ.ಟಿ.ಎಂ ಲೇಔಟ್",
        "operator": "Higher Secondary",
        "school": "Higher Secondary"
      }
    },
    {
      "type": "node",
      "id": 949313551,
      "lat": 12.9136384,
      "lon": 77.6074718,
      "tags": {
        "amenity": "pharmacy",
        "brand": "MedPlus",
        "brand:wikidata": "Q65684234",
        "healthcare": "pharmacy",
        "name": "MedPlus",
        "opening_hours": "PH,Mo-Su 08:00-23:00"
      }
    },
    {
      "type": "node",
      "id": 949313557,
      "lat": 12.9136816,
      "lon": 77.6077065,
      "tags": {
        "name": "Cashify",
        "opening_hours": "Mo-Su 09:00-21:00",
        "shop": "mobile_phone"
      }
    },
    {
      "type": "node",
      "id": 949313559,
      "lat": 12.9140156,
      "lon": 77.6092776,
      "tags": {
        "addr:postcode": "560076",
        "air_conditioning": "yes",
        "brand": "Allen Solly",
        "brand:wikidata": "Q110036995",
        "check_date": "2023-12-27",
        "clothes": "workwear;men;western;accessories;shirts",
        "currency:INR": "yes",
        "internet_access": "no",
        "level": "0;1",
        "name": "Allen Solly",
        "opening_hours": "Mo-Su 10:00-21:00",
        "payment:cash": "yes",
        "payment:credit_cards": "yes",
        "payment:debit_cards": "yes",
        "second_hand": "no",
        "shop": "clothes",
        "source": "local knowledge",
        "stroller": "limited",
        "wheelchair": "no"
      }
    },
    {
      "type": "node",
      "id": 951203512,
      "lat": 12.913127,
      "lon": 77.6101684,
      "tags": {
        "amenity": "restaurant",
        "name": "Beijing Bites",
        "name:kn": "ಬೀಜಿಂಗ್ ಬೈಟ್ಸ್",
        "opening_hours": "Mo-Su 09:00-21:30"
      }
    },
    {
      "type": "node",
      "id": 951203518,
      "lat": 12.9127285,
      "lon": 77.6064015,
      "tags": {
        "amenity": "atm",
        "brand": "Indian Bank",
        "brand:wikidata": "Q2003789",
        "check_date": "2023-10-15",
        "name": "Indian Bank",
        "operator": "Indian Bank",
        "operator:wikidata": "Q2003789"
      }
    },
    {
      "type": "node",
      "id": 951203520,
      "lat": 12.9136099,
      "lon": 77.6102033,
      "tags": {
        "name": "Mom & Kid",
        "opening_hours": "Mo-Su 09:30-21:00",
        "shop": "clothes"
      }
    },
    {
      "type": "node",
      "id": 951203524,
      "lat": 12.9136689,
      "lon": 77.6099505,
      "tags": {
        "amenity": "restaurant",
        "check_date": "2023-10-15",
        "name": "Punjabi Swag",
        "opening_hours": "Mo-Su 10:00-21:00",
        "wheelchair": "limited"
      }
    },
    {
      "type": "node",
      "id": 951203525,
      "lat": 12.9138062,
      "lon": 77.6099744,
      "tags": {
        "check_date": "2023-10-15",
        "name": "Honey Drops",
        "opening_hours": "Mo-Su 09:00-21:00",
        "shop": "alcohol"
      }
    },
    {
      "type": "node",
      "id": 951203526,
      "lat": 12.9086369,
      "lon": 77.6105652,
      "tags": {
        "amenity": "police",
        "name": "Mico Layout Police Station",
        "name:kn": "ಮಿಕೋ ಬಡಾವಣೆ ಆರಕ್ಷಕ",
        "wheelchair": "yes"
      }
    },
    {
      "type": "node",
      "id": 951203531,
      "lat": 12.9133476,
      "lon": 77.6101635,
      "tags": {
        "amenity": "pharmacy",
        "brand": "Apollo Pharmacy",
        "brand:wikidata": "Q62562612",
        "healthcare": "pharmacy",
        "name": "Apollo Pharmacy",
        "name:kn": "ಅಪೋಲೋ ಫಾರ್ಮಸಿ",
        "opening_hours": "PH,Mo-Su 08:00-23:00",
        "wheelchair": "no"
      }
    },
    {
      "type": "node",
      "id": 951203532,
      "lat": 12.9099963,
      "lon": 77.6101216,
      "tags": {
        "amenity": "place_of_worship",
        "check_date": "2023-10-15",
        "name": "Sri Chamundeshwari Temple",
        "name:kn": "ಶ್ರೀ ಚಾಮುಂಡೇಶ್ವರಿ ದೇವಾಲಯ",
        "religion": "hindu"
      }
    },
    {
      "type": "node",
      "id": 1280127947,
      "lat": 12.916193,
      "lon": 77.6053993,
      "tags": {
        "amenity": "bank",
        "atm": "yes",
        "brand": "Karnataka Bank",
        "brand:wikidata": "Q2042632",
        "brand:wikipedia": "en:Karnataka Bank",
        "name": "Karnataka Bank",
        "name:kn": "ಕರ್ನಾಟಕ ಬ್ಯಾಂಕ್",
        "opening_hours": "Mo-Sa 10:00-16:00",
        "operator": "Karnataka Bank"
      }
    },
    {
      "type": "node",
      "id": 1388103603,
      "lat": 12.9115937,
      "lon": 77.6062818,
      "tags": {
        "amenity": "pharmacy",
        "healthcare": "pharmacy",
        "name": "Aravind Medicals and General stores"
      }
    },
    {
      "type": "node",
      "id": 1388103606,
      "lat": 12.9125207,
      "lon": 77.6064232,
      "tags": {
        "name": "Sri Devi Baker's",
        "opening_hours": "PH,Mo-Su 09:00-22:00",
        "shop": "bakery"
      }
    },
    {
      "type": "node",
      "id": 1388103608,
      "lat": 12.9127092,
      "lon": 77.6061623,
      "tags": {
        "amenity": "bank",
        "brand": "City Union Bank",
        "brand:en": "City Union Bank",
        "brand:hi": "सिटी यूनियन बैंक",
        "brand:ta": "சிட்டி யூனியன் வங்கி",
        "brand:wikidata": "Q2040264",
        "name": "City Union Bank",
        "name:en": "City Union Bank",
        "name:hi": "सिटी यूनियन बैंक",
        "name:ta": "சிட்டி யூனியன் வங்கி",
        "short_name": "CUB"
      }
    },
    {
      "type": "node",
      "id": 1388103622,
      "lat": 12.9106552,
      "lon": 77.6063086,
      "tags": {
        "addr:city": "Bangalore",
        "addr:floor": "1",
        "addr:housenumber": "107",
        "addr:postcode": "560076",
        "addr:street": "7th Main Road",
        "air_conditioning": "no",
        "currency:INR": "yes",
        "internet_access": "no",
        "name": "Homeneeds",
        "opening_hours": "Mo-Su 10:00-22:00",
        "payment:cash": "yes",
        "payment:credit_cards": "yes",
        "payment:debit_cards": "yes",
        "phone": "80-33618025",
        "shop": "supermarket",
        "source": "local knowledge",
        "stroller": "no",
        "toilets": "no",
        "wheelchair": "limited"
      }
    },
    {
      "type": "node",
      "id": 1396823306,
      "lat": 12.9114652,
      "lon": 77.6041516,
      "tags": {
        "brand": "HOPCOMS",
        "brand:wikidata": "Q22908959",
        "name": "HOPCOMS",
        "name:kn": "ಹಾಪ್ ಕಾಮ್ಸ್",
        "shop": "greengrocer"
      }
    },
    {
      "type": "node",
      "id": 1396823314,
      "lat": 12.9116247,
      "lon": 77.6026978,
      "tags": {
        "amenity": "place_of_worship",
        "name": "Rama Temple",
        "name:kn": "ರಾಮ ದೇವಸ್ಥಾನ",
        "religion": "hindu"
      }
    },
    {
      "type": "node",
      "id": 1397247990,
      "lat": 12.9117638,
      "lon": 77.6010896,
      "tags": {
        "leisure": "sports_centre",
        "name": "Reliance Club"
      }
    },
    {
      "type": "node",
      "id": 1465122307,
      "lat": 12.9153417,
      "lon": 77.5948673,
      "tags": {
        "amenity": "restaurant",
        "name": "SLV",
        "name:kn": "ಎಸ್ಎಲ್‌ವಿ"
      }
    },
    {
      "type": "node",
      "id": 1465122326,
      "lat": 12.9162325,
      "lon": 77.5949182,
      "tags": {
        "amenity": "pharmacy",
        "brand": "Apollo Pharmacy",
        "brand:wikidata": "Q62562612",
        "healthcare": "pharmacy",
        "name": "Apollo Pharmacy",
        "name:kn": "ಅಪೋಲೋ ಫಾರ್ಮಸಿ"
      }
    },
    {
      "type": "node",
      "id": 1466669150,
      "lat": 12.9071627,
      "lon": 77.5988768,
      "tags": {
        "name": "Crossword",
        "shop": "books"
      }
    },
    {
      "type": "node",
      "id": 1467143629,
      "lat": 12.9140071,
      "lon": 77.5993825,
      "tags": {
        "amenity": "cinema",
        "level": "3",
        "name": "Gopalan Cinemas",
        "name:kn": "ಗೋಪಾಲನ್ ಸಿನೆಮಾಸ್",
        "opening_hours": "PH,Mo-Su 09:00-22:00"
      }
    },
    {
      "type": "node",
      "id": 1468035295,
      "lat": 12.9189547,
      "lon": 77.607059,
      "tags": {
        "amenity": "place_of_worship",
        "name": "Ganesha Temple",
        "name:kn": "ಗಣೇಶ ದೇವಸ್ಥಾನ",
        "religion": "hindu"
      }
    },
    {
      "type": "node",
      "id": 1468035313,
      "lat": 12.9168527,
      "lon": 77.6034541,
      "tags": {
        "amenity": "fast_food",
        "check_date": "2023-12-04",
        "name": "Juice Burg Cafe"
      }
    },
    {
      "type": "node",
      "id": 1468035355,
      "lat": 12.9180449,
      "lon": 77.6018824,
      "tags": {
        "amenity": "place_of_worship",
        "name": "Saibaba Temple",
        "name:kn": "ಸಾಯಿಬಾಬಾ ದೇವಸ್ಥಾನ",
        "religion": "hindu"
      }
    },
    {
      "type": "node",
      "id": 1468035390,
      "lat": 12.9168632,
      "lon": 77.6045592,
      "tags": {
        "amenity": "atm",
        "fee": "ING vysya"
      }
    },
    {
      "type": "node",
      "id": 1470600205,
      "lat": 12.9149827,
      "lon": 77.605687,
      "tags": {
        "amenity": "bank",
        "name": "Sir M. Visvesvaraya Co-Operative Bank Limited",
        "opening_hours": "Mo-Sa 09:30-16:30"
      }
    },
    {
      "type": "node",
      "id": 1470603498,
      "lat": 12.914434,
      "lon": 77.6050207,
      "tags": {
        "amenity": "hospital",
        "designation": "Kids Care Clinic",
        "healthcare": "hospital",
        "name": "Kids Care Clinic"
      }
    },
    {
      "type": "node",
      "id": 1470604112,
      "lat": 12.9134789,
      "lon": 77.6065671,
      "tags": {
        "amenity": "bank",
        "atm": "yes",
        "brand": "Union Bank of India",
        "brand:wikidata": "Q2004078",
        "brand:wikipedia": "en:Union Bank of India",
        "name": "Union Bank of India",
        "opening_hours": "Mo-Sa 10:00-15:30",
        "wheelchair": "no"
      }
    },
    {
      "type": "node",
      "id": 1470639973,
      "lat": 12.9161642,
      "lon": 77.6029009,
      "tags": {
        "addr:housenumber": "4/A",
        "addr:street": "1st Main Road",
        "amenity": "place_of_worship",
        "check_date": "2023-09-03",
        "name": "Sri Lakshmi Venkateshwara Siddi Vinayaka Varadanjeya Swamy Temple",
        "phone": "+91 80 2668 0913",
        "religion": "hindu"
      }
    },
    {
      "type": "node",
      "id": 1470640244,
      "lat": 12.916875,
      "lon": 77.6024995,
      "tags": {
        "amenity": "place_of_worship",
        "name": "Lord Shiva Temple",
        "name:kn": "ಶಿವ ದೇವಸ್ಥಾನ",
        "religion": "hindu"
      }
    },
    {
      "type": "node",
      "id": 1474299627,
      "lat": 12.9161449,
      "lon": 77.6054538,
      "tags": {
        "amenity": "atm",
        "check_date": "2021-10-07",
        "operator": "ICICI ATM"
      }
    },
    {
      "type": "node",
      "id": 1474304635,
      "lat": 12.9055718,
      "lon": 77.6058341,
      "tags": {
        "addr:postcode": "560076",
        "addr:street": "29th Main Road",
        "amenity": "cafe",
        "brand": "Cafe Coffee Day",
        "brand:wikidata": "Q5017235",
        "brand:wikipedia": "en:Café Coffee Day",
        "cuisine": "coffee_shop",
        "internet_access": "wlan",
        "name": "Cafe Coffee Day",
        "name:en": "Caffe Coffee Day",
        "name:kn": "ಕಫೆ ಕಾಫಿ ಡೇ",
        "takeaway": "yes"
      }
    },
    {
      "type": "node",
      "id": 1474819351,
      "lat": 12.9151822,
      "lon": 77.6059587,
      "tags": {
        "addr:city": "Bengaluru",
        "addr:housenumber": "284",
        "addr:postcode": "560076",
        "addr:street": "7th Main Road",
        "name": "Ashirwad Super Market",
        "opening_hours": "Mo-Su 10:00-21:00",
        "phone": "(91)-80-65333340",
        "shop": "supermarket"
      }
    },
    {
      "type": "node",
      "id": 1514981781,
      "lat": 12.9139161,
      "lon": 77.6102112,
      "tags": {
        "amenity": "restaurant",
        "check_date": "2023-10-19",
        "name": "Swadista Ahara",
        "name:kn": "ಸ್ವಾದಿಷ್ಟ ಅಹಾರ",
        "opening_hours": "PH,Mo-Su 08:00-22:00",
        "wheelchair": "limited"
      }
    },
    {
      "type": "node",
      "id": 1595801457,
      "lat": 12.9055748,
      "lon": 77.6057437,
      "tags": {
        "brand": "More",
        "brand:wikidata": "Q6910891",
        "brand:wikipedia": "en:More (store)",
        "name": "More",
        "shop": "supermarket"
      }
    },
    {
      "type": "node",
      "id": 1727331669,
      "lat": 12.9057909,
      "lon": 77.6072561,
      "tags": {
        "amenity": "car_wash"
      }
    },
    {
      "type": "node",
      "id": 1741781102,
      "lat": 12.9165024,
      "lon": 77.6034897,
      "tags": {
        "amenity": "atm",
        "brand": "ICICI Bank",
        "brand:wikidata": "Q1653258",
        "name": "ICICI Bank",
        "operator": "ICICI Bank",
        "operator:wikidata": "Q1653258",
        "short_name": "ICICI"
      }
    },
    {
      "type": "node",
      "id": 2357184842,
      "lat": 12.9063288,
      "lon": 77.5965004,
      "tags": {
        "amenity": "cafe",
        "cuisine": "sandwich",
        "name": "Daily Bread"
      }
    },
    {
      "type": "node",
      "id": 2357184843,
      "lat": 12.9064308,
      "lon": 77.5968652,
      "tags": {
        "amenity": "restaurant",
        "cuisine": "kebab",
        "name": "Barbeque Nation",
        "phone": "+918060600002",
        "website": "https://www.barbeque-nation.com/"
      }
    },
    {
      "type": "node",
      "id": 2357184844,
      "lat": 12.9064098,
      "lon": 77.596723,
      "tags": {
        "brand": "Gold's Gym",
        "brand:wikidata": "Q1536234",
        "leisure": "fitness_centre",
        "name": "Gold's Gym"
      }
    },
    {
      "type": "node",
      "id": 2357184845,
      "lat": 12.9061118,
      "lon": 77.5967632,
      "tags": {
        "amenity": "fast_food",
        "brand": "Au Bon Pain",
        "brand:wikidata": "Q4818942",
        "cuisine": "sandwich",
        "internet_access": "yes",
        "name": "Au Bon Pain",
        "takeaway": "yes"
      }
    },
    {
      "type": "node",
      "id": 2357184846,
      "lat": 12.9061458,
      "lon": 77.5968786,
      "tags": {
        "amenity": "fast_food",
        "brand": "Domino's",
        "brand:ks": "ڈومینوز",
        "brand:pa": "ਡੋਮੀਨੋਜ਼",
        "brand:ur": "ڈومینوز",
        "brand:wikidata": "Q839466",
        "brand:wikipedia": "en:Domino's Pizza",
        "cuisine": "pizza",
        "name": "Domino's",
        "name:ks": "ڈومینوز",
        "name:pa": "ਡੋਮੀਨੋਜ਼",
        "name:ur": "ڈومینوز",
        "takeaway": "yes"
      }
    },
    {
      "type": "node",
      "id": 2357184852,
      "lat": 12.9117616,
      "lon": 77.5990109,
      "tags": {
        "amenity": "restaurant",
        "cuisine": "regional",
        "name": "MTR 1924"
      }
    },
    {
      "type": "node",
      "id": 2357184857,
      "lat": 12.9114243,
      "lon": 77.5990217,
      "tags": {
        "amenity": "fast_food",
        "cuisine": "regional",
        "name": "Park View"
      }
    },
    {
      "type": "node",
      "id": 2561072706,
      "lat": 12.9167048,
      "lon": 77.6069253,
      "tags": {
        "amenity": "bank",
        "atm": "yes",
        "brand": "Corporation Bank",
        "brand:wikidata": "Q2003387",
        "brand:wikipedia": "en:Corporation Bank",
        "name": "Corporation Bank",
        "name:en": "Corporation Bank",
        "name:kn": "ಕಾರ್ಪರೇಷನ್ ಬ್ಯಾಂಕ್",
        "website": "https://corpbank.com/"
      }
    },
    {
      "type": "node",
      "id": 2677285854,
      "lat": 12.9076665,
      "lon": 77.596728,
      "tags": {
        "amenity": "school",
        "name": "Ekya School"
      }
    },
    {
      "type": "node",
      "id": 2712283239,
      "lat": 12.9122652,
      "lon": 77.5937771,
      "tags": {
        "amenity": "place_of_worship",
        "name:kn": "ಮಸೀದಿ",
        "religion": "muslim"
      }
    },
    {
      "type": "node",
      "id": 2893518450,
      "lat": 12.9104004,
      "lon": 77.5947964,
      "tags": {
        "amenity": "fuel",
        "brand": "Indian Oil",
        "brand:wikidata": "Q1289348",
        "brand:wikipedia": "en:Indian Oil Corporation",
        "name": "Indian Oil Corporation",
        "name:kn": "ಇಂಡಿಯನ್ ಆಯಿಲ್"
      }
    },
    {
      "type": "node",
      "id": 2901127015,
      "lat": 12.9117776,
      "lon": 77.6006489,
      "tags": {
        "addr:street": "2nd Main",
        "amenity": "restaurant",
        "cuisine": "indian",
        "name": "Udupi Krishna Vihar",
        "name:en": "Sri Chaitanya Grand",
        "smoking": "no",
        "wheelchair": "limited"
      }
    },
    {
      "type": "node",
      "id": 2918827908,
      "lat": 12.9099094,
      "lon": 77.5998609,
      "tags": {
        "amenity": "bank",
        "atm": "yes",
        "brand": "Yes Bank",
        "brand:wikidata": "Q2040394",
        "brand:wikipedia": "en:Yes Bank",
        "name": "Yes Bank",
        "name:en": "YES Bank",
        "name:kn": "ಯಸ್ ಬ್ಯಾಂಕ್",
        "website": "https://www.yesbank.in"
      }
    },
    {
      "type": "node",
      "id": 2918828415,
      "lat": 12.9088379,
      "lon": 77.5999309,
      "tags": {
        "amenity": "bank",
        "brand": "Axis Bank",
        "brand:wikidata": "Q2003549",
        "brand:wikipedia": "en:Axis Bank",
        "name": "Axis Bank",
        "name:en": "Axis Bank",
        "name:kn": "ಆಕ್ಸಿಸ್ ಬ್ಯಾಂಕ್",
        "website": "https://www.axisbank.com"
      }
    },
    {
      "type": "node",
      "id": 2934044440,
      "lat": 12.9165996,
      "lon": 77.5970356,
      "tags": {
        "amenity": "pharmacy",
        "dispensing": "yes",
        "healthcare": "pharmacy",
        "name": "Bharathi Medical Stores"
      }
    },
    {
      "type": "node",
      "id": 2934044441,
      "lat": 12.9166576,
      "lon": 77.5970419,
      "tags": {
        "name": "Cake Corner",
        "shop": "bakery"
      }
    },
    {
      "type": "node",
      "id": 2934044442,
      "lat": 12.9166467,
      "lon": 77.5971555,
      "tags": {
        "name": "Dennys Bar",
        "shop": "alcohol"
      }
    },
    {
      "type": "node",
      "id": 2934044443,
      "lat": 12.9164737,
      "lon": 77.596929,
      "tags": {
        "amenity": "restaurant",
        "brand": "Denny's",
        "brand:wikidata": "Q1189695",
        "check_date": "2023-11-29",
        "cuisine": "american",
        "name": "Denny's"
      }
    },
    {
      "type": "node",
      "id": 2934044444,
      "lat": 12.9156738,
      "lon": 77.5967485,
      "tags": {
        "amenity": "place_of_worship",
        "name": "Ganesha Temple",
        "name:kn": "ಗಣೇಶ ದೇವಸ್ಥಾನ",
        "religion": "hindu"
      }
    },
    {
      "type": "node",
      "id": 2934044445,
      "lat": 12.9165607,
      "lon": 77.5972018,
      "tags": {
        "amenity": "bank",
        "atm": "no",
        "brand": "HDFC Bank",
        "brand:wikidata": "Q631047",
        "brand:wikipedia": "en:HDFC Bank",
        "check_date": "2023-11-29",
        "name": "HDFC Bank",
        "name:kn": "ಎಚ್ ಡಿ ಎಫ್ ಸಿ",
        "short_name": "HDFC",
        "website": "https://www.hdfcbank.com"
      }
    },
    {
      "type": "node",
      "id": 2934044446,
      "lat": 12.9162927,
      "lon": 77.5966944,
      "tags": {
        "amenity": "bank",
        "brand": "Indian Overseas Bank",
        "brand:wikidata": "Q2003611",
        "brand:wikipedia": "en:Indian Overseas Bank",
        "name": "Indian Overseas Bank",
        "name:en": "Indian Overseas Bank",
        "short_name": "IOB",
        "website": "https://www.iob.in"
      }
    },
    {
      "type": "node",
      "id": 2934044447,
      "lat": 12.9162385,
      "lon": 77.5970407,
      "tags": {
        "amenity": "restaurant",
        "cuisine": "indian",
        "name": "Kabab Magic"
      }
    },
    {
      "type": "node",
      "id": 2934044448,
      "lat": 12.9165635,
      "lon": 77.5970388,
      "tags": {
        "name": "Nandini Shoppe",
        "note": "Milk & Milk products",
        "shop": "kiosk"
      }
    },
    {
      "type": "node",
      "id": 2934044449,
      "lat": 12.9166518,
      "lon": 77.5967457,
      "tags": {
        "amenity": "bank",
        "brand": "Ujjivan Small Finance Bank",
        "brand:wikidata": "Q42529272",
        "check_date": "2023-11-28",
        "name": "Ujjivan Small Finance Bank"
      }
    },
    {
      "type": "node",
      "id": 2934044450,
      "lat": 12.9158974,
      "lon": 77.5967626,
      "tags": {
        "amenity": "restaurant",
        "cuisine": "indian",
        "name": "The Pongal"
      }
    },
    {
      "type": "node",
      "id": 2934044451,
      "lat": 12.9159963,
      "lon": 77.5967482,
      "tags": {
        "shop": "printer_ink"
      }
    },
    {
      "type": "node",
      "id": 2934044452,
      "lat": 12.9166472,
      "lon": 77.5972012,
      "tags": {
        "amenity": "atm",
        "brand": "HDFC Bank",
        "brand:wikidata": "Q631047",
        "name": "HDFC Bank",
        "operator": "HDFC Bank",
        "operator:wikidata": "Q631047",
        "short_name": "HDFC"
      }
    },
    {
      "type": "node",
      "id": 3016052468,
      "lat": 12.9101075,
      "lon": 77.5950902,
      "tags": {
        "branch": "Shoppe",
        "brand": "Nandini",
        "brand:wikidata": "Q124374212",
        "name": "Nandini",
        "shop": "dairy"
      }
    },
    {
      "type": "node",
      "id": 3016052470,
      "lat": 12.9104179,
      "lon": 77.5950737,
      "tags": {
        "amenity": "bank",
        "atm": "no",
        "brand": "State Bank of India",
        "brand:wikidata": "Q1340361",
        "brand:wikipedia": "en:State Bank of India",
        "name": "State Bank of India",
        "name:kn": "ಭಾರತೀಯ ಸ್ಟೇಟ್ ಬ್ಯಾಂಕ್",
        "operator": "State Bank of India",
        "short_name": "SBI"
      }
    },
    {
      "type": "node",
      "id": 3016090359,
      "lat": 12.9164462,
      "lon": 77.6072593,
      "tags": {
        "amenity": "payment_centre",
        "name": "BWSSB Payment Kiosk"
      }
    },
    {
      "type": "node",
      "id": 3016090370,
      "lat": 12.9145163,
      "lon": 77.5987874,
      "tags": {
        "amenity": "school",
        "name": "St. Marks School",
        "name:kn": "ಸಂತ ಮಾರ್ಕ್ಸ್ ಶಾಲೆ"
      }
    },
    {
      "type": "node",
      "id": 3016090373,
      "lat": 12.9165191,
      "lon": 77.5987455,
      "tags": {
        "amenity": "atm",
        "brand": "Axis Bank",
        "brand:wikidata": "Q2003549",
        "name": "Axis Bank",
        "operator": "Axis Bank",
        "operator:wikidata": "Q2003549"
      }
    },
    {
      "type": "node",
      "id": 3022074189,
      "lat": 12.9109222,
      "lon": 77.5997273,
      "tags": {
        "amenity": "auditorium",
        "name": "Shilpa Kala Mantap",
        "note": "A large hall were events like marriages are performed",
        "source": "survey"
      }
    },
    {
      "type": "node",
      "id": 3024935600,
      "lat": 12.910453,
      "lon": 77.5962584,
      "tags": {
        "amenity": "post_box",
        "operator": "India Post",
        "operator:wikidata": "Q3519720",
        "source": "survey"
      }
    },
    {
      "type": "node",
      "id": 3050185859,
      "lat": 12.9048841,
      "lon": 77.6016207,
      "tags": {
        "alt_name": "Kentucky Fried Chicken",
        "alt_name:en": "Kentucky Fried Chicken",
        "alt_name:hi": "केंटुकी फ्राइड चिकन",
        "alt_name:pa": "ਕੈਂਟੁਕੀ ਫ੍ਰਾਈਡ ਚਿਕਨ",
        "alt_name:pnb": "کینٹکی فرائیڈ چکن",
        "alt_name:ur": "کینٹکی فرائیڈ چکن",
        "amenity": "fast_food",
        "brand": "KFC",
        "brand:en": "KFC",
        "brand:hi": "केएफसी",
        "brand:pa": "ਕੇਐਫਸੀ",
        "brand:pnb": "کے ایف سی",
        "brand:ur": "کے ایف سی",
        "brand:wikidata": "Q524757",
        "cuisine": "chicken",
        "name": "KFC",
        "name:en": "KFC",
        "name:hi": "केएफसी",
        "name:pa": "ਕੇਐਫਸੀ",
        "name:pnb": "کے ایف سی",
        "name:ur": "کے ایف سی",
        "source": "survey",
        "takeaway": "yes"
      }
    },
    {
      "type": "node",
      "id": 3072185609,
      "lat": 12.9155512,
      "lon": 77.5951874,
      "tags": {
        "name": "Cake Art",
        "shop": "bakery"
      }
    },
    {
      "type": "node",
      "id": 3072185610,
      "lat": 12.9140657,
      "lon": 77.5949385,
      "tags": {
        "amenity": "bank",
        "atm": "no",
        "brand": "ICICI Bank",
        "brand:wikidata": "Q1653258",
        "name": "ICICI Bank",
        "name:en": "ICICI Bank",
        "name:kn": "ಐಸಿಐಸಿಐ ಬ್ಯಾಂಕು",
        "operator": "ICICI Bank",
        "short_name": "ICICI",
        "website": "https://www.icicibank.com"
      }
    },
    {
      "type": "node",
      "id": 3072185611,
      "lat": 12.9149192,
      "lon": 77.5951905,
      "tags": {
        "name": "Lakme Salon",
        "shop": "beauty",
        "source": "survey"
      }
    },
    {
      "type": "node",
      "id": 3072185612,
      "lat": 12.917008,
      "lon": 77.5951912,
      "tags": {
        "name": "M D Tyers & Tubes",
        "shop": "tyres",
        "source": "survey"
      }
    },
    {
      "type": "node",
      "id": 3221380822,
      "lat": 12.914181,
      "lon": 77.5949195,
      "tags": {
        "amenity": "bank",
        "atm": "yes",
        "brand": "Andhra Bank",
        "brand:wikidata": "Q2003476",
        "brand:wikipedia": "en:Andhra Bank",
        "name": "Andhra Bank",
        "name:en": "Andhra Bank",
        "name:kn": "ಆಂಧ್ರ ಬ್ಯಾಂಕ್",
        "operator": "Andhra Bank",
        "website": "https://www.andhrabank.in"
      }
    },
    {
      "type": "node",
      "id": 3221387166,
      "lat": 12.9156159,
      "lon": 77.5951971,
      "tags": {
        "name": "Kunchum Foods",
        "shop": "supermarket"
      }
    },
    {
      "type": "node",
      "id": 3221387167,
      "lat": 12.9160519,
      "lon": 77.5951937,
      "tags": {
        "amenity": "restaurant",
        "cuisine": "pizza",
        "name": "US Pizza"
      }
    },
    {
      "type": "node",
      "id": 3221387168,
      "lat": 12.9138048,
      "lon": 77.5951113,
      "tags": {
        "amenity": "post_box",
        "name": "Post Office",
        "name:kn": "ಅಂಚೆ ಕಛೇರಿ",
        "operator": "India Post",
        "operator:wikidata": "Q3519720",
        "source": "survey"
      }
    },
    {
      "type": "node",
      "id": 3226844853,
      "lat": 12.9163429,
      "lon": 77.6112447,
      "tags": {
        "addr:street": "Outer Ring Road",
        "amenity": "bank",
        "brand": "HDFC Bank",
        "brand:wikidata": "Q631047",
        "name": "HDFC Bank",
        "short_name": "HDFC"
      }
    },
    {
      "type": "node",
      "id": 3231750612,
      "lat": 12.9168242,
      "lon": 77.6037973,
      "tags": {
        "amenity": "atm",
        "brand": "Citibank",
        "brand:wikidata": "Q857063",
        "name": "Citibank",
        "operator": "Citibank",
        "operator:wikidata": "Q857063",
        "short_name": "Citi",
        "source": "Survey"
      }
    },
    {
      "type": "node",
      "id": 3231750613,
      "lat": 12.9168242,
      "lon": 77.6038323,
      "tags": {
        "amenity": "atm",
        "brand": "Kotak Mahindra Bank",
        "brand:wikidata": "Q2040404",
        "operator": "Kotak Mahindra Bank",
        "operator:wikidata": "Q2040404",
        "source": "Survey"
      }
    },
    {
      "type": "node",
      "id": 3231750614,
      "lat": 12.9168388,
      "lon": 77.6033703,
      "tags": {
        "amenity": "atm",
        "brand": "Karur Vysya Bank",
        "brand:wikidata": "Q6373724",
        "name": "Karur Vysya Bank",
        "operator": "Karur Vysya Bank",
        "operator:wikidata": "Q6373724",
        "source": "Survey"
      }
    },
    {
      "type": "node",
      "id": 3231750615,
      "lat": 12.9168388,
      "lon": 77.6034052,
      "tags": {
        "amenity": "atm",
        "brand": "State Bank of India",
        "brand:wikidata": "Q1340361",
        "name": "State Bank of India",
        "operator": "State Bank of India",
        "operator:wikidata": "Q1340361",
        "short_name": "SBI",
        "source": "Survey"
      }
    },
    {
      "type": "node",
      "id": 3264822806,
      "lat": 12.9167733,
      "lon": 77.6110998,
      "tags": {
        "amenity": "school",
        "name": "Good To Excellence"
      }
    },
    {
      "type": "node",
      "id": 3392655752,
      "lat": 12.9116521,
      "lon": 77.6002227,
      "tags": {
        "name": "Girias",
        "name:kn": "ಗಿರ್ಯಾಸ್",
        "shop": "electronics"
      }
    },
    {
      "type": "node",
      "id": 3395243171,
      "lat": 12.9169861,
      "lon": 77.596996,
      "tags": {
        "amenity": "pharmacy",
        "healthcare": "pharmacy",
        "name": "Maruthi Medical Stores"
      }
    },
    {
      "type": "node",
      "id": 3395246648,
      "lat": 12.9102709,
      "lon": 77.5993958,
      "tags": {
        "name": "Laguna Clothing",
        "shop": "clothes"
      }
    },
    {
      "type": "node",
      "id": 3401671688,
      "lat": 12.9115865,
      "lon": 77.6002227,
      "tags": {
        "amenity": "restaurant",
        "name": "Hotel Aradhana"
      }
    },
    {
      "type": "node",
      "id": 3401687013,
      "lat": 12.9123494,
      "lon": 77.6004812,
      "tags": {
        "addr:housename": "Commerce @ Mantri",
        "addr:street": "Bannerghatta Road",
        "brand": "Shoppers Stop",
        "brand:wikidata": "Q7501155",
        "level": "0",
        "name": "Shoppers Stop",
        "shop": "department_store",
        "website": "https://www.shoppersstop.com"
      }
    },
    {
      "type": "node",
      "id": 3401695387,
      "lat": 12.9107034,
      "lon": 77.6002334,
      "tags": {
        "shop": "yes"
      }
    },
    {
      "type": "node",
      "id": 3401699861,
      "lat": 12.9109162,
      "lon": 77.600202,
      "tags": {
        "amenity": "fast_food",
        "cuisine": "kebab",
        "name": "New Kabab Zone"
      }
    },
    {
      "type": "node",
      "id": 3401699875,
      "lat": 12.9109842,
      "lon": 77.6001833,
      "tags": {
        "amenity": "fast_food",
        "name": "Brahmashree Juice and Condiments"
      }
    },
    {
      "type": "node",
      "id": 3403067273,
      "lat": 12.9110992,
      "lon": 77.6001886,
      "tags": {
        "amenity": "fast_food",
        "name": "Kebab"
      }
    },
    {
      "type": "node",
      "id": 3403067274,
      "lat": 12.9112404,
      "lon": 77.6001886,
      "tags": {
        "amenity": "bar",
        "building": "restaurant",
        "name": "Sri Nanjundeshwara bar and restaurant"
      }
    },
    {
      "type": "node",
      "id": 3403067275,
      "lat": 12.9113058,
      "lon": 77.6001591,
      "tags": {
        "amenity": "restaurant",
        "building": "restaurant",
        "name": "Shri Lakshmi Darshini"
      }
    },
    {
      "type": "node",
      "id": 3403067459,
      "lat": 12.9112273,
      "lon": 77.6001377,
      "tags": {
        "amenity": "fast_food",
        "name": "Kebab"
      }
    },
    {
      "type": "node",
      "id": 3403067460,
      "lat": 12.9113345,
      "lon": 77.6001135,
      "tags": {
        "amenity": "restaurant",
        "building": "restaurant",
        "name": "Prasanna bar and restaurant"
      }
    },
    {
      "type": "node",
      "id": 3403067697,
      "lat": 12.9110469,
      "lon": 77.6001538,
      "tags": {
        "amenity": "fast_food",
        "name": "Kebab"
      }
    },
    {
      "type": "node",
      "id": 3408154563,
      "lat": 12.9166283,
      "lon": 77.6001166,
      "tags": {
        "name": "Iyengar's Bakery",
        "shop": "bakery"
      }
    },
    {
      "type": "node",
      "id": 3408154565,
      "lat": 12.9161526,
      "lon": 77.6001688,
      "tags": {
        "amenity": "restaurant",
        "name": "Amaan Restaurant"
      }
    },
    {
      "type": "node",
      "id": 3412353036,
      "lat": 12.9165473,
      "lon": 77.6001273,
      "tags": {
        "amenity": "fast_food",
        "building": "restaurant",
        "name": "Ambur Chicken Biriyani and Chinese food"
      }
    },
    {
      "type": "node",
      "id": 3422057411,
      "lat": 12.9103456,
      "lon": 77.6097988,
      "tags": {
        "amenity": "restaurant",
        "name": "Holy Smoke",
        "wheelchair": "no"
      }
    },
    {
      "type": "node",
      "id": 3424841452,
      "lat": 12.9079522,
      "lon": 77.6062306,
      "tags": {
        "amenity": "pharmacy",
        "healthcare": "pharmacy",
        "name": "Reddy's Pharma",
        "wheelchair": "limited"
      }
    },
    {
      "type": "node",
      "id": 3424841457,
      "lat": 12.9090104,
      "lon": 77.606404,
      "tags": {
        "amenity": "pharmacy",
        "brand": "Apollo Pharmacy",
        "brand:wikidata": "Q62562612",
        "healthcare": "pharmacy",
        "name": "Apollo Pharmacy",
        "name:kn": "ಅಪೋಲೋ ಫಾರ್ಮಸಿ"
      }
    },
    {
      "type": "node",
      "id": 3519968729,
      "lat": 12.9051816,
      "lon": 77.6015721,
      "tags": {
        "brand": "Tanishq",
        "brand:en": "Tanishq",
        "brand:wikidata": "Q13117711",
        "name": "Tanishq",
        "name:en": "Tanishq",
        "operator": "Tanishq",
        "shop": "jewelry",
        "wheelchair": "yes"
      }
    },
    {
      "type": "node",
      "id": 3702258470,
      "lat": 12.9210143,
      "lon": 77.6015318,
      "tags": {
        "amenity": "place_of_worship",
        "name": "Masjid Salafia",
        "religion": "muslim"
      }
    },
    {
      "type": "node",
      "id": 3702261163,
      "lat": 12.9202457,
      "lon": 77.6002095,
      "tags": {
        "amenity": "restaurant",
        "cuisine": "South_India",
        "name": "Panchami Garden"
      }
    },
    {
      "type": "node",
      "id": 3702279319,
      "lat": 12.9149734,
      "lon": 77.6099595,
      "tags": {
        "addr:housenumber": "782",
        "addr:street": "16th Main Road",
        "level": "-1",
        "name": "Mahalaxmi Mart",
        "opening_hours": "Mo-Su 09:00-21:00",
        "shop": "houseware"
      }
    },
    {
      "type": "node",
      "id": 3702281012,
      "lat": 12.9195986,
      "lon": 77.608563,
      "tags": {
        "amenity": "college",
        "name": "Wisdom International School"
      }
    },
    {
      "type": "node",
      "id": 3995057637,
      "lat": 12.9170191,
      "lon": 77.5972034,
      "tags": {
        "addr:city": "bangalore",
        "addr:postcode": "560069",
        "addr:street": "Marenahalli Road (South End)",
        "brand": "Royal Enfield",
        "brand:wikidata": "Q2668720",
        "name": "Royal Enfield Brand Store",
        "shop": "motorcycle"
      }
    },
    {
      "type": "node",
      "id": 4135046589,
      "lat": 12.9147113,
      "lon": 77.6024933,
      "tags": {
        "addr:housenumber": "58",
        "addr:place": "Madivala",
        "addr:street": "1st Main",
        "amenity": "school",
        "isced:level": "2",
        "name": "Shantiniketan English High School, B M P 64",
        "name:kn": "ಶಾಂತಿನಿಕೇತನ ಆಂಗ್ಲ ಪ್ರೌಢಶಾಲೆ, ಬಿ.ಎಂ.ಪಿ. 64",
        "operator": "Private Un-Aided"
      }
    },
    {
      "type": "node",
      "id": 4195979551,
      "lat": 12.918083,
      "lon": 77.5958017,
      "tags": {
        "opening_hours": "08:30-12:30,15:30-20:00",
        "shop": "butcher",
        "wheelchair": "no"
      }
    },
    {
      "type": "node",
      "id": 4195979556,
      "lat": 12.9181994,
      "lon": 77.5958138,
      "tags": {
        "amenity": "recycling",
        "opening_hours": "08:30-12:30,15:30-20:00",
        "recycling:paper": "yes",
        "recycling:scrap_metal": "yes",
        "recycling_type": "centre",
        "wheelchair": "no"
      }
    },
    {
      "type": "node",
      "id": 4195979561,
      "lat": 12.9183771,
      "lon": 77.5958232,
      "tags": {
        "opening_hours": "08:30-12:30,15:30-20:00",
        "shop": "butcher",
        "wheelchair": "no"
      }
    },
    {
      "type": "node",
      "id": 4197693023,
      "lat": 12.9174665,
      "lon": 77.595836,
      "tags": {
        "name": "Dishad Fashions",
        "shop": "tailor",
        "wheelchair": "no"
      }
    },
    {
      "type": "node",
      "id": 4197693024,
      "lat": 12.917308,
      "lon": 77.5958374,
      "tags": {
        "name": "Salaam Auto Clinic",
        "parts": "yes",
        "sales": "no",
        "shop": "motorcycle_repair",
        "wheelchair": "no"
      }
    },
    {
      "type": "node",
      "id": 4197693025,
      "lat": 12.9178015,
      "lon": 77.5957843,
      "tags": {
        "motorcycle:parts": "yes",
        "motorcycle:repair": "yes",
        "name": "Vikas Enterprise",
        "shop": "motorcycle",
        "wheelchair": "no"
      }
    },
    {
      "type": "node",
      "id": 4197698506,
      "lat": 12.916973,
      "lon": 77.5958573,
      "tags": {
        "amenity": "bureau_de_change",
        "name": "Manapurram Gold Loan",
        "wheelchair": "no"
      }
    },
    {
      "type": "node",
      "id": 4197698507,
      "lat": 12.9164337,
      "lon": 77.5950331,
      "tags": {
        "name": "New Karnataka Hardware",
        "shop": "hardware",
        "wheelchair": "no"
      }
    },
    {
      "type": "node",
      "id": 4197698512,
      "lat": 12.9172621,
      "lon": 77.5957949,
      "tags": {
        "shop": "bookmaker",
        "wheelchair": "no"
      }
    },
    {
      "type": "node",
      "id": 4197712275,
      "lat": 12.9169736,
      "lon": 77.5960975,
      "tags": {
        "name": "Karnataka Engineering Works",
        "shop": "hardware"
      }
    },
    {
      "type": "node",
      "id": 4197712276,
      "lat": 12.9177769,
      "lon": 77.5961824,
      "tags": {
        "name": "Public Distribution Shop",
        "name:kn": "ನ್ಯಾಯ ಬೆಲೆ ಅಂಗಡಿ",
        "opening_hours": "08:30-12:30,15:30-20:00",
        "shop": "convenience",
        "wheelchair": "no"
      }
    },
    {
      "type": "node",
      "id": 4197712277,
      "lat": 12.9170642,
      "lon": 77.5961094,
      "tags": {
        "name": "S L Men's wear",
        "shop": "tailor",
        "wheelchair": "no"
      }
    },
    {
      "type": "node",
      "id": 4197712278,
      "lat": 12.9173423,
      "lon": 77.5961254,
      "tags": {
        "name": "Vijay Paints",
        "shop": "paint"
      }
    },
    {
      "type": "node",
      "id": 4197719557,
      "lat": 12.918707,
      "lon": 77.5964054,
      "tags": {
        "amenity": "place_of_worship",
        "denomination": "shaivism",
        "name": "Shiva Temple",
        "name:kn": "ಶಿವ ದೇವಸ್ಥಾನ",
        "religion": "hindu",
        "wheelchair": "no"
      }
    },
    {
      "type": "node",
      "id": 4197719558,
      "lat": 12.9185951,
      "lon": 77.5961373,
      "tags": {
        "amenity": "place_of_worship",
        "denomination": "shaktism",
        "name": "Sri Devi Karimariamma Temple",
        "opening_hours": "sunrise-sunset",
        "religion": "hindu",
        "service_times": "sunset,sunrise",
        "wheelchair": "no"
      }
    },
    {
      "type": "node",
      "id": 4197719559,
      "lat": 12.9189327,
      "lon": 77.5964279,
      "tags": {
        "amenity": "fast_food",
        "cuisine": "chicken;indian",
        "internet_access": "no",
        "name": "Street side food",
        "smoking": "yes",
        "takeaway": "no",
        "wheelchair": "no"
      }
    },
    {
      "type": "node",
      "id": 4254309393,
      "lat": 12.916485,
      "lon": 77.5982924,
      "tags": {
        "addr:housenumber": "118/47",
        "addr:postcode": "560067",
        "addr:street": "Marenahalli Road",
        "amenity": "restaurant",
        "cuisine": "arab",
        "name": "AL-BEK"
      }
    },
    {
      "type": "node",
      "id": 4321212103,
      "lat": 12.9104062,
      "lon": 77.5951099,
      "tags": {
        "amenity": "atm",
        "brand": "State Bank of India",
        "brand:wikidata": "Q1340361",
        "check_date": "2024-12-28",
        "name": "State Bank of India",
        "operator": "State Bank of India",
        "operator:wikidata": "Q1340361",
        "short_name": "SBI"
      }
    },
    {
      "type": "node",
      "id": 4443260812,
      "lat": 12.9077046,
      "lon": 77.6080359,
      "tags": {
        "addr:city": "Bangalore",
        "addr:housenumber": "12, 17th Cross",
        "addr:postcode": "560076",
        "addr:street": "13th Main Road, 2nd Stage, BTM",
        "amenity": "restaurant",
        "cuisine": "regional",
        "name": "North Indian Restaurant",
        "opening_hours": "09:00-00:30",
        "smoking": "no"
      }
    },
    {
      "type": "node",
      "id": 4443267488,
      "lat": 12.9153987,
      "lon": 77.6010351,
      "tags": {
        "addr:city": "Bangalore",
        "addr:housenumber": "1st Main Road",
        "addr:postcode": "560076",
        "addr:street": "Opp Vijaya Bank, Bannerghatta Road, Bangalore",
        "amenity": "restaurant",
        "cuisine": "regional",
        "name": "Paratha Junction",
        "opening_hours": "10:00-23:00",
        "smoking": "no"
      }
    },
    {
      "type": "node",
      "id": 4444988626,
      "lat": 12.9060641,
      "lon": 77.6049776,
      "tags": {
        "addr:city": "bangalore",
        "addr:housenumber": "#349/352/6/1/1",
        "addr:postcode": "560070",
        "addr:street": "Main Road, Chandra Layout, Vijayanagar,",
        "amenity": "hospital",
        "healthcare": "hospital",
        "name": "Anurag Medical Centre"
      }
    },
    {
      "type": "node",
      "id": 4446852004,
      "lat": 12.9175511,
      "lon": 77.6039486,
      "tags": {
        "addr:city": "Bengaluru",
        "addr:housenumber": "57",
        "addr:postcode": "560029",
        "addr:street": "8th B Main Road, BTM Layout 1st Stage, KEB Colony, New Gurappana Palya, BTM Layout 1, Karnataka",
        "amenity": "hospital",
        "name": "Vedam Ayurveda Multispeciality Hospital",
        "phone": "080 4120 2911",
        "website": "https://vedamayurveda.co.in/"
      }
    },
    {
      "type": "node",
      "id": 4446879222,
      "lat": 12.9133671,
      "lon": 77.6041142,
      "tags": {
        "addr:city": "Bengaluru",
        "addr:housenumber": "458",
        "addr:postcode": "560076",
        "addr:street": "7th Cross Road",
        "male": "yes",
        "name": "My Barber",
        "opening_hours": "Mo-Su 09:00-21:00",
        "shop": "hairdresser"
      }
    },
    {
      "type": "node",
      "id": 4455548989,
      "lat": 12.9060218,
      "lon": 77.6078972,
      "tags": {
        "amenity": "post_box",
        "name": "BlueDart & DHL",
        "name:en": "BlueDart & DHL",
        "wheelchair": "limited"
      }
    },
    {
      "type": "node",
      "id": 4487934284,
      "lat": 12.9070546,
      "lon": 77.5985562,
      "tags": {
        "addr:city": "bangalore",
        "addr:housenumber": "72/A, 3rd Floor",
        "addr:postcode": "560078",
        "addr:street": "15th Cross Road",
        "leisure": "sports_centre",
        "name": "Kaizen Fitness"
      }
    },
    {
      "type": "node",
      "id": 4487952843,
      "lat": 12.9102884,
      "lon": 77.6039944,
      "tags": {
        "addr:city": "Bengaluru",
        "addr:district": "Bengaluru",
        "addr:housenumber": "28/1",
        "addr:postcode": "560076",
        "addr:street": "4th Main Road, N.S Palya",
        "name": "M.N.C SPORTS",
        "phone": "09591696131",
        "shop": "sports"
      }
    },
    {
      "type": "node",
      "id": 4488143029,
      "lat": 12.9136522,
      "lon": 77.6076486,
      "tags": {
        "addr:city": "bangalore",
        "addr:housenumber": "726",
        "addr:postcode": "560076",
        "addr:street": "7th Cross Road",
        "name": "Om sports",
        "opening_hours": "Mo-Su 09:00-21:00",
        "phone": "09980383846",
        "shop": "sports"
      }
    },
    {
      "type": "node",
      "id": 4488157957,
      "lat": 12.9109555,
      "lon": 77.6065615,
      "tags": {
        "addr:city": "Bangalore",
        "addr:housenumber": "46",
        "addr:postcode": "560076",
        "addr:street": "7th Main Road",
        "name": "Ramdev Sports & Stationary",
        "phone": "09620656041",
        "shop": "sports"
      }
    },
    {
      "type": "node",
      "id": 4489093093,
      "lat": 12.9164708,
      "lon": 77.6047081,
      "tags": {
        "addr:city": "Bengaluru",
        "addr:housenumber": "55/373/2",
        "addr:postcode": "560076",
        "addr:street": "BTM layout",
        "brand": "Reliance Fresh",
        "brand:wikidata": "Q7311014",
        "name": "Reliance Fresh",
        "name:kn": "ರಿಲಾಯನ್ಸ್ ಫ್ರೆಶ್",
        "phone": "(91)-80-41573392",
        "shop": "supermarket"
      }
    },
    {
      "type": "node",
      "id": 4489365813,
      "lat": 12.9133022,
      "lon": 77.6064761,
      "tags": {
        "addr:city": "bangalore",
        "addr:housenumber": "#429",
        "addr:postcode": "560076",
        "addr:street": "7th Main Road",
        "name": "B T M Sports And Stationery",
        "opening_hours": "09:00-22:00",
        "phone": "+91 99724 19321",
        "shop": "sports"
      }
    },
    {
      "type": "node",
      "id": 4489436831,
      "lat": 12.9090478,
      "lon": 77.6062393,
      "tags": {
        "addr:city": "Bangalore",
        "addr:housenumber": "#45",
        "addr:postcode": "560076",
        "addr:street": "7th Main Road, N S Palya, BTM Layout 2nd Stage,",
        "name": "Ramdev Sports",
        "opening_hours": "09:30-21:30",
        "phone": "+917090955586",
        "shop": "sports"
      }
    },
    {
      "type": "node",
      "id": 4489768592,
      "lat": 12.9148059,
      "lon": 77.6001736,
      "tags": {
        "addr:city": "Bangalore",
        "addr:postcode": "560076",
        "addr:street": "No 29, 2nd Floor, Btm Layout, 2nd Stage, Bannerghatta Road, Bannerghatta Road, BHBCS Layout, Stage 2, BTM 2nd Stage, , Karnataka",
        "leisure": "sports_centre",
        "name": "Verve Health & Fitness Centre",
        "phone": "080 4150 0399"
      }
    },
    {
      "type": "node",
      "id": 4489771123,
      "lat": 12.9141965,
      "lon": 77.6098793,
      "tags": {
        "addr:city": "Bengaluru",
        "addr:housenumber": "775",
        "addr:postcode": "560076",
        "addr:street": "16th Main Road",
        "leisure": "sports_centre",
        "level": "1",
        "name": "Muscle Tribes Gym",
        "opening_hours": "05:30-22:00",
        "phone": "+91 74114 17447"
      }
    },
    {
      "type": "node",
      "id": 4489891609,
      "lat": 12.9138357,
      "lon": 77.6114958,
      "tags": {
        "addr:city": "Bangalore",
        "addr:housenumber": "No.352 And 353,1st Floor",
        "addr:postcode": "560076",
        "addr:street": "6th Cross,29th Main, Btm Layout 2nd Stage",
        "name": "Revive Fitness And Beauty Pvt Ltd",
        "opening_hours": "09:00-21:00",
        "phone": "9663810893",
        "shop": "beauty"
      }
    },
    {
      "type": "node",
      "id": 4490274989,
      "lat": 12.9064639,
      "lon": 77.5967451,
      "tags": {
        "addr:city": "Bengaluru",
        "addr:floor": "1",
        "addr:full": "67, 1st Floor, 15th Cross, 6th B Main Road, J P Nagar, 3rd Phase, Dollar Layout, 3rd Phase, JP Nagar, Bengaluru, Karnataka - 560078",
        "addr:housenumber": "67",
        "addr:postcode": "560078",
        "addr:street": "6th B Main Road",
        "brand": "Gold's Gym",
        "brand:wikidata": "Q1536234",
        "leisure": "fitness_centre",
        "name": "Gold's Gym",
        "opening_hours": "5:30-22:30",
        "phone": "8042420404",
        "sport": "gymnasium"
      }
    },
    {
      "type": "node",
      "id": 4586768489,
      "lat": 12.9148191,
      "lon": 77.5982088,
      "tags": {
        "amenity": "fast_food",
        "name": "Brahmins Special",
        "name:en": "Brahmins Special"
      }
    },
    {
      "type": "node",
      "id": 4839776498,
      "lat": 12.9131684,
      "lon": 77.6061172,
      "tags": {
        "name": "Continental Tyre Park",
        "shop": "tyres"
      }
    },
    {
      "type": "node",
      "id": 4875557994,
      "lat": 12.9194713,
      "lon": 77.5967266,
      "tags": {
        "addr:housenumber": "480",
        "addr:street": "East End A Main Road",
        "name": "Cadence90",
        "service:bicycle:retail": "yes",
        "shop": "bicycle"
      }
    },
    {
      "type": "node",
      "id": 4946500324,
      "lat": 12.9139703,
      "lon": 77.6060989,
      "tags": {
        "addr:housenumber": "294",
        "addr:postcode": "560076",
        "addr:street": "7th Main Road",
        "amenity": "fast_food",
        "brand": "Subway",
        "brand:wikidata": "Q244457",
        "check_date": "2023-12-27",
        "cuisine": "sandwich",
        "drive_through": "no",
        "internet_access": "no",
        "name": "Subway",
        "opening_hours": "PH,Mo-Su 09:30-21:30",
        "payment:cash": "yes",
        "payment:credit_cards": "yes",
        "payment:debit_cards": "yes",
        "takeaway": "yes",
        "wheelchair": "limited"
      }
    },
    {
      "type": "node",
      "id": 5273034143,
      "lat": 12.904966,
      "lon": 77.6016531,
      "tags": {
        "amenity": "restaurant",
        "name": "Nagarjuna Andhra Style"
      }
    },
    {
      "type": "node",
      "id": 5402224046,
      "lat": 12.9077496,
      "lon": 77.6008578,
      "tags": {
        "addr:city": "Bengaluru",
        "addr:postcode": "560076",
        "addr:street": "Bannerghatta Road",
        "brand": "Spar",
        "brand:wikidata": "Q610492",
        "brand:wikipedia": "en:Spar (retailer)",
        "check_date": "2025-08-26",
        "name": "Spar",
        "opening_hours": "Mo-Su 10:00-21:00",
        "organic": "yes",
        "payment:credit_cards": "yes",
        "payment:mastercard": "yes",
        "shop": "supermarket",
        "website": "https://www.sparindia.com/"
      }
    },
    {
      "type": "node",
      "id": 5402224047,
      "lat": 12.9063647,
      "lon": 77.5967688,
      "tags": {
        "shop": "bakery"
      }
    },
    {
      "type": "node",
      "id": 5402308136,
      "lat": 12.9065334,
      "lon": 77.598516,
      "tags": {
        "shop": "tyres"
      }
    },
    {
      "type": "node",
      "id": 5402312926,
      "lat": 12.9060471,
      "lon": 77.5969859,
      "tags": {
        "shop": "hairdresser"
      }
    },
    {
      "type": "node",
      "id": 5615099566,
      "lat": 12.9137354,
      "lon": 77.6063863,
      "tags": {
        "addr:postcode": "560076",
        "check_date": "2023-12-27",
        "fee": "yes",
        "internet_access": "no",
        "leisure": "fitness_centre",
        "name": "Play On Fitness",
        "opening_hours": "Mo-Su 07:00-21:00",
        "payment:cash": "yes",
        "payment:credit_cards": "yes",
        "payment:debit_cards": "yes",
        "source": "local knowledge",
        "wheelchair": "no"
      }
    },
    {
      "type": "node",
      "id": 5615100289,
      "lat": 12.9124714,
      "lon": 77.606448,
      "tags": {
        "leisure": "fitness_centre",
        "name": "The Grand Platinum Fitness",
        "sport": "fitness"
      }
    },
    {
      "type": "node",
      "id": 5615100291,
      "lat": 12.9126706,
      "lon": 77.6061609,
      "tags": {
        "check_date": "2023-10-15",
        "dance:style": "salsa",
        "dance:teaching": "yes",
        "leisure": "dance",
        "name": "The Venus Studio"
      }
    },
    {
      "type": "node",
      "id": 6024722727,
      "lat": 12.9170401,
      "lon": 77.6097678,
      "tags": {
        "amenity": "toilets"
      }
    },
    {
      "type": "node",
      "id": 6298960985,
      "lat": 12.9056713,
      "lon": 77.6039543,
      "tags": {
        "amenity": "restaurant",
        "cuisine": "South_Indian",
        "diet:vegetarian": "yes",
        "name": "Sattvik Udupi Uphar",
        "outdoor_seating": "no"
      }
    },
    {
      "type": "node",
      "id": 6298963689,
      "lat": 12.9057066,
      "lon": 77.6039088,
      "tags": {
        "name": "Chubby Cheeks",
        "shop": "baby_goods"
      }
    },
    {
      "type": "node",
      "id": 6298964736,
      "lat": 12.9055794,
      "lon": 77.6052372,
      "tags": {
        "amenity": "cafe",
        "brand": "Cafe Coffee Day",
        "brand:wikidata": "Q5017235",
        "brand:wikipedia": "en:Café Coffee Day",
        "cuisine": "coffee_shop",
        "name": "Cafe Coffee Day",
        "name:kn": "ಕಫೆ ಕಾಫಿ ಡೇ",
        "takeaway": "yes",
        "wheelchair": "limited"
      }
    },
    {
      "type": "node",
      "id": 6347037472,
      "lat": 12.9087935,
      "lon": 77.6045543,
      "tags": {
        "addr:place": "NS palya",
        "amenity": "school",
        "isced:level": "2",
        "name": "GHPS NS Palya",
        "name:kn": "ಸರ್ಕಾರಿ ಹಿರಿಯ ಪ್ರಾಥಮಿಕ ಶಾಲೆ ಎನ್ಎಸ್ ಪಾಳ್ಯ",
        "operator": "Department of Education",
        "school": "primary",
        "wheelchair": "no"
      }
    },
    {
      "type": "node",
      "id": 6349012849,
      "lat": 12.9174015,
      "lon": 77.6036834,
      "tags": {
        "addr:suburb": "Neelasandra",
        "amenity": "school",
        "isced:level": "2",
        "name": "GUHPS Neelasandra",
        "name:kn": "ಸರ್ಕಾರಿ ಹಿರಿಯ ಪ್ರಾಥಮಿಕ ಶಾಲೆ ನೀಲಸಂದ್ರ",
        "operator": "Department of Primary and Secondary Education",
        "operator:wikidata": "Q111467381",
        "school": "primary"
      }
    },
    {
      "type": "node",
      "id": 6349215701,
      "lat": 12.9180064,
      "lon": 77.5978472,
      "tags": {
        "addr:place": "Jayanagar",
        "amenity": "school",
        "isced:level": "2",
        "name": "Sahakari Vidyakendra AHPS Jayanagar",
        "name:kn": "ಸಹಕಾರಿ ವಿದ್ಯಾಕೇಂದ್ರ ಹಿರಿಯ ಪ್ರಾಥಮಿಕ ಶಾಲೆ ಜಯನಗರ",
        "operator": "Pvt. Aided",
        "school": "primary"
      }
    },
    {
      "type": "node",
      "id": 6349222321,
      "lat": 12.9188794,
      "lon": 77.605562,
      "tags": {
        "addr:place": "Gurappana Palya",
        "amenity": "school",
        "isced:level": "2",
        "name": "GHPS Gurappana Palya",
        "name:kn": "ಸರ್ಕಾರಿ ಹಿರಿಯ ಪ್ರಾಥಮಿಕ ಶಾಲೆ ಗುರಪ್ಪನಪಾಳ್ಯ",
        "operator": "Department of Education",
        "school": "primary"
      }
    },
    {
      "type": "node",
      "id": 6349534102,
      "lat": 12.9116316,
      "lon": 77.6023166,
      "tags": {
        "addr:place": "Byrasandra",
        "amenity": "school",
        "isced:level": "2",
        "name": "Sangameshwara HPS Byrasandra",
        "name:kn": "ಸಂಗಮೇಶ್ವರ ಹಿರಿಯ ಪ್ರಾಥಮಿಕ ಶಾಲೆ ಬೈರಸಂದ್ರ",
        "operator": "Pvt. Aided",
        "school": "primary"
      }
    },
    {
      "type": "node",
      "id": 6406473545,
      "lat": 12.9071902,
      "lon": 77.6067335,
      "tags": {
        "addr:place": "BTM Layout",
        "amenity": "school",
        "isced:level": "2",
        "name": "Hillside Public LPS Ns Palya, B T M Layout W No 65",
        "name:kn": "ಹಿಲ್‌ಸೈಡ್ ಪಬ್ಲಿಕ್ ಕಿರಿಯ ಪ್ರಾಥಮಿಕ ಶಾಲೆ ಎನ್.ಎಸ್ ಪಾಳ್ಯ , ಬಿ.ಟಿ.ಎಂ. ಲೇಔಟ್",
        "operator": "Private Un-Aided",
        "school": "Higher secondary",
        "wheelchair": "limited"
      }
    },
    {
      "type": "node",
      "id": 6406473546,
      "lat": 12.9087576,
      "lon": 77.6025747,
      "tags": {
        "addr:place": "BTM Layout",
        "amenity": "school",
        "isced:level": "2",
        "name": "Sri Balamuri Vidya Samste LPS, B T M Layout W No 65",
        "name:kn": "ಶ್ರೀ ಬಲಮುರಿ ವಿದ್ಯಾ ಸಂಸ್ಥೆ ಕಿರಿಯ ಪ್ರಾಥಮಿಕ ಶಾಲೆ, ಬಿ.ಟಿ.ಎಂ. ಲೇಔಟ್",
        "operator": "Pvt. Unaided",
        "school": "Higher Primary"
      }
    },
    {
      "type": "node",
      "id": 6408164827,
      "lat": 12.9105841,
      "lon": 77.6008291,
      "tags": {
        "addr:place": "BTM Layout",
        "amenity": "school",
        "isced:level": "3",
        "name": "Green Paschers KHPS Ns Palya, B T M Layout W No 65",
        "name:kn": "ಗ್ರೀನ್ ಪಾಸೇರ್ಸ್ ಕೆಎಚ್ಪಿಎಸ್ ಎನ್ಎಸ್ ಪಾಳ್ಯ, ಬಿ.ಟಿ.ಎಂ ಲೇಔಟ್",
        "operator": "Private Un-Aided",
        "school": "Higher secondary"
      }
    },
    {
      "type": "node",
      "id": 6882713317,
      "lat": 12.9163171,
      "lon": 77.5949228,
      "tags": {
        "addr:city": "Bengaluru",
        "addr:district": "BENGALURU URBAN",
        "addr:full": "1897/A, Cellar Floor, Gulora, 26th Main Road, Sount End Cross Road, 9th Block, Jayanagar",
        "addr:postcode": "560069",
        "addr:state": "Karnataka",
        "amenity": "blood_bank",
        "contact:mobile": "9342171911",
        "contact:phone": "8026494748",
        "name": "Sanjeevini Trust Jayanagar Voluntary Blood Bank",
        "opening_hours": "24/7",
        "operator:type": "ngo",
        "source": "OpenGovernmentData"
      }
    },
    {
      "type": "node",
      "id": 6882713318,
      "lat": 12.9180569,
      "lon": 77.5991875,
      "tags": {
        "addr:city": "Bengaluru",
        "addr:district": "BENGALURU URBAN",
        "addr:full": "Gurappanapaly Post, Banneraghatta Road",
        "addr:postcode": "560069",
        "addr:state": "Karnataka",
        "amenity": "blood_bank",
        "contact:mobile": "9886812718",
        "contact:phone": "8022977213",
        "name": "Sri Jayadeva Institute of Cardiology Blood Bank",
        "opening_hours": "24/7",
        "operator:type": "government",
        "source": "OpenGovernmentData"
      }
    },
    {
      "type": "node",
      "id": 6938741378,
      "lat": 12.9122295,
      "lon": 77.5994906,
      "tags": {
        "addr:district": "Bengaluru Urban",
        "addr:full": "C K Emerald, No-10,N S Palya Kaveriappa Industrial Area, Bannergatta Road",
        "addr:postcode": "560076",
        "addr:state": "Karnataka",
        "amenity": "hospital",
        "healthcare": "hospital",
        "name": "Dr Agarwals Eye Hospital Ltd",
        "operator": "Dr. Agarwal's Eye Hospital",
        "operator:type": "private",
        "operator:wikidata": "Q17052044",
        "source": "OpenGovernmentData"
      }
    },
    {
      "type": "node",
      "id": 6944290483,
      "lat": 12.9144587,
      "lon": 77.6003156,
      "tags": {
        "addr:district": "Bengaluru Urban",
        "addr:full": "# 33, Bannerghatta Road (Service Road), B.T.M.Layout B.T.M. Layout 2nd Stage",
        "addr:postcode": "560076",
        "addr:state": "Karnataka",
        "amenity": "hospital",
        "name": "Sri Sai Ram Hospital - Bangalore",
        "source": "OpenGovernmentData"
      }
    },
    {
      "type": "node",
      "id": 6944578930,
      "lat": 12.9188948,
      "lon": 77.6058905,
      "tags": {
        "addr:district": "Bengaluru Urban",
        "addr:full": "No.53, 3Road Main Road, Opposite To Maruti Layout, B.T.M Layout 1st Stage",
        "addr:postcode": "560029",
        "addr:state": "Karnataka",
        "amenity": "hospital",
        "healthcare": "hospital",
        "name": "Kareem E.N.T and Multispeciality Centre",
        "source": "OpenGovernmentData"
      }
    },
    {
      "type": "node",
      "id": 6947707900,
      "lat": 12.9164779,
      "lon": 77.6033811,
      "tags": {
        "addr:district": "Bengaluru Urban",
        "addr:full": "# 68, 1st Floor, 100 Ft. Ring Road, 2nd Stage, B.T.M. Layout",
        "addr:postcode": "560076",
        "addr:state": "Karnataka",
        "amenity": "clinic",
        "name": "Vinayaka Nethralaya",
        "name:kn": "ವಿನಾಯಕ ನೇತ್ರಾಲಯ",
        "source": "OpenGovernmentData"
      }
    },
    {
      "type": "node",
      "id": 7109696063,
      "lat": 12.9073592,
      "lon": 77.5982079,
      "tags": {
        "addr:city": "Bengaluru",
        "addr:postcode": "560078",
        "addr:street": "14th Cross Road",
        "name": "KIA SERVICE CENTRE",
        "payment:cash": "yes",
        "payment:credit_cards": "yes",
        "payment:electronic_purses": "yes",
        "service:vehicle:car_repair": "yes",
        "shop": "car_repair"
      }
    },
    {
      "type": "node",
      "id": 7164353729,
      "lat": 12.9140735,
      "lon": 77.6109398,
      "tags": {
        "amenity": "bank",
        "atm": "yes",
        "brand": "Canara Bank",
        "brand:en": "Canara Bank",
        "brand:hi": "केनरा बैंक",
        "brand:kn": "ಕೆನರಾ ಬ್ಯಾಂಕ್",
        "brand:pa": "ਕੇਨਰਾ ਬੈਂਕ",
        "brand:pnb": "کینرا بینک",
        "brand:ur": "کینرا بینک",
        "brand:wikidata": "Q2003777",
        "brand:wikipedia": "en:Canara Bank",
        "brand:wikipedia:pa": "ਕੇਨਰਾ ਬੈਂਕ",
        "name": "Canara Bank",
        "name:en": "Canara Bank",
        "name:hi": "केनरा बैंक",
        "name:kn": "ಕೆನರಾ ಬ್ಯಾಂಕ್",
        "name:pa": "ਕੇਨਰਾ ਬੈਂਕ",
        "name:pnb": "کینرا بینک",
        "name:ur": "کینرا بینک"
      }
    },
    {
      "type": "node",
      "id": 7389053966,
      "lat": 12.912531,
      "lon": 77.6061644,
      "tags": {
        "amenity": "events_venue",
        "check_date": "2023-10-15",
        "name": "IWWA",
        "wheelchair": "no"
      }
    },
    {
      "type": "node",
      "id": 7389053980,
      "lat": 12.9123595,
      "lon": 77.6067215,
      "tags": {
        "amenity": "clinic",
        "healthcare": "clinic",
        "healthcare:speciality": "orthopaedics",
        "name": "Ortho Centre Clinic",
        "opening_hours": "Mo-Sa 09:00-21:00"
      }
    },
    {
      "type": "node",
      "id": 7389053981,
      "lat": 12.9125653,
      "lon": 77.6090271,
      "tags": {
        "amenity": "kindergarten",
        "name": "first step",
        "preschool": "yes"
      }
    },
    {
      "type": "node",
      "id": 7389053982,
      "lat": 12.9136164,
      "lon": 77.607218,
      "tags": {
        "name": "Disney Bakery",
        "opening_hours": "PH,Mo-Su 07:00-23:00",
        "shop": "bakery"
      }
    },
    {
      "type": "node",
      "id": 7389053983,
      "lat": 12.9138357,
      "lon": 77.607426,
      "tags": {
        "amenity": "pharmacy",
        "dispensing": "yes",
        "healthcare": "pharmacy",
        "name": "Nandi Pharma",
        "opening_hours": "PH,Mo-Su 10:00-22:00"
      }
    },
    {
      "type": "node",
      "id": 7389053984,
      "lat": 12.9138331,
      "lon": 77.6072707,
      "tags": {
        "amenity": "dentist",
        "healthcare": "dentist",
        "name": "Srinivasa Dental Clinic",
        "opening_hours": "Mo-Sa 10:00-14:00,17:00-21:00; Su 10:00-14:00",
        "wheelchair": "yes"
      }
    },
    {
      "type": "node",
      "id": 7389069385,
      "lat": 12.9126033,
      "lon": 77.6064243,
      "tags": {
        "name": "Health & Glow",
        "opening_hours": "PH,Mo-Su 10:00-22:00",
        "shop": "cosmetics"
      }
    },
    {
      "type": "node",
      "id": 7389069386,
      "lat": 12.9135395,
      "lon": 77.6065388,
      "tags": {
        "amenity": "restaurant",
        "cuisine": "indian",
        "name": "Dhansagar",
        "opening_hours": "Mo-Su 10:00-21:00"
      }
    },
    {
      "type": "node",
      "id": 7389069387,
      "lat": 12.9135912,
      "lon": 77.6067733,
      "tags": {
        "name": "Shri Shirdi Sai Stationery",
        "opening_hours": "Mo-Su 09:00-21:00",
        "shop": "stationery",
        "wheelchair": "limited"
      }
    },
    {
      "type": "node",
      "id": 7389069388,
      "lat": 12.9137418,
      "lon": 77.6063534,
      "tags": {
        "addr:floor": "G",
        "check_date": "2023-12-27",
        "internet_access": "no",
        "level": "0",
        "name": "Poorvika Mobiles",
        "opening_hours": "Mo-Su 09:00-21:00",
        "payment:cash": "yes",
        "payment:credit_cards": "yes",
        "payment:debit_cards": "yes",
        "shop": "mobile_phone",
        "wheelchair": "limited"
      }
    },
    {
      "type": "node",
      "id": 7389069389,
      "lat": 12.9137202,
      "lon": 77.6056646,
      "tags": {
        "name": "Bhati Electricals",
        "opening_hours": "PH,Mo-Su 10:00-21:00",
        "shop": "electrical"
      }
    },
    {
      "type": "node",
      "id": 7389069390,
      "lat": 12.9134377,
      "lon": 77.6049873,
      "tags": {
        "addr:floor": "G",
        "addr:postcode": "560076",
        "air_conditioning": "yes",
        "check_date": "2023-12-27",
        "currency:INR": "yes",
        "internet_access": "no",
        "level": "0",
        "name": "Pet Choice",
        "opening_hours": "Mo-Su 10:00-21:00",
        "payment:cash": "yes",
        "payment:credit_cards": "yes",
        "payment:debit_cards": "yes",
        "second_hand": "no",
        "shop": "pet",
        "source": "local knowledge",
        "stroller": "limited",
        "toilets": "no",
        "toilets:wheelchair": "no",
        "wheelchair": "limited"
      }
    },
    {
      "type": "node",
      "id": 7389069391,
      "lat": 12.9134456,
      "lon": 77.6051098,
      "tags": {
        "addr:floor": "G",
        "addr:postcode": "560076",
        "amenity": "pharmacy",
        "brand": "MedPlus",
        "brand:wikidata": "Q65684234",
        "brand:wikipedia": "en:MedPlus",
        "check_date": "2023-12-27",
        "dispensing": "yes",
        "drive_through": "no",
        "healthcare": "pharmacy",
        "internet_access": "no",
        "level": "0",
        "name": "MedPlus",
        "opening_hours": "PH,Mo-Su 08:00-23:00",
        "payment:cash": "yes",
        "payment:credit_cards": "yes",
        "payment:debit_cards": "yes",
        "source": "local knowledge",
        "wheelchair": "limited"
      }
    },
    {
      "type": "node",
      "id": 7579924707,
      "lat": 12.9147481,
      "lon": 77.6063204,
      "tags": {
        "addr:district": "Bengaluru Urban",
        "addr:full": "BTM Layout, Bengaluru",
        "addr:postcode": "560076",
        "addr:state": "Karnataka",
        "amenity": "clinic",
        "healthcare": "clinic",
        "name": "Daivik Clinic",
        "source": "Local Knowledge"
      }
    },
    {
      "type": "node",
      "id": 7579924713,
      "lat": 12.9165942,
      "lon": 77.5965621,
      "tags": {
        "addr:district": "Bengaluru Urban",
        "addr:full": "J.P. Nagar, Bengaluru",
        "addr:postcode": "560078",
        "addr:state": "Karnataka",
        "amenity": "clinic",
        "healthcare": "clinic",
        "name": "Reviva Dermaesthetic",
        "source": "Local Knowledge"
      }
    },
    {
      "type": "node",
      "id": 7579924720,
      "lat": 12.913031,
      "lon": 77.6034614,
      "tags": {
        "addr:district": "Bengaluru Urban",
        "addr:full": "Bengaluru",
        "addr:postcode": "560076",
        "addr:state": "Karnataka",
        "amenity": "clinic",
        "name": "Disney Family Clinic",
        "source": "Local Knowledge"
      }
    },
    {
      "type": "node",
      "id": 7579924724,
      "lat": 12.917483,
      "lon": 77.6028048,
      "tags": {
        "addr:district": "Bengaluru Urban",
        "addr:full": "Bannerghatta Road, Bengaluru",
        "addr:postcode": "560029",
        "addr:state": "Karnataka",
        "amenity": "dentist",
        "healthcare": "dentist",
        "name": "M.F. Dental Care",
        "source": "Local Knowledge"
      }
    },
    {
      "type": "node",
      "id": 7579924728,
      "lat": 12.9053197,
      "lon": 77.6030568,
      "tags": {
        "addr:district": "Bengaluru Urban",
        "addr:full": "BTM Layout, Bengaluru",
        "addr:postcode": "560076",
        "addr:state": "Karnataka",
        "amenity": "doctors",
        "healthcare": "doctor",
        "name": "Dr. Revathi Prasad",
        "source": "Local Knowledge"
      }
    },
    {
      "type": "node",
      "id": 7579924729,
      "lat": 12.9121632,
      "lon": 77.6098276,
      "tags": {
        "addr:district": "Bengaluru Urban",
        "addr:full": "Mahadeshwara Nagar, BTM Layout, Bengaluru",
        "addr:postcode": "560076",
        "addr:state": "Karnataka",
        "amenity": "hospital",
        "name": "Shree Vaishnavi Heart Centre and Multi Speciality",
        "source": "Local Knowledge"
      }
    },
    {
      "type": "node",
      "id": 7579924731,
      "lat": 12.9136262,
      "lon": 77.6045369,
      "tags": {
        "addr:district": "Bengaluru Urban",
        "addr:floor": "3",
        "addr:full": "BTM, Bengaluru",
        "addr:postcode": "560076",
        "addr:state": "Karnataka",
        "amenity": "hospital",
        "check_date": "2023-12-27",
        "emergency": "no",
        "healthcare": "hospital",
        "internet_access": "no",
        "level": "3",
        "name": "Marigold Hospital",
        "operator:type": "private",
        "payment:cash": "yes",
        "payment:credit_cards": "yes",
        "payment:debit_cards": "yes",
        "source": "Local Knowledge",
        "wheelchair": "limited"
      }
    },
    {
      "type": "node",
      "id": 7579924741,
      "lat": 12.9138294,
      "lon": 77.6070373,
      "tags": {
        "addr:district": "Bengaluru Urban",
        "addr:full": "Mico Layout, Bengaluru",
        "addr:postcode": "560076",
        "addr:state": "Karnataka",
        "amenity": "clinic",
        "healthcare": "clinic",
        "name": "Nisa Multi Speciality Clinics",
        "opening_hours": "Mo-Sa 10:00-22:00",
        "source": "Local Knowledge"
      }
    },
    {
      "type": "node",
      "id": 7579924749,
      "lat": 12.907377,
      "lon": 77.6040762,
      "tags": {
        "addr:district": "Bengaluru Urban",
        "addr:full": "Abbaappa Layout, BTM Layout, Bengaluru",
        "addr:postcode": "560076",
        "addr:state": "Karnataka",
        "amenity": "clinic",
        "healthcare": "clinic",
        "name": "Ashya Clinic",
        "source": "Local Knowledge"
      }
    },
    {
      "type": "node",
      "id": 7579924752,
      "lat": 12.917402,
      "lon": 77.6010132,
      "tags": {
        "addr:district": "Bengaluru Urban",
        "addr:full": "KEB Colony, BTM Layout 1, Bengaluru",
        "addr:postcode": "560029",
        "addr:state": "Karnataka",
        "amenity": "clinic",
        "healthcare": "clinic",
        "name": "Shenoy's Children Clinic",
        "source": "Local Knowledge"
      }
    },
    {
      "type": "node",
      "id": 7579924753,
      "lat": 12.9159348,
      "lon": 77.6034098,
      "tags": {
        "addr:district": "Bengaluru Urban",
        "addr:full": "Bannerghatta Main Road, BTM, Bengaluru",
        "addr:postcode": "560076",
        "addr:state": "Karnataka",
        "amenity": "hospital",
        "healthcare": "hospital",
        "name": "Pothys Hospital",
        "source": "Local Knowledge"
      }
    },
    {
      "type": "node",
      "id": 7579924756,
      "lat": 12.918787,
      "lon": 77.605897,
      "tags": {
        "addr:district": "Bengaluru Urban",
        "addr:full": "KEB Colony, Bengaluru",
        "addr:postcode": "560029",
        "addr:state": "Karnataka",
        "amenity": "clinic",
        "healthcare": "clinic",
        "name": "Kareem ENT",
        "source": "Local Knowledge"
      }
    },
    {
      "type": "node",
      "id": 7579924757,
      "lat": 12.9190762,
      "lon": 77.6092154,
      "tags": {
        "addr:district": "Bengaluru Urban",
        "addr:full": "Tavarekere, Aicobo Nagar, BTM Layout, Bengaluru",
        "addr:postcode": "560029",
        "addr:state": "Karnataka",
        "amenity": "clinic",
        "name": "Dr. Santosh Clinic",
        "source": "Local Knowledge"
      }
    },
    {
      "type": "node",
      "id": 7579924759,
      "lat": 12.905596,
      "lon": 77.6047376,
      "tags": {
        "addr:district": "Bengaluru Urban",
        "addr:full": "NS Palya, Bilekahalli, Bengaluru",
        "addr:postcode": "560076",
        "addr:state": "Karnataka",
        "amenity": "dentist",
        "healthcare": "dentist",
        "name": "All Smiles Dental Health Centre",
        "source": "Local Knowledge",
        "wheelchair": "no"
      }
    },
    {
      "type": "node",
      "id": 7579924769,
      "lat": 12.912832,
      "lon": 77.605728,
      "tags": {
        "addr:district": "Bengaluru Urban",
        "addr:full": "BTM Layout, Bengaluru",
        "addr:postcode": "560076",
        "addr:state": "Karnataka",
        "amenity": "clinic",
        "healthcare": "clinic",
        "name": "Anugraha Clinic",
        "source": "Local Knowledge"
      }
    },
    {
      "type": "node",
      "id": 7579924781,
      "lat": 12.918036,
      "lon": 77.603516,
      "tags": {
        "addr:district": "Bengaluru Urban",
        "addr:full": "BTM Layout, Bengaluru",
        "addr:postcode": "560029",
        "addr:state": "Karnataka",
        "amenity": "clinic",
        "healthcare": "clinic",
        "name": "Ayesha Speciality Clinic",
        "source": "Local Knowledge"
      }
    },
    {
      "type": "node",
      "id": 7579924782,
      "lat": 12.9082942,
      "lon": 77.6050646,
      "tags": {
        "addr:district": "Bengaluru Urban",
        "addr:full": "Mahadeshwara Nagar, BTM, Bengaluru",
        "addr:postcode": "560076",
        "addr:state": "Karnataka",
        "amenity": "clinic",
        "healthcare": "clinic",
        "name": "Bharat Clinic",
        "source": "Local Knowledge"
      }
    },
    {
      "type": "node",
      "id": 7653024618,
      "lat": 12.9072819,
      "lon": 77.6065286,
      "tags": {
        "amenity": "place_of_worship",
        "name": "ECI Church",
        "religion": "christian",
        "wheelchair": "no"
      }
    },
    {
      "type": "node",
      "id": 7653024620,
      "lat": 12.9170835,
      "lon": 77.6057329,
      "tags": {
        "amenity": "place_of_worship",
        "name": "Kerala Mosque",
        "religion": "muslim"
      }
    },
    {
      "type": "node",
      "id": 7920648785,
      "lat": 12.9043596,
      "lon": 77.605245,
      "tags": {
        "addr:postcode": "560076",
        "addr:street": "3rd main, 6th cross, main road, near café coffee day, NS Palya, Munivenkatppa Layout, Bilekahalli",
        "amenity": "school",
        "email": "communications.oisb@orchids.edu.in",
        "name": "Orchids The International School, BTM",
        "opening_hours": "Mo-Su 09:00-18:30",
        "operator": "Orchids International School",
        "phone": "9513731352",
        "website": "https://www.orchidsinternationalschool.com/bangalore-branches/btm-2nd-stage/",
        "wheelchair": "limited"
      }
    },
    {
      "type": "node",
      "id": 9102882915,
      "lat": 12.9141809,
      "lon": 77.6062896,
      "tags": {
        "amenity": "restaurant",
        "bar": "no",
        "brand": "Pizza Hut",
        "brand:wikidata": "Q191615",
        "brand:wikipedia": "en:Pizza Hut",
        "brewery": "no",
        "cuisine": "pizza",
        "delivery": "yes",
        "highchair": "yes",
        "microbrewery": "no",
        "name": "Pizza Hut",
        "opening_hours": "Mo-Su 10:00-21:00",
        "outdoor_seating": "no",
        "payment:cash": "yes",
        "payment:credit_cards": "yes",
        "payment:debit_cards": "yes",
        "reservation": "no",
        "smoking": "no",
        "source": "local knowledge",
        "takeaway": "yes",
        "toilets": "yes",
        "toilets:wheelchair": "limited",
        "wheelchair": "limited"
      }
    },
    {
      "type": "node",
      "id": 9102898264,
      "lat": 12.9140433,
      "lon": 77.6101988,
      "tags": {
        "amenity": "fast_food",
        "check_date": "2023-10-19",
        "name": "Pathan Sir",
        "opening_hours": "Mo-Su 09:00-21:00",
        "wheelchair": "yes"
      }
    },
    {
      "type": "node",
      "id": 9102904801,
      "lat": 12.913395,
      "lon": 77.604436,
      "tags": {
        "amenity": "atm",
        "brand": "HDFC Bank",
        "brand:wikidata": "Q631047",
        "brand:wikipedia": "en:HDFC Bank",
        "name": "HDFC Bank",
        "name:kn": "ಎಚ್ ಡಿ ಎಫ್ ಸಿ",
        "operator": "HDFC Bank",
        "operator:wikidata": "Q631047",
        "operator:wikipedia": "en:HDFC Bank",
        "short_name": "HDFC"
      }
    },
    {
      "type": "node",
      "id": 9102904802,
      "lat": 12.913395,
      "lon": 77.6044106,
      "tags": {
        "amenity": "bank",
        "brand": "HDFC Bank",
        "brand:wikidata": "Q631047",
        "brand:wikipedia": "en:HDFC Bank",
        "name": "HDFC Bank",
        "name:kn": "ಎಚ್ ಡಿ ಎಫ್ ಸಿ",
        "opening_hours": "Mo-Sa 10:00-16:00",
        "short_name": "HDFC"
      }
    },
    {
      "type": "node",
      "id": 9102921808,
      "lat": 12.9140054,
      "lon": 77.6095041,
      "tags": {
        "amenity": "fast_food",
        "brand": "Domino's",
        "brand:ks": "ڈومینوز",
        "brand:pa": "ਡੋਮੀਨੋਜ਼",
        "brand:ur": "ڈومینوز",
        "brand:wikidata": "Q839466",
        "brand:wikipedia": "en:Domino's Pizza",
        "cuisine": "pizza",
        "name": "Domino's",
        "name:ks": "ڈومینوز",
        "name:pa": "ਡੋਮੀਨੋਜ਼",
        "name:ur": "ڈومینوز",
        "opening_hours": "PH,Mo-Su 10:30-22:00",
        "takeaway": "yes"
      }
    },
    {
      "type": "node",
      "id": 9103711349,
      "lat": 12.9157468,
      "lon": 77.6102135,
      "tags": {
        "check_date": "2023-10-15",
        "name": "Chai Days",
        "opening_hours": "Mo-Su 09:00-21:00",
        "shop": "tea"
      }
    },
    {
      "type": "node",
      "id": 9103721184,
      "lat": 12.9157801,
      "lon": 77.6102665,
      "tags": {
        "amenity": "ice_cream",
        "name": "Frozen Bottle"
      }
    },
    {
      "type": "node",
      "id": 9103732101,
      "lat": 12.9157629,
      "lon": 77.6103253,
      "tags": {
        "brand": "cult.fit",
        "brand:wikidata": "Q121289250",
        "leisure": "fitness_centre",
        "name": "cult.fit"
      }
    },
    {
      "type": "node",
      "id": 9107018465,
      "lat": 12.914082,
      "lon": 77.6105925,
      "tags": {
        "amenity": "restaurant",
        "name": "99 Varieties Dosa",
        "opening_hours": "Mo-Su 10:30-21:00",
        "wheelchair": "limited"
      }
    },
    {
      "type": "node",
      "id": 9119109730,
      "lat": 12.9137356,
      "lon": 77.6083728,
      "tags": {
        "name": "Keventers",
        "shop": "pastry"
      }
    },
    {
      "type": "node",
      "id": 9119109731,
      "lat": 12.9137347,
      "lon": 77.6084413,
      "tags": {
        "name": "Healthkart",
        "shop": "nutrition_supplements"
      }
    },
    {
      "type": "node",
      "id": 9121624210,
      "lat": 12.9137312,
      "lon": 77.6085315,
      "tags": {
        "brand": "Samsung",
        "brand:wikidata": "Q20718",
        "brand:wikipedia": "en:Samsung Electronics",
        "name": "Samsung SmartCafe",
        "shop": "mobile_phone"
      }
    },
    {
      "type": "node",
      "id": 9121624211,
      "lat": 12.9136723,
      "lon": 77.6085836,
      "tags": {
        "dance:style": "zumba",
        "dance:teaching": "yes",
        "leisure": "dance",
        "name": "Rami's Dance Inc"
      }
    },
    {
      "type": "node",
      "id": 9121624212,
      "lat": 12.9137363,
      "lon": 77.6085865,
      "tags": {
        "name": "Titan World",
        "shop": "optician"
      }
    },
    {
      "type": "node",
      "id": 9121624213,
      "lat": 12.9136989,
      "lon": 77.6085688,
      "tags": {
        "name": "YLG",
        "shop": "beauty"
      }
    },
    {
      "type": "node",
      "id": 9123478831,
      "lat": 12.9137513,
      "lon": 77.6087148,
      "tags": {
        "check_date": "2023-12-27",
        "internet_access": "no",
        "level": "0",
        "name": "Wildcraft",
        "payment:cash": "yes",
        "payment:credit_cards": "yes",
        "payment:debit_cards": "yes",
        "shop": "outdoor",
        "wheelchair": "no"
      }
    },
    {
      "type": "node",
      "id": 9123478832,
      "lat": 12.9137533,
      "lon": 77.6089023,
      "tags": {
        "name": "Dry Fruit Gallery",
        "opening_hours": "PH,Mo-Su 10:00-22:00",
        "shop": "health_food"
      }
    },
    {
      "type": "node",
      "id": 9123478833,
      "lat": 12.9137433,
      "lon": 77.6087482,
      "tags": {
        "air_conditioning": "no",
        "amenity": "bank",
        "atm": "yes",
        "brand": "Kotak Mahindra Bank",
        "brand:wikidata": "Q2040404",
        "check_date": "2023-12-27",
        "currency:INR": "yes",
        "drive_through": "no",
        "internet_access": "no",
        "level": "0",
        "name": "Kotak Mahindra Bank",
        "name:kn": "ಕೋಟಕ್ ಮಹಿಂದ್ರ ಬ್ಯಾಂಕ್",
        "payment:cash": "yes",
        "payment:credit_cards": "yes",
        "payment:debit_cards": "yes",
        "source": "local knowledge",
        "wheelchair": "no"
      }
    },
    {
      "type": "node",
      "id": 9123488844,
      "lat": 12.9136528,
      "lon": 77.6075368,
      "tags": {
        "name": "Eye World Opticians",
        "opening_hours": "Mo-Su 10:30-21:00",
        "shop": "optician",
        "wheelchair": "limited"
      }
    },
    {
      "type": "node",
      "id": 9130871853,
      "lat": 12.9132521,
      "lon": 77.60992,
      "tags": {
        "check_date": "2023-10-15",
        "name": "Wellness Forever",
        "opening_hours": "24/7",
        "shop": "chemist"
      }
    },
    {
      "type": "node",
      "id": 9159982974,
      "lat": 12.9133887,
      "lon": 77.6043111,
      "tags": {
        "amenity": "bank",
        "brand": "State Bank of India",
        "brand:wikidata": "Q1340361",
        "brand:wikipedia": "en:State Bank of India",
        "name": "State Bank of India",
        "opening_hours": "Mo-Sa 11:00-16:00",
        "short_name": "SBI"
      }
    },
    {
      "type": "node",
      "id": 9159982975,
      "lat": 12.9133861,
      "lon": 77.6043326,
      "tags": {
        "amenity": "atm",
        "brand": "State Bank of India",
        "brand:wikidata": "Q1340361",
        "brand:wikipedia": "en:State Bank of India",
        "name": "State Bank of India",
        "operator": "State Bank of India",
        "operator:wikidata": "Q1340361",
        "operator:wikipedia": "en:State Bank of India",
        "short_name": "SBI"
      }
    },
    {
      "type": "node",
      "id": 9159993157,
      "lat": 12.9137661,
      "lon": 77.6088434,
      "tags": {
        "name": "Cell Kafe",
        "opening_hours": "PH,Mo-Su 10:30-21:30",
        "shop": "mobile_phone"
      }
    },
    {
      "type": "node",
      "id": 9159993158,
      "lat": 12.9139792,
      "lon": 77.6088233,
      "tags": {
        "brand": "Lenskart",
        "brand:wikidata": "Q17068753",
        "name": "Lenskart",
        "opening_hours": "Mo-Su 10:00-21:00",
        "shop": "optician"
      }
    },
    {
      "type": "node",
      "id": 9159993159,
      "lat": 12.9139857,
      "lon": 77.6088608,
      "tags": {
        "amenity": "bank",
        "brand": "RBL Bank",
        "brand:wikidata": "Q13120398",
        "brand:wikipedia": "en:RBL Bank",
        "name": "RBL Bank"
      }
    },
    {
      "type": "node",
      "id": 9165209208,
      "lat": 12.9138932,
      "lon": 77.6060959,
      "tags": {
        "addr:floor": "G",
        "air_conditioning": "no",
        "amenity": "restaurant",
        "bar": "no",
        "brewery": "no",
        "check_date": "2023-12-27",
        "cuisine": "indian;regional",
        "delivery": "yes",
        "diet:vegetarian": "yes",
        "highchair": "yes",
        "internet_access": "no",
        "level": "0",
        "microbrewery": "no",
        "name": "Sri Krishna Sagar",
        "opening_hours": "PH,Mo-Su 09:00-22:00",
        "outdoor_seating": "no",
        "payment:cash": "yes",
        "payment:credit_cards": "yes",
        "payment:debit_cards": "yes",
        "reservation": "no",
        "smoking": "no",
        "source": "local knowledge",
        "takeaway": "yes",
        "toilets": "no",
        "toilets:wheelchair": "no",
        "wheelchair": "limited"
      }
    },
    {
      "type": "node",
      "id": 9165273183,
      "lat": 12.9136612,
      "lon": 77.6076138,
      "tags": {
        "amenity": "pharmacy",
        "healthcare": "pharmacy",
        "name": "Om Medicals",
        "opening_hours": "PH,Mo-Su 10:00-22:00"
      }
    },
    {
      "type": "node",
      "id": 9165273184,
      "lat": 12.9136456,
      "lon": 77.6073952,
      "tags": {
        "amenity": "atm",
        "brand": "IndusInd Bank",
        "brand:wikidata": "Q2040323",
        "brand:wikipedia": "en:IndusInd Bank",
        "check_date": "2023-10-15",
        "name": "IndusInd Bank",
        "name:kn": "ಇಂಡಸ್ಇಂಡ್",
        "operator": "IndusInd Bank",
        "operator:wikidata": "Q2040323",
        "operator:wikipedia": "en:IndusInd Bank"
      }
    },
    {
      "type": "node",
      "id": 9165273185,
      "lat": 12.9136469,
      "lon": 77.6073617,
      "tags": {
        "name": "Star Mobiles",
        "opening_hours": "Mo-Su 10:00-21:00",
        "shop": "mobile_phone"
      }
    },
    {
      "type": "node",
      "id": 9165273190,
      "lat": 12.9138125,
      "lon": 77.6067629,
      "tags": {
        "name": "Herbal Ambience",
        "opening_hours": "Mo-Su 10:30-21:00",
        "shop": "beauty"
      }
    },
    {
      "type": "node",
      "id": 9165337880,
      "lat": 12.9136582,
      "lon": 77.610198,
      "tags": {
        "amenity": "restaurant",
        "check_date": "2023-10-15",
        "cuisine": "indian",
        "name": "Laddoos",
        "opening_hours": "PH,Mo-Su 09:30-21:30",
        "wheelchair": "no"
      }
    },
    {
      "type": "node",
      "id": 9165337881,
      "lat": 12.9135458,
      "lon": 77.6101845,
      "tags": {
        "amenity": "cafe",
        "brand": "Chai Point",
        "brand:wikidata": "Q28173415",
        "cuisine": "coffee_shop",
        "name": "Chai Point",
        "opening_hours": "PH,Mo-Su 09:30-21:30",
        "takeaway": "yes",
        "wheelchair": "no"
      }
    },
    {
      "type": "node",
      "id": 9165337882,
      "lat": 12.9134635,
      "lon": 77.6101698,
      "tags": {
        "amenity": "bank",
        "atm": "yes",
        "brand": "ICICI Bank",
        "brand:wikidata": "Q1653258",
        "brand:wikipedia": "en:ICICI Bank",
        "check_date": "2023-10-15",
        "name": "ICICI Bank",
        "name:kn": "ಐಸಿಐಸಿಐ ಬ್ಯಾಂಕು",
        "opening_hours": "Mo-Sa 09:30-16:30",
        "short_name": "ICICI"
      }
    },
    {
      "type": "node",
      "id": 9165337883,
      "lat": 12.91347,
      "lon": 77.6099391,
      "tags": {
        "check_date": "2023-10-15",
        "name": "Amma's Pastries",
        "opening_hours": "PH,Mo-Su 09:30-22:00",
        "shop": "pastry"
      }
    },
    {
      "type": "node",
      "id": 9173864225,
      "lat": 12.9126995,
      "lon": 77.6064081,
      "tags": {
        "amenity": "bank",
        "atm": "yes",
        "brand": "Indian Bank",
        "brand:wikidata": "Q2003789",
        "name": "Indian Bank",
        "opening_hours": "Mo-Sa 11:00-17:00"
      }
    },
    {
      "type": "node",
      "id": 9173864227,
      "lat": 12.9135009,
      "lon": 77.6099273,
      "tags": {
        "check_date": "2023-10-19",
        "dance:teaching": "yes",
        "leisure": "dance",
        "name": "Hello Dance"
      }
    },
    {
      "type": "node",
      "id": 9173864228,
      "lat": 12.9136329,
      "lon": 77.6099505,
      "tags": {
        "name": "Asus",
        "opening_hours": "Mo-Su 10:00-22:00",
        "shop": "computer"
      }
    },
    {
      "type": "node",
      "id": 9173864230,
      "lat": 12.9134831,
      "lon": 77.6098827,
      "tags": {
        "name": "Wink Unisex Salon",
        "opening_hours": "Mo-Su 10:00-22:00",
        "shop": "beauty"
      }
    },
    {
      "type": "node",
      "id": 9174380012,
      "lat": 12.9136459,
      "lon": 77.6049936,
      "tags": {
        "addr:housenumber": "246",
        "addr:street": "7th Cross Road",
        "amenity": "fast_food",
        "name": "Eat Again",
        "opening_hours": "Mo-Su 11:00-22:00"
      }
    },
    {
      "type": "node",
      "id": 9174380013,
      "lat": 12.9134524,
      "lon": 77.605455,
      "tags": {
        "amenity": "bank",
        "brand": "Bank of Maharashtra",
        "brand:wikidata": "Q2004304",
        "brand:wikipedia": "en:Bank of Maharashtra",
        "name": "Bank of Maharashtra"
      }
    },
    {
      "type": "node",
      "id": 9174433688,
      "lat": 12.9134224,
      "lon": 77.6048622,
      "tags": {
        "addr:housenumber": "452",
        "addr:street": "7th Cross Road",
        "amenity": "school",
        "name": "Sambhavam - Centre for Autism"
      }
    },
    {
      "type": "node",
      "id": 9712714914,
      "lat": 12.9154241,
      "lon": 77.609941,
      "tags": {
        "name": "Preethi General Stores",
        "opening_hours": "PH,Mo-Su 08:00-22:00",
        "shop": "general"
      }
    },
    {
      "type": "node",
      "id": 9795169359,
      "lat": 12.9147553,
      "lon": 77.6102465,
      "tags": {
        "addr:housenumber": "942",
        "addr:street": "16th Main Road",
        "alt_name": "Kentucky Fried Chicken",
        "alt_name:en": "Kentucky Fried Chicken",
        "alt_name:hi": "केंटुकी फ्राइड चिकन",
        "alt_name:pa": "ਕੈਂਟੁਕੀ ਫ੍ਰਾਈਡ ਚਿਕਨ",
        "alt_name:pnb": "کینٹکی فرائیڈ چکن",
        "alt_name:ur": "کینٹکی فرائیڈ چکن",
        "amenity": "fast_food",
        "brand": "KFC",
        "brand:en": "KFC",
        "brand:hi": "केएफसी",
        "brand:pa": "ਕੇਐਫਸੀ",
        "brand:pnb": "کے ایف سی",
        "brand:ur": "کے ایف سی",
        "brand:wikidata": "Q524757",
        "cuisine": "chicken",
        "name": "KFC",
        "name:en": "KFC",
        "name:hi": "केएफसी",
        "name:pa": "ਕੇਐਫਸੀ",
        "name:pnb": "کے ایف سی",
        "name:ur": "کے ایف سی",
        "opening_hours": "PH,Mo-Su 10:00-22:00",
        "takeaway": "yes"
      }
    },
    {
      "type": "node",
      "id": 9795169360,
      "lat": 12.9149903,
      "lon": 77.6099319,
      "tags": {
        "addr:housenumber": "782",
        "addr:street": "16th Main Road",
        "brand": "Bata",
        "brand:wikidata": "Q688082",
        "name": "Bata",
        "name:kn": "ಬಾಟಾ",
        "opening_hours": "PH,Mo-Su 10:00-21:30",
        "shop": "shoes"
      }
    },
    {
      "type": "node",
      "id": 9892036252,
      "lat": 12.9068098,
      "lon": 77.5995603,
      "tags": {
        "amenity": "restaurant",
        "name": "Klayworkz Barista"
      }
    },
    {
      "type": "node",
      "id": 9903783534,
      "lat": 12.9137929,
      "lon": 77.6095504,
      "tags": {
        "level": "0",
        "name": "Acer mall",
        "shop": "computer"
      }
    },
    {
      "type": "node",
      "id": 9904111106,
      "lat": 12.9170177,
      "lon": 77.5947337,
      "tags": {
        "amenity": "restaurant",
        "check_date": "2023-10-28",
        "name": "Kota Kachori"
      }
    },
    {
      "type": "node",
      "id": 10032026860,
      "lat": 12.9074857,
      "lon": 77.6011683,
      "tags": {
        "amenity": "bar",
        "contact:instagram": "meterbar.official",
        "indoor_seating": "yes",
        "name": "Meter Bar",
        "outdoor_seating": "no"
      }
    },
    {
      "type": "node",
      "id": 10051816951,
      "lat": 12.9070051,
      "lon": 77.5982256,
      "tags": {
        "amenity": "restaurant",
        "name": "The Studs Sports Bar + Grill"
      }
    },
    {
      "type": "node",
      "id": 10146581118,
      "lat": 12.9039898,
      "lon": 77.6017961,
      "tags": {
        "name": "Pottery Shop",
        "shop": "pottery"
      }
    },
    {
      "type": "node",
      "id": 10302703775,
      "lat": 12.9077667,
      "lon": 77.6012689,
      "tags": {
        "amenity": "fast_food",
        "brand": "Popeyes",
        "brand:wikidata": "Q1330910",
        "brand:wikipedia": "en:Popeyes",
        "check_date": "2025-08-26",
        "cuisine": "chicken",
        "delivery": "yes",
        "indoor_seating": "yes",
        "name": "Popeyes",
        "official_name": "Popeyes Louisiana Kitchen",
        "outdoor_seating": "no",
        "payment:cash": "yes",
        "payment:credit_cards": "yes",
        "payment:debit_cards": "yes",
        "takeaway": "yes",
        "website": "https://www.popeyes.in/",
        "wheelchair": "yes"
      }
    },
    {
      "type": "node",
      "id": 10302703776,
      "lat": 12.9140256,
      "lon": 77.6090446,
      "tags": {
        "amenity": "fast_food",
        "brand": "Popeyes",
        "brand:wikidata": "Q1330910",
        "brand:wikipedia": "en:Popeyes",
        "cuisine": "chicken",
        "delivery": "yes",
        "name": "Popeyes",
        "official_name": "Popeyes Louisiana Kitchen",
        "takeaway": "yes",
        "website": "https://www.popeyes.in/"
      }
    },
    {
      "type": "node",
      "id": 10632949330,
      "lat": 12.9169027,
      "lon": 77.6021902,
      "tags": {
        "amenity": "recycling",
        "name": "BBMP Dry Waste Collection Center",
        "recycling_type": "centre"
      }
    },
    {
      "type": "node",
      "id": 10697707067,
      "lat": 12.9125107,
      "lon": 77.5995074,
      "tags": {
        "name": "Reliance Trends",
        "shop": "clothes"
      }
    },
    {
      "type": "node",
      "id": 10697707069,
      "lat": 12.9047312,
      "lon": 77.6014844,
      "tags": {
        "air_conditioning": "yes",
        "amenity": "restaurant",
        "cuisine": "indian",
        "diet:vegetarian": "yes",
        "indoor_seating": "yes",
        "name": "Nagarjuna",
        "outdoor_seating": "no",
        "wheelchair": "yes"
      }
    },
    {
      "type": "node",
      "id": 10853180819,
      "lat": 12.9163903,
      "lon": 77.6042891,
      "tags": {
        "name": "Bounce Infinity",
        "operator": "Bounce",
        "shop": "motorcycle"
      }
    },
    {
      "type": "node",
      "id": 10854298558,
      "lat": 12.9170314,
      "lon": 77.5954331,
      "tags": {
        "name": "Factory Outlet",
        "shop": "clothes"
      }
    },
    {
      "type": "node",
      "id": 10854298563,
      "lat": 12.9170197,
      "lon": 77.5948866,
      "tags": {
        "brand": "TVS",
        "brand:wikidata": "Q3300084",
        "name": "Synergy TVS",
        "shop": "motorcycle"
      }
    },
    {
      "type": "node",
      "id": 10855355394,
      "lat": 12.9078534,
      "lon": 77.601101,
      "tags": {
        "check_date": "2025-08-26",
        "name": "Rare Rabbit",
        "payment:cash": "yes",
        "payment:credit_cards": "yes",
        "payment:debit_cards": "yes",
        "shop": "clothes"
      }
    },
    {
      "type": "node",
      "id": 10978033369,
      "lat": 12.9078687,
      "lon": 77.6009256,
      "tags": {
        "name": "Kindlife LiteStore",
        "shop": "beauty"
      }
    },
    {
      "type": "node",
      "id": 11048973795,
      "lat": 12.9101235,
      "lon": 77.5953898,
      "tags": {
        "amenity": "bank",
        "brand": "CSB Bank",
        "brand:wikidata": "Q5053244",
        "name": "CSB Bank",
        "official_name": "Catholic Syrian Bank"
      }
    },
    {
      "type": "node",
      "id": 11073320592,
      "lat": 12.9039952,
      "lon": 77.6018922,
      "tags": {
        "name": "Fashion factory",
        "shop": "clothes"
      }
    },
    {
      "type": "node",
      "id": 11162603758,
      "lat": 12.9100271,
      "lon": 77.5953771,
      "tags": {
        "amenity": "restaurant",
        "name": "Vyana World Cuisine",
        "website": "https://thevyana.com"
      }
    },
    {
      "type": "node",
      "id": 11164777495,
      "lat": 12.9141742,
      "lon": 77.5995886,
      "tags": {
        "amenity": "fast_food",
        "brand": "Taco Bell",
        "brand:wikidata": "Q752941",
        "check_date": "2023-09-03",
        "cuisine": "tex-mex",
        "name": "Taco Bell",
        "source": "survey",
        "takeaway": "yes"
      }
    },
    {
      "type": "node",
      "id": 11201322521,
      "lat": 12.9107075,
      "lon": 77.5992431,
      "tags": {
        "amenity": "restaurant",
        "check_date": "2023-09-19",
        "cuisine": "indian;seafood",
        "name": "Check Post",
        "opening_hours": "11:00-23:00",
        "payment:mastercard": "yes",
        "payment:visa": "yes"
      }
    },
    {
      "type": "node",
      "id": 11275764774,
      "lat": 12.9158497,
      "lon": 77.6102464,
      "tags": {
        "addr:housenumber": "114",
        "addr:street": "16th Main Road",
        "amenity": "fast_food",
        "brand": "McDonald's",
        "brand:pa": "ਮੈਕਡੋਨਲਡ’ਜ਼",
        "brand:ur": "مکڈونلڈز",
        "brand:wikidata": "Q38076",
        "brand:wikipedia": "en:McDonald's",
        "brand:wikipedia:pa": "ਮੈਕਡੋਨਲਡ’ਜ਼",
        "brand:wikipedia:ur": "مکڈونلڈز",
        "cuisine": "burger",
        "delivery": "no",
        "name": "McDonald's",
        "name:kn": "ಮ್ಯಾಕ್‌ಡೊನಾಲ್ಡ್ಸ್",
        "name:pa": "ਮੈਕਡੋਨਲਡ’ਜ਼",
        "name:ur": "مکڈونلڈز",
        "opening_hours": "Mo-Su 09:00-01:00",
        "outdoor_seating": "yes",
        "phone": "+91 089283 04189",
        "smoking": "no",
        "takeaway": "yes"
      }
    },