{
  "area_name": "Minaz Nagara",
  "osm_id": 11801945156,
  "osm_type": "node",
  "place_type": "neighbourhood",
  "amenity_count": 236,
  "amenities": [
    {
      "type": "node",
      "id": 1331929309,
      "lat": 12.9089347,
      "lon": 77.5626077,
      "tags": {
        "amenity": "cafe",
        "cuisine": "ice_cream",
        "internet_access": "no",
        "name": "Polar Bear"
      }
    },
    {
      "type": "node",
      "id": 1331929318,
      "lat": 12.9083281,
      "lon": 77.5639541,
      "tags": {
        "amenity": "atm",
        "brand": "ICICI Bank",
        "brand:wikidata": "Q1653258",
        "operator": "ICICI Bank",
        "operator:wikidata": "Q1653258",
        "short_name": "ICICI"
      }
    },
    {
      "type": "node",
      "id": 1331929352,
      "lat": 12.9075699,
      "lon": 77.5640131,
      "tags": {
        "amenity": "restaurant",
        "cuisine": "regional",
        "delivery": "yes",
        "name": "Udupi Swada",
        "outdoor_seating": "yes",
        "reservation": "no",
        "takeaway": "yes"
      }
    },
    {
      "type": "node",
      "id": 1331929354,
      "lat": 12.9089138,
      "lon": 77.5625218,
      "tags": {
        "amenity": "cafe",
        "cuisine": "coffee_shop",
        "name": "NJAC"
      }
    },
    {
      "type": "node",
      "id": 1331946753,
      "lat": 12.9134732,
      "lon": 77.5590565,
      "tags": {
        "amenity": "fuel",
        "name": "Kadirenahalli Petrol Pump"
      }
    },
    {
      "type": "node",
      "id": 1331946766,
      "lat": 12.9119447,
      "lon": 77.5581363,
      "tags": {
        "amenity": "school",
        "name": "Prarthana School",
        "name:kn": "ಪ್ರಾರ್ಥನಾ ಶಾಲೆ"
      }
    },
    {
      "type": "node",
      "id": 1334443041,
      "lat": 12.9083213,
      "lon": 77.5641425,
      "tags": {
        "amenity": "atm",
        "brand": "Canara Bank",
        "brand:en": "Canara Bank",
        "brand:hi": "केनरा बैंक",
        "brand:kn": "ಕೆನರಾ ಬ್ಯಾಂಕ್",
        "brand:pa": "ਕੇਨਰਾ ਬੈਂਕ",
        "brand:pnb": "کینرا بینک",
        "brand:ur": "کینرا بینک",
        "brand:wikidata": "Q2003777",
        "name:en": "Canara Bank",
        "name:hi": "केनरा बैंक",
        "name:kn": "ಕೆನರಾ ಬ್ಯಾಂಕ್",
        "name:pa": "ਕੇਨਰਾ ਬੈਂਕ",
        "name:pnb": "کینرا بینک",
        "name:ur": "کینرا بینک",
        "operator": "Canara Bank",
        "operator:wikidata": "Q2003777"
      }
    },
    {
      "type": "node",
      "id": 1334443049,
      "lat": 12.9084259,
      "lon": 77.5639762,
      "tags": {
        "amenity": "atm",
        "brand": "HDFC Bank",
        "brand:wikidata": "Q631047",
        "operator": "HDFC Bank",
        "operator:wikidata": "Q631047",
        "short_name": "HDFC"
      }
    },
    {
      "type": "node",
      "id": 1339731713,
      "lat": 12.9085182,
      "lon": 77.5650897,
      "tags": {
        "amenity": "parking",
        "name": "Sagar Hospital Parking",
        "parking": "multi-storey"
      }
    },
    {
      "type": "node",
      "id": 1339731852,
      "lat": 12.909578,
      "lon": 77.5641601,
      "tags": {
        "amenity": "pharmacy",
        "brand": "Apollo Pharmacy",
        "brand:wikidata": "Q62562612",
        "dispensing": "yes",
        "healthcare": "pharmacy",
        "name": "Apollo Pharmacy",
        "name:kn": "ಅಪೋಲೋ ಫಾರ್ಮಸಿ"
      }
    },
    {
      "type": "node",
      "id": 1339732021,
      "lat": 12.9089389,
      "lon": 77.5664343,
      "tags": {
        "amenity": "college",
        "name": "Dayanand Sagar College of Engineering"
      }
    },
    {
      "type": "node",
      "id": 1466576385,
      "lat": 12.9206648,
      "lon": 77.5598673,
      "tags": {
        "addr:district": "Bengaluru Urban",
        "addr:full": "274 / 275, M K Puttalingaiah Road, Padmanabhanagar",
        "addr:postcode": "560073",
        "addr:state": "Karnataka",
        "amenity": "hospital",
        "emergency": "yes",
        "name": "DG Hospital",
        "operator:type": "private",
        "source": "OpenGovernmentData",
        "website": "http://dpal.kar.nic.in/Kanunu%20padakosha%20PDF%20Files/Recognised%20Hospitals.pdf"
      }
    },
    {
      "type": "node",
      "id": 1471928748,
      "lat": 12.9140237,
      "lon": 77.5587479,
      "tags": {
        "amenity": "cafe",
        "name": "Kaappi"
      }
    },
    {
      "type": "node",
      "id": 1471928751,
      "lat": 12.9196818,
      "lon": 77.559736,
      "tags": {
        "name": "Shop Rite",
        "shop": "supermarket"
      }
    },
    {
      "type": "node",
      "id": 1471928752,
      "lat": 12.9206561,
      "lon": 77.5601874,
      "tags": {
        "name": "Sri Sai Gold Palace",
        "shop": "jewelry"
      }
    },
    {
      "type": "node",
      "id": 1812668247,
      "lat": 12.9180303,
      "lon": 77.5571707,
      "tags": {
        "amenity": "fast_food",
        "cuisine": "indian",
        "name": "Ice Cafe"
      }
    },
    {
      "type": "node",
      "id": 1812668672,
      "lat": 12.917953,
      "lon": 77.5571384,
      "tags": {
        "amenity": "atm",
        "operator": "Corporation Bank"
      }
    },
    {
      "type": "node",
      "id": 1812673570,
      "lat": 12.9202791,
      "lon": 77.5598033,
      "tags": {
        "addr:district": "Bengaluru Urban",
        "addr:full": "No. 277, M.K. Puttalingaiah Road, Padmanabha Nagar",
        "addr:postcode": "560070",
        "addr:state": "Karnataka",
        "amenity": "hospital",
        "emergency": "yes",
        "name": "Yogananda Medical and Research Centre",
        "source": "OpenGovernmentData"
      }
    },
    {
      "type": "node",
      "id": 1812681877,
      "lat": 12.9183471,
      "lon": 77.5595726,
      "tags": {
        "amenity": "toilets",
        "designation": "Nirmal Toilet"
      }
    },
    {
      "type": "node",
      "id": 1814593842,
      "lat": 12.9184077,
      "lon": 77.5591112,
      "tags": {
        "amenity": "school",
        "name": "Sahakari Vidya Kendra",
        "name:kn": "ಸಹಕಾರಿ ವಿದ್ಯಾ ಕೇಂದ್ರ"
      }
    },
    {
      "type": "node",
      "id": 1816295160,
      "lat": 12.9164891,
      "lon": 77.559186,
      "tags": {
        "amenity": "place_of_worship",
        "name": "Venkateshwara Temple",
        "name:kn": "ವೆಂಕಟೇಶ್ವರ ದೇವಸ್ಥಾನ",
        "religion": "hindu"
      }
    },
    {
      "type": "node",
      "id": 2123541909,
      "lat": 12.9180956,
      "lon": 77.557202,
      "tags": {
        "amenity": "fast_food",
        "cuisine": "indian",
        "name": "SLV"
      }
    },
    {
      "type": "node",
      "id": 2123563497,
      "lat": 12.9165327,
      "lon": 77.55716,
      "tags": {
        "amenity": "place_of_worship",
        "name": "Anjaneya Temple",
        "name:kn": "ಆಂಜನೇಯ ದೇವಸ್ಥಾನ",
        "religion": "hindu"
      }
    },
    {
      "type": "node",
      "id": 2123564200,
      "lat": 12.915903,
      "lon": 77.5550223,
      "tags": {
        "addr:district": "Bengaluru Urban",
        "addr:full": "15Th Main, 17Th Cross Padmanabhanagar",
        "addr:postcode": "560070",
        "addr:state": "Karnataka",
        "amenity": "hospital",
        "emergency": "yes",
        "name": "Maharaja Agrasen Hospital, Bengaluru Urban",
        "source": "OpenGovernmentData"
      }
    },
    {
      "type": "node",
      "id": 2123565317,
      "lat": 12.9146638,
      "lon": 77.559228,
      "tags": {
        "amenity": "school",
        "name": "Prarthana School",
        "name:kn": "ಪ್ರಾರ್ಥನಾ ಶಾಲೆ"
      }
    },
    {
      "type": "node",
      "id": 2123565615,
      "lat": 12.9187365,
      "lon": 77.5575811,
      "tags": {
        "amenity": "post_office",
        "name": "Padmanabha Nagara Post Office"
      }
    },
    {
      "type": "node",
      "id": 2124813862,
      "lat": 12.9179548,
      "lon": 77.555816,
      "tags": {
        "amenity": "hospital",
        "name": "Bangalore Kidney Foundation - NU Hospital"
      }
    },
    {
      "type": "node",
      "id": 2124814946,
      "lat": 12.9183496,
      "lon": 77.5572332,
      "tags": {
        "name": "Choice Bakery",
        "shop": "bakery"
      }
    },
    {
      "type": "node",
      "id": 2124814947,
      "lat": 12.9178136,
      "lon": 77.5561808,
      "tags": {
        "shop": "convenience"
      }
    },
    {
      "type": "node",
      "id": 2124814949,
      "lat": 12.9184882,
      "lon": 77.557254,
      "tags": {
        "shop": "greengrocer"
      }
    },
    {
      "type": "node",
      "id": 2124814950,
      "lat": 12.9178868,
      "lon": 77.5561969,
      "tags": {
        "amenity": "pharmacy"
      }
    },
    {
      "type": "node",
      "id": 2466664086,
      "lat": 12.9152651,
      "lon": 77.5592492,
      "tags": {
        "amenity": "fuel",
        "brand": "Total",
        "brand:wikidata": "Q154037",
        "name": "Total Auto Gas"
      }
    },
    {
      "type": "node",
      "id": 2932847484,
      "lat": 12.916348,
      "lon": 77.5591356,
      "tags": {
        "addr:city": "Bangalore",
        "addr:postcode": "560070",
        "amenity": "place_of_worship",
        "name": "Prasanna Ganapati Temple",
        "name:kn": "ರಸನ್ನ ಗಣಪತಿ ದೇವಸ್ಥಾನ",
        "religion": "hindu"
      }
    },
    {
      "type": "node",
      "id": 2932851733,
      "lat": 12.9169288,
      "lon": 77.5592568,
      "tags": {
        "addr:city": "Bangalore",
        "addr:district": "Bengaluru Urban",
        "addr:full": "No. 30, Pavana Dhama, 80 Feet Main Road,Opposite Nilgiris,Padmanabha Nagar",
        "addr:postcode": "560070",
        "addr:state": "Karnataka",
        "amenity": "hospital",
        "healthcare": "hospital",
        "name": "Dr.Agarwal's Eye Hospital Ltd, Padmanabha Nagar",
        "operator": "Dr. Agarwal's Eye Hospital",
        "operator:wikidata": "Q17052044",
        "source": "OpenGovernmentData"
      }
    },
    {
      "type": "node",
      "id": 2984295033,
      "lat": 12.9184617,
      "lon": 77.5555842,
      "tags": {
        "addr:district": "Bengaluru Urban",
        "addr:full": "Thimmaiah Road, Padmanabhanagar, Bengaluru",
        "addr:postcode": "560070",
        "addr:state": "Karnataka",
        "amenity": "hospital",
        "name": "Shraddha Eye Care",
        "source": "Local Knowledge"
      }
    },
    {
      "type": "node",
      "id": 2985825946,
      "lat": 12.9093893,
      "lon": 77.5655125,
      "tags": {
        "name": "Avirag electronics",
        "shop": "electronics"
      }
    },
    {
      "type": "node",
      "id": 2985825947,
      "lat": 12.9094831,
      "lon": 77.5642571,
      "tags": {
        "amenity": "clinic",
        "name": "Medplus Path Labs"
      }
    },
    {
      "type": "node",
      "id": 2985825981,
      "lat": 12.9092276,
      "lon": 77.5630344,
      "tags": {
        "amenity": "bar",
        "name": "Liquor Paradise"
      }
    },
    {
      "type": "node",
      "id": 2985828831,
      "lat": 12.9094955,
      "lon": 77.5642924,
      "tags": {
        "amenity": "bank",
        "atm": "yes",
        "brand": "Axis Bank",
        "brand:wikidata": "Q2003549",
        "brand:wikipedia": "en:Axis Bank",
        "name": "Axis Bank",
        "name:en": "Axis Bank",
        "name:kn": "ಆಕ್ಸಿಸ್ ಬ್ಯಾಂಕ್",
        "website": "https://www.axisbank.com"
      }
    },
    {
      "type": "node",
      "id": 2986412019,
      "lat": 12.9117516,
      "lon": 77.5671499,
      "tags": {
        "amenity": "atm",
        "brand": "UCO Bank",
        "brand:wikidata": "Q2005310",
        "name": "UCO Bank",
        "operator": "UCO Bank",
        "operator:wikidata": "Q2005310"
      }
    },
    {
      "type": "node",
      "id": 2986412021,
      "lat": 12.9117262,
      "lon": 77.5671334,
      "tags": {
        "amenity": "atm",
        "brand": "State Bank of India",
        "brand:wikidata": "Q1340361",
        "name": "SBI ATM",
        "name:kn": "ಭಾರತೀಯ ಸ್ಟೇಟ್ ಬ್ಯಾಂಕ್",
        "operator": "State Bank of India",
        "operator:wikidata": "Q1340361",
        "short_name": "SBI"
      }
    },
    {
      "type": "node",
      "id": 2986412022,
      "lat": 12.9114857,
      "lon": 77.5670878,
      "tags": {
        "name": "New Students Corner",
        "shop": "bakery"
      }
    },
    {
      "type": "node",
      "id": 2986412023,
      "lat": 12.9112765,
      "lon": 77.5670395,
      "tags": {
        "amenity": "cafe",
        "name": "Ganesh Juice Center"
      }
    },
    {
      "type": "node",
      "id": 2986412024,
      "lat": 12.9111406,
      "lon": 77.567002,
      "tags": {
        "amenity": "fast_food",
        "brand": "Five Star Chicken",
        "cuisine": "chicken",
        "delivery": "yes",
        "name": "Five Star Chicken",
        "takeaway": "yes"
      }
    },
    {
      "type": "node",
      "id": 2986412025,
      "lat": 12.9093837,
      "lon": 77.5664401,
      "tags": {
        "amenity": "bank",
        "atm": "yes",
        "brand": "Bank of Baroda",
        "brand:wikidata": "Q2003797",
        "name": "Bank of Baroda",
        "name:kn": "ವಿಜಯ ಬ್ಯಾಂಕು"
      }
    },
    {
      "type": "node",
      "id": 2986412026,
      "lat": 12.9094255,
      "lon": 77.5655013,
      "tags": {
        "amenity": "atm",
        "brand": "State Bank of India",
        "brand:wikidata": "Q1340361",
        "name": "State Bank of India",
        "name:kn": "ಭಾರತೀಯ ಸ್ಟೇಟ್ ಬ್ಯಾಂಕ್",
        "operator": "State Bank of India",
        "operator:wikidata": "Q1340361",
        "short_name": "SBI"
      }
    },
    {
      "type": "node",
      "id": 2986412027,
      "lat": 12.9089445,
      "lon": 77.5652653,
      "tags": {
        "amenity": "atm",
        "brand": "Oriental Bank of Commerce",
        "brand:wikidata": "Q367008",
        "name": "Oriental Bank of Commerce",
        "operator": "Oriental Bank of Commerce",
        "operator:wikidata": "Q367008"
      }
    },
    {
      "type": "node",
      "id": 2986421839,
      "lat": 12.9060149,
      "lon": 77.5645008,
      "tags": {
        "amenity": "place_of_worship",
        "name": "Shri Vasavi Kaniyaka Parameshwari Temple",
        "religion": "hindu"
      }
    },
    {
      "type": "node",
      "id": 2986421840,
      "lat": 12.9058829,
      "lon": 77.5649045,
      "tags": {
        "amenity": "place_of_worship",
        "name": "Udhbhava Kumarswamy Temple",
        "name:kn": "ಉದ್ಭವ ಕುಮಾರಸ್ವಾಮಿ ದೇವಸ್ಥಾನ",
        "religion": "hindu"
      }
    },
    {
      "type": "node",
      "id": 2986480247,
      "lat": 12.9051908,
      "lon": 77.5647732,
      "tags": {
        "amenity": "place_of_worship",
        "name": "Shri Shri Shri Gangaparameshwari Temple",
        "name:kn": "ಗಂಗಾ ಪರಮೇಶ್ವರಿ ದೇವಸ್ಥಾನ",
        "religion": "hindu"
      }
    },
    {
      "type": "node",
      "id": 2986480248,
      "lat": 12.904979,
      "lon": 77.5646338,
      "tags": {
        "amenity": "place_of_worship",
        "name": "Shri Shri Chamundeshwari Temple",
        "name:kn": "ಚಾಮುಂಡೇಶ್ವರಿ ದೇವಸ್ಥಾನ",
        "religion": "hindu"
      }
    },
    {
      "type": "node",
      "id": 2986480255,
      "lat": 12.9046865,
      "lon": 77.565528,
      "tags": {
        "amenity": "atm",
        "brand": "Axis Bank",
        "brand:wikidata": "Q2003549",
        "name": "Axis Bank",
        "name:kn": "ಆಕ್ಸಿಸ್ ಬ್ಯಾಂಕ್",
        "operator": "Axis Bank",
        "operator:wikidata": "Q2003549"
      }
    },
    {
      "type": "node",
      "id": 2986480256,
      "lat": 12.9048653,
      "lon": 77.5657348,
      "tags": {
        "amenity": "restaurant",
        "cuisine": "regional",
        "name": "Shri Banashankari Darshini"
      }
    },
    {
      "type": "node",
      "id": 2986480280,
      "lat": 12.908434,
      "lon": 77.568877,
      "tags": {
        "amenity": "place_of_worship",
        "religion": "muslim"
      }
    },
    {
      "type": "node",
      "id": 3296521511,
      "lat": 12.9072675,
      "lon": 77.5600601,
      "tags": {
        "amenity": "pharmacy",
        "name": "Samrudh Pharma"
      }
    },
    {
      "type": "node",
      "id": 3296524404,
      "lat": 12.9080649,
      "lon": 77.5625213,
      "tags": {
        "amenity": "place_of_worship",
        "name": "Ganesha Temple",
        "name:kn": "ಗಣೇಶ ದೇವಸ್ಥಾನ",
        "religion": "hindu"
      }
    },
    {
      "type": "node",
      "id": 3296533209,
      "lat": 12.9078395,
      "lon": 77.5625176,
      "tags": {
        "amenity": "place_of_worship",
        "name": "Kalabairaveshwara Temple",
        "name:kn": "ಕಾಲಬೈರವೇಶ್ವರ ದೇವಸ್ಥಾನ",
        "religion": "hindu"
      }
    },
    {
      "type": "node",
      "id": 3298945667,
      "lat": 12.9072506,
      "lon": 77.5600169,
      "tags": {
        "name": "Shop & Save",
        "shop": "supermarket"
      }
    },
    {
      "type": "node",
      "id": 3603794071,
      "lat": 12.9113891,
      "lon": 77.5531687,
      "tags": {
        "amenity": "atm",
        "brand": "ICICI Bank",
        "brand:wikidata": "Q1653258",
        "name": "ICICI Bank",
        "name:kn": "ಐಸಿಐಸಿಐ ಬ್ಯಾಂಕು",
        "opening_hours": "24 Hour ATM",
        "operator": "ICICI Bank",
        "operator:wikidata": "Q1653258",
        "short_name": "ICICI"
      }
    },
    {
      "type": "node",
      "id": 3603919193,
      "lat": 12.9123254,
      "lon": 77.555545,
      "tags": {
        "access": "permissive",
        "addr:city": "Bangalore",
        "addr:postcode": "560061",
        "addr:street": "Dr. Vishnuvardhan Road",
        "leisure": "swimming_pool",
        "name": "Netkallappa Aquatic Center",
        "phone": "080 4097 6591"
      }
    },
    {
      "type": "node",
      "id": 4443301971,
      "lat": 12.9151071,
      "lon": 77.5624888,
      "tags": {
        "addr:city": "bangalore",
        "addr:housenumber": "5",
        "addr:postcode": "560050",
        "addr:street": "80 feet road,banashankari",
        "amenity": "hospital",
        "name": "NRS Medical & Dental Specialists Centre",
        "phone": "08026696054"
      }
    },
    {
      "type": "node",
      "id": 4446973326,
      "lat": 12.9170843,
      "lon": 77.5596138,
      "tags": {
        "addr:city": "Banashankari,Banglore",
        "addr:housenumber": "31/A",
        "addr:postcode": "560070",
        "addr:street": "Puttalingaiah Road",
        "amenity": "restaurant",
        "cuisine": "indian",
        "name": "Udupi Ruchis",
        "opening_hours": "07:00-22:30",
        "phone": "+91 78293 51388",
        "takeaway": "yes"
      }
    },
    {
      "type": "node",
      "id": 4446992350,
      "lat": 12.9152705,
      "lon": 77.5609497,
      "tags": {
        "addr:city": "Banashankari,Bangalore",
        "addr:housenumber": "19/1",
        "addr:postcode": "560070",
        "addr:street": "Subramaniapura Road",
        "amenity": "restaurant",
        "cuisine": "regional",
        "name": "Sri Banashankari Nati Style",
        "opening_hours": "12:00-16:00,19:00-22:30",
        "phone": "097421 74293",
        "takeaway": "yes"
      }
    },
    {
      "type": "node",
      "id": 4487961190,
      "lat": 12.9155969,
      "lon": 77.561918,
      "tags": {
        "addr:city": "bangalore",
        "addr:housenumber": ".149,",
        "addr:postcode": "560076",
        "addr:street": "Subramaniapura Road",
        "name": "Sri Lakshmi venkaterwara prasanna",
        "phone": "07259955456",
        "shop": "sports"
      }
    },
    {
      "type": "node",
      "id": 4489929890,
      "lat": 12.914482,
      "lon": 77.5643032,
      "tags": {
        "addr:city": "Bengaluru",
        "addr:housenumber": "\" #219,",
        "addr:postcode": "560070\"",
        "addr:street": "Sri Ranga Complex, Above Sweet Sagar Bakery, 5th Cross, Vivekananda Cross Road, BSK 2nd Stage, Subramanya Pura Rd, Kadarenahalli, Banashankari, , Karnataka",
        "leisure": "sports_centre",
        "name": "Muscle Mechanic",
        "opening_hours": "5:00-23:00"
      }
    },
    {
      "type": "node",
      "id": 4545898295,
      "lat": 12.9118512,
      "lon": 77.5525391,
      "tags": {
        "addr:postcode": "560061",
        "addr:street": "Dr. Vishnuvardhan Road",
        "name": "Wine World",
        "name:en": "Wine World",
        "shop": "wine"
      }
    },
    {
      "type": "node",
      "id": 4545906789,
      "lat": 12.9135341,
      "lon": 77.5588078,
      "tags": {
        "addr:street": "Dr. Vishnuvardhan Road",
        "amenity": "restaurant",
        "cuisine": "regional;local;chinese;noodles;fish_and_chips;chicken;indian",
        "diet:vegetarian": "yes",
        "name": "Vanani Bar and Restaurant",
        "name:en": "Vanani Bar and Restaurant"
      }
    },
    {
      "type": "node",
      "id": 4643990935,
      "lat": 12.9088536,
      "lon": 77.5644582,
      "tags": {
        "shop": "laundry"
      }
    },
    {
      "type": "node",
      "id": 5485805427,
      "lat": 12.912753,
      "lon": 77.5658534,
      "tags": {
        "amenity": "place_of_worship",
        "name": "Mosque",
        "name:kn": "ಮಸೀದಿ"
      }
    },
    {
      "type": "node",
      "id": 5615139106,
      "lat": 12.90901,
      "lon": 77.5530854,
      "tags": {
        "addr:city": "Bengaluru",
        "addr:postcode": "560061",
        "addr:street": "Garden School Road",
        "name": "Srinidhi Bakery",
        "payment:cash": "yes",
        "shop": "bakery"
      }
    },
    {
      "type": "node",
      "id": 5615139107,
      "lat": 12.9090169,
      "lon": 77.5530601,
      "tags": {
        "addr:city": "Bengaluru",
        "addr:postcode": "560061",
        "addr:street": "Garden School Road",
        "amenity": "fast_food",
        "cuisine": "south_indian",
        "delivery": "no",
        "drive_through": "no",
        "level": "0",
        "name": "Srinidhi Fast Food",
        "outdoor_seating": "no",
        "smoking": "no",
        "takeaway": "yes"
      }
    },
    {
      "type": "node",
      "id": 5615139108,
      "lat": 12.9090269,
      "lon": 77.5530309,
      "tags": {
        "addr:city": "Bengaluru",
        "addr:postcode": "560061",
        "addr:street": "Garden School Road",
        "level": "0",
        "name": "Swathy Farm Fresh",
        "shop": "greengrocer"
      }
    },
    {
      "type": "node",
      "id": 5615139109,
      "lat": 12.9090385,
      "lon": 77.5529858,
      "tags": {
        "addr:city": "Bengaluru",
        "addr:housenumber": "15/1",
        "addr:postcode": "560061",
        "addr:street": "Garden School Road",
        "amenity": "clinic",
        "healthcare": "clinic",
        "healthcare:speciality": "general",
        "name": "Vinayaka Clinic"
      }
    },
    {
      "type": "node",
      "id": 5626258372,
      "lat": 12.9155219,
      "lon": 77.5617083,
      "tags": {
        "addr:city": "Bengaluru",
        "addr:housenumber": "26/26",
        "addr:postcode": "560070",
        "addr:street": "Subramanyapura Main Road, Bendre Nagar",
        "amenity": "pharmacy",
        "dispensing": "yes",
        "healthcare": "pharmacy",
        "name": "Sridhar Medicals",
        "payment:cash": "yes",
        "payment:paytm": "yes"
      }
    },
    {
      "type": "node",
      "id": 6852266951,
      "lat": 12.9203305,
      "lon": 77.5601312,
      "tags": {
        "amenity": "bank",
        "atm": "yes",
        "brand": "ICICI Bank",
        "brand:wikidata": "Q1653258",
        "brand:wikipedia": "en:ICICI Bank",
        "name": "ICICI Bank",
        "name:kn": "ಐಸಿಐಸಿಐ ಬ್ಯಾಂಕು",
        "short_name": "ICICI"
      }
    },
    {
      "type": "node",
      "id": 6852266952,
      "lat": 12.9205605,
      "lon": 77.5601846,
      "tags": {
        "amenity": "bank",
        "brand": "Syndicate Bank",
        "brand:wikidata": "Q2004088",
        "brand:wikipedia": "en:Syndicate Bank",
        "name": "Syndicate Bank",
        "name:kn": "ಸಿಂಡಿಕೇಟ್ ಬ್ಯಾಂಕ್"
      }
    },
    {
      "type": "node",
      "id": 6852266953,
      "lat": 12.9158516,
      "lon": 77.5593919,
      "tags": {
        "addr:district": "Bengaluru Urban",
        "addr:full": "Padmanabhanagar, Bengaluru",
        "addr:postcode": "560070",
        "addr:state": "Karnataka",
        "amenity": "hospital",
        "healthcare": "hospital",
        "name": "Yogananda Multi Speciality Hospital",
        "name:kn": "ಯೋಗನಂದ ಆಸ್ಪತ್ರೆ",
        "source": "Local Knowledge"
      }
    },
    {
      "type": "node",
      "id": 6882713325,
      "lat": 12.9079236,
      "lon": 77.5651087,
      "tags": {
        "addr:city": "Bengaluru",
        "addr:district": "BENGALURU URBAN",
        "addr:full": "Sy. No. 53, Shavige Malleshwara Hills, Kumar Swamy Layout, Banashankari",
        "addr:postcode": "560078",
        "addr:state": "Karnataka",
        "amenity": "blood_bank",
        "contact:mobile": "9591991888",
        "contact:phone": "8042999177",
        "name": "Sagar Hospital Blood Bank, Banashankari",
        "name:kn": "ಸಾಗರ ಆಸ್ಪತ್ರೆ ರಕ್ತ ಸಂಗ್ರಹ",
        "operator:type": "private",
        "source": "OpenGovernmentData"
      }
    },
    {
      "type": "node",
      "id": 6936794825,
      "lat": 12.9179183,
      "lon": 77.5567127,
      "tags": {
        "addr:city": "Bengaluru",
        "addr:postcode": "560070",
        "addr:street": "C J Venkatesa Das Road",
        "name": "Iyengar Bakery",
        "name:kn": "ಐಯ್ಯಂಗಾರ್ ಬೇಕರಿ",
        "payment:cash": "yes",
        "shop": "bakery"
      }
    },
    {
      "type": "node",
      "id": 6938772336,
      "lat": 12.9118831,
      "lon": 77.5528805,
      "tags": {
        "addr:district": "Bengaluru Urban",
        "addr:full": "Dr.Gurappa Naidu Complex, Opposite Komarla Brigade Residency. Uttarahalli Main Road, Chikkalasandra",
        "addr:postcode": "560063",
        "addr:state": "Karnataka",
        "amenity": "hospital",
        "healthcare": "hospital",
        "name": "C.S. Hospital",
        "source": "OpenGovernmentData"
      }
    },
    {
      "type": "node",
      "id": 6938777945,
      "lat": 12.9176216,
      "lon": 77.5550705,
      "tags": {
        "addr:district": "Bengaluru Urban",
        "addr:full": "Bkf Chand , Nephro- Urology Centre, Ca - 6,15Th, Main Street, 11Th Cross, Padmanabhanagar",
        "addr:postcode": "560070",
        "addr:state": "Karnataka",
        "amenity": "hospital",
        "name": "Nu Trust",
        "source": "OpenGovernmentData"
      }
    },
    {
      "type": "node",
      "id": 6947750361,
      "lat": 12.9162753,
      "lon": 77.5589544,
      "tags": {
        "addr:district": "Bengaluru Urban",
        "addr:full": "No. 113, 4Th Cross, R. K. Layout, Padmanabhanagar",
        "addr:postcode": "560070",
        "addr:state": "Karnataka",
        "amenity": "hospital",
        "healthcare": "hospital",
        "name": "Hillside Hospital",
        "source": "OpenGovernmentData"
      }
    },
    {
      "type": "node",
      "id": 7234723849,
      "lat": 12.9134949,
      "lon": 77.5565779,
      "tags": {
        "amenity": "place_of_worship",
        "name": "Muneshwara Temple",
        "name:kn": "ಮುನೇಶ್ವರ"
      }
    },
    {
      "type": "node",
      "id": 7579924700,
      "lat": 12.9178682,
      "lon": 77.5610481,
      "tags": {
        "addr:district": "Bengaluru Urban",
        "addr:full": "Padmanabhanagar, Bengaluru",
        "addr:postcode": "560070",
        "addr:state": "Karnataka",
        "amenity": "clinic",
        "healthcare": "clinic",
        "name": "Amogh Ortho Centre",
        "source": "Local Knowledge"
      }
    },
    {
      "type": "node",
      "id": 7579924701,
      "lat": 12.9175335,
      "lon": 77.559993,
      "tags": {
        "addr:district": "Bengaluru Urban",
        "addr:full": "Bengaluru",
        "addr:postcode": "560070",
        "addr:state": "Karnataka",
        "amenity": "clinic",
        "healthcare": "clinic",
        "name": "Vismaya ENT Clinic",
        "source": "Local Knowledge"
      }
    },
    {
      "type": "node",
      "id": 7579924723,
      "lat": 12.9169158,
      "lon": 77.5607423,
      "tags": {
        "addr:district": "Bengaluru Urban",
        "addr:full": "Padmanabha Nagar, Bengaluru",
        "addr:postcode": "560070",
        "addr:state": "Karnataka",
        "amenity": "dentist",
        "healthcare": "dentist",
        "name": "Ganesh Dental Care",
        "source": "Local Knowledge"
      }
    },
    {
      "type": "node",
      "id": 7579924734,
      "lat": 12.9174804,
      "lon": 77.5608236,
      "tags": {
        "addr:district": "Bengaluru Urban",
        "addr:full": "Gururaja Layout, Padmanabha Nagar, Bengaluru",
        "addr:postcode": "560070",
        "addr:state": "Karnataka",
        "amenity": "clinic",
        "healthcare": "clinic",
        "name": "Vijaya Orthopaedic Centre",
        "source": "Local Knowledge"
      }
    },
    {
      "type": "node",
      "id": 7579924786,
      "lat": 12.9204339,
      "lon": 77.5624477,
      "tags": {
        "addr:district": "Bengaluru Urban",
        "addr:full": "Banashankari, Bengaluru",
        "addr:postcode": "560070",
        "addr:state": "Karnataka",
        "amenity": "clinic",
        "name": "The Orthopaedic Centre",
        "source": "Local Knowledge"
      }
    },
    {
      "type": "node",
      "id": 7924959032,
      "lat": 12.9139511,
      "lon": 77.5669835,
      "tags": {
        "name": "Subramanya General Stores",
        "shop": "general"
      }
    },
    {
      "type": "node",
      "id": 9611168900,
      "lat": 12.9109256,
      "lon": 77.5656056,
      "tags": {
        "amenity": "theatre",
        "name": "KV Subbanna Aptha Rangamandira"
      }
    },
    {
      "type": "node",
      "id": 9611168901,
      "lat": 12.910857,
      "lon": 77.565731,
      "tags": {
        "shop": "convenience"
      }
    },
    {
      "type": "node",
      "id": 11279634288,
      "lat": 12.9198739,
      "lon": 77.5578868,
      "tags": {
        "amenity": "shelter",
        "shelter_type": "gazebo"
      }
    },
    {
      "type": "node",
      "id": 11279791965,
      "lat": 12.9145452,
      "lon": 77.5659207,
      "tags": {
        "amenity": "place_of_worship",
        "religion": "hindu"
      }
    },
    {
      "type": "node",
      "id": 11794684866,
      "lat": 12.9048915,
      "lon": 77.5624233,
      "tags": {
        "name": "Sri Maruthi Glass and Plywood",
        "shop": "hardware"
      }
    },
    {
      "type": "node",
      "id": 11794800066,
      "lat": 12.9070711,
      "lon": 77.5638206,
      "tags": {
        "amenity": "pharmacy",
        "name": "Sumukha Medicals"
      }
    },
    {
      "type": "node",
      "id": 11794855750,
      "lat": 12.9072066,
      "lon": 77.5639201,
      "tags": {
        "amenity": "bank",
        "branch": "Kumaraswamy Layout",
        "brand": "Axis Bank",
        "brand:wikidata": "Q2003549",
        "name": "Axis Bank"
      }
    },
    {
      "type": "node",
      "id": 11794856453,
      "lat": 12.9073172,
      "lon": 77.5639625,
      "tags": {
        "amenity": "restaurant",
        "name": "Thalassery Restaurant"
      }
    },
    {
      "type": "node",
      "id": 11794874459,
      "lat": 12.9068996,
      "lon": 77.5637704,
      "tags": {
        "amenity": "bank",
        "branch": "Kumaraswamy Layout",
        "brand": "State Bank of India",
        "brand:wikidata": "Q1340361",
        "name": "State Bank of India",
        "short_name": "SBI"
      }
    },
    {
      "type": "node",
      "id": 11794875010,
      "lat": 12.9080228,
      "lon": 77.5639733,
      "tags": {
        "amenity": "cafe",
        "name": "Namm Kannada"
      }
    },
    {
      "type": "node",
      "id": 11794886156,
      "lat": 12.908264,
      "lon": 77.5641568,
      "tags": {
        "name": "Kaggis Bakery",
        "shop": "bakery"
      }
    },
    {
      "type": "node",
      "id": 11794889411,
      "lat": 12.9067062,
      "lon": 77.5634005,
      "tags": {
        "amenity": "pharmacy",
        "name": "Heathline Pharma and General Store"
      }
    },
    {
      "type": "node",
      "id": 11794892554,
      "lat": 12.9059948,
      "lon": 77.5631587,
      "tags": {
        "name": "tumbledry",
        "shop": "laundry"
      }
    },
    {
      "type": "node",
      "id": 11794895170,
      "lat": 12.9078461,
      "lon": 77.5639082,
      "tags": {
        "amenity": "milk",
        "brand": "Nandini",
        "name": "Nandini",
        "shop": "dairy"
      }
    },
    {
      "type": "node",
      "id": 11794899194,
      "lat": 12.9064193,
      "lon": 77.5633803,
      "tags": {
        "name": "Sahyadri Coffee and spices",
        "shop": "spices"
      }
    },
    {
      "type": "node",
      "id": 11794900171,
      "lat": 12.9055332,
      "lon": 77.5627886,
      "tags": {
        "amenity": "pharmacy",
        "name": "Dharani Pharma"
      }
    },
    {
      "type": "node",
      "id": 11799150110,
      "lat": 12.9032287,
      "lon": 77.5628972,
      "tags": {
        "amenity": "shelter",
        "shelter_type": "gazebo"
      }
    },
    {
      "type": "node",
      "id": 11799150118,
      "lat": 12.9034744,
      "lon": 77.5626424,
      "tags": {
        "amenity": "fast_food",
        "brand": "Indira Canteen",
        "brand:wikidata": "Q36164828",
        "cuisine": "south_indian",
        "name": "Indira Canteen",
        "operator": "BBMP",
        "takeaway": "yes"
      }
    },
    {
      "type": "node",
      "id": 11799150293,
      "lat": 12.9037784,
      "lon": 77.5620382,
      "tags": {
        "amenity": "bench",
        "backrest": "yes",
        "material": "stone",
        "seats": "2"
      }
    },
    {
      "type": "node",
      "id": 11799150294,
      "lat": 12.9037013,
      "lon": 77.5620047,
      "tags": {
        "amenity": "bench",
        "backrest": "yes",
        "material": "stone",
        "seats": "2"
      }
    },
    {
      "type": "node",
      "id": 11801601924,
      "lat": 12.9074435,
      "lon": 77.5640097,
      "tags": {
        "shop": "alcohol"
      }
    },
    {
      "type": "node",
      "id": 11801880285,
      "lat": 12.9058079,
      "lon": 77.5582074,
      "tags": {
        "amenity": "fast_food",
        "brand": "Indira Canteen",
        "brand:wikidata": "Q36164828",
        "cuisine": "south_indian",
        "name": "Indira Canteen",
        "operator": "BBMP",
        "takeaway": "yes"
      }
    },
    {
      "type": "node",
      "id": 11801880290,
      "lat": 12.9059954,
      "lon": 77.5584233,
      "tags": {
        "amenity": "fast_food",
        "cuisine": "regional",
        "name": "Sri Krishna Aramane"
      }
    },
    {
      "type": "node",
      "id": 11801895903,
      "lat": 12.904198,
      "lon": 77.5621046,
      "tags": {
        "name": "Chowdeshwari Scooter Works",
        "rental": "no",
        "repair": "yes",
        "sale": "no",
        "shop": "motorcycle"
      }
    },
    {
      "type": "node",
      "id": 11801895904,
      "lat": 12.9045059,
      "lon": 77.5613181,
      "tags": {
        "amenity": "dentist",
        "name": "United Dental"
      }
    },
    {
      "type": "node",
      "id": 11801895908,
      "lat": 12.9050274,
      "lon": 77.5601506,
      "tags": {
        "name": "Ladies Tailor",
        "shop": "tailor"
      }
    },
    {
      "type": "node",
      "id": 11801895910,
      "lat": 12.9051059,
      "lon": 77.5600192,
      "tags": {
        "amenity": "clinic",
        "name": "Maruthi Clinic"
      }
    },
    {
      "type": "node",
      "id": 11801895911,
      "lat": 12.9054582,
      "lon": 77.5597765,
      "tags": {
        "amenity": "school",
        "name": "Samskruthi Public School"
      }
    },
    {
      "type": "node",
      "id": 11801896079,
      "lat": 12.9060922,
      "lon": 77.5605758,
      "tags": {
        "name": "Sri Nagamalai Service Center",
        "shop": "car_repair"
      }
    },
    {
      "type": "node",
      "id": 11801896085,
      "lat": 12.9071177,
      "lon": 77.5597872,
      "tags": {
        "amenity": "bank",
        "atm": "yes",
        "brand": "Canara Bank",
        "brand:en": "Canara Bank",
        "brand:hi": "केनरा बैंक",
        "brand:kn": "ಕೆನರಾ ಬ್ಯಾಂಕ್",
        "brand:pa": "ਕੇਨਰਾ ਬੈਂਕ",
        "brand:pnb": "کینرا بینک",
        "brand:ur": "کینرا بینک",
        "brand:wikidata": "Q2003777",
        "name": "Canara Bank",
        "name:en": "Canara Bank",
        "name:hi": "केनरा बैंक",
        "name:kn": "ಕೆನರಾ ಬ್ಯಾಂಕ್",
        "name:pa": "ਕੇਨਰਾ ਬੈਂਕ",
        "name:pnb": "کینرا بینک",
        "name:ur": "کینرا بینک"
      }
    },
    {
      "type": "node",
      "id": 11801896086,
      "lat": 12.9071693,
      "lon": 77.559871,
      "tags": {
        "amenity": "bank",
        "atm": "yes",
        "brand": "ICICI Bank",
        "brand:wikidata": "Q1653258",
        "name": "ICICI Bank",
        "short_name": "ICICI"
      }
    },
    {
      "type": "node",
      "id": 11801896105,
      "lat": 12.9069968,
      "lon": 77.5627933,
      "tags": {
        "amenity": "astrologer"
      }
    },
    {
      "type": "node",
      "id": 11801896106,
      "lat": 12.9061994,
      "lon": 77.5630843,
      "tags": {
        "amenity": "clinic",
        "name": "Balaji ENT Clinic"
      }
    },
    {
      "type": "node",
      "id": 11801896490,
      "lat": 12.906636,
      "lon": 77.5596672,
      "tags": {
        "shop": "greengrocer"
      }
    },
    {
      "type": "node",
      "id": 11801896491,
      "lat": 12.9066765,
      "lon": 77.5595874,
      "tags": {
        "shop": "greengrocer"
      }
    },
    {
      "type": "node",
      "id": 11801896492,
      "lat": 12.9067981,
      "lon": 77.5594506,
      "tags": {
        "shop": "greengrocer"
      }
    },
    {
      "type": "node",
      "id": 11801896493,
      "lat": 12.906785,
      "lon": 77.5597188,
      "tags": {
        "amenity": "fast_food",
        "name": "Sabji Corner"
      }
    },
    {
      "type": "node",
      "id": 11801896494,
      "lat": 12.9071804,
      "lon": 77.5601902,
      "tags": {
        "name": "Bliss Bakery",
        "shop": "bakery"
      }
    },
    {
      "type": "node",
      "id": 11801896495,
      "lat": 12.9039411,
      "lon": 77.5619792,
      "tags": {
        "name": "Exide",
        "shop": "hardware"
      }
    },
    {
      "type": "node",
      "id": 11801896496,
      "lat": 12.9039856,
      "lon": 77.5619993,
      "tags": {
        "name": "Amaron",
        "shop": "hardware"
      }
    },
    {
      "type": "node",
      "id": 11801896497,
      "lat": 12.9040228,
      "lon": 77.5620161,
      "tags": {
        "name": "Luminous",
        "shop": "hardware"
      }
    },
    {
      "type": "node",
      "id": 11801896498,
      "lat": 12.9044006,
      "lon": 77.5619464,
      "tags": {
        "name": "Kumar Fancy Store",
        "shop": "stationery"
      }
    },
    {
      "type": "node",
      "id": 11801896499,
      "lat": 12.9045091,
      "lon": 77.5617103,
      "tags": {
        "amenity": "fast_food",
        "name": "Davangere Mirchi"
      }
    },
    {
      "type": "node",
      "id": 11801896500,
      "lat": 12.9046215,
      "lon": 77.5610746,
      "tags": {
        "brand": "Nandini",
        "name": "Nandini",
        "shop": "dairy"
      }
    },
    {
      "type": "node",
      "id": 11801896501,
      "lat": 12.9048346,
      "lon": 77.5605503,
      "tags": {
        "amenity": "ice_cream",
        "name": "Modern Ice Cream"
      }
    },
    {
      "type": "node",
      "id": 11801896502,
      "lat": 12.9052621,
      "lon": 77.559983,
      "tags": {
        "name": "My Fresh",
        "shop": "greengrocer"
      }
    },
    {
      "type": "node",
      "id": 11801896503,
      "lat": 12.9052987,
      "lon": 77.5599052,
      "tags": {
        "shop": "dairy"
      }
    },
    {
      "type": "node",
      "id": 11801896504,
      "lat": 12.9054739,
      "lon": 77.5595592,
      "tags": {
        "name": "Sri Chakravarthi Jewllers",
        "shop": "jewelry"
      }
    },
    {
      "type": "node",
      "id": 11801896505,
      "lat": 12.9056347,
      "lon": 77.5600688,
      "tags": {
        "brand": "Nandini",
        "brand:wikidata": "Q124374212",
        "name": "Nandini",
        "name:kn": "ನಂದಿನಿ",
        "shop": "dairy"
      }
    },
    {
      "type": "node",
      "id": 11801896506,
      "lat": 12.9063732,
      "lon": 77.5600795,
      "tags": {
        "name": "Prakash Ladies Tailor",
        "shop": "tailor"
      }
    },
    {
      "type": "node",
      "id": 11801896507,
      "lat": 12.90657,
      "lon": 77.5596122,
      "tags": {
        "name": "Pooja Jewellery",
        "shop": "jewelry"
      }
    },
    {
      "type": "node",
      "id": 11801896508,
      "lat": 12.9065915,
      "lon": 77.5594915,
      "tags": {
        "name": "Jockey",
        "shop": "clothes"
      }
    },
    {
      "type": "node",
      "id": 11801896510,
      "lat": 12.9069811,
      "lon": 77.5599857,
      "tags": {
        "amenity": "pharmacy",
        "name": "Lakshmi General Store"
      }
    },
    {
      "type": "node",
      "id": 11801896511,
      "lat": 12.9071935,
      "lon": 77.5602324,
      "tags": {
        "name": "Veer Soningra Fancy Store",
        "shop": "clothes"
      }
    },
    {
      "type": "node",
      "id": 11801896512,
      "lat": 12.9071831,
      "lon": 77.5602975,
      "tags": {
        "name": "Naveen Tailors",
        "shop": "tailor"
      }
    },
    {
      "type": "node",
      "id": 11801896513,
      "lat": 12.9072778,
      "lon": 77.560553,
      "tags": {
        "name": "Apsara Designers",
        "shop": "boutique"
      }
    },
    {
      "type": "node",
      "id": 11801896514,
      "lat": 12.9073157,
      "lon": 77.5610733,
      "tags": {
        "name": "Vcer Electronics & Home Appliances",
        "shop": "kitchen"
      }
    },
    {
      "type": "node",
      "id": 11801896516,
      "lat": 12.9070713,
      "lon": 77.561304,
      "tags": {
        "name": "Nandini Photo Frames",
        "shop": "frame"
      }
    },
    {
      "type": "node",
      "id": 11801896517,
      "lat": 12.9070046,
      "lon": 77.5618404,
      "tags": {
        "name": "AM Bike Point",
        "parts": "yes",
        "rental": "no",
        "repair": "yes",
        "sale": "no",
        "shop": "motorcycle"
      }
    },
    {
      "type": "node",
      "id": 11801896518,
      "lat": 12.9069615,
      "lon": 77.5620697,
      "tags": {
        "amenity": "fast_food",
        "cuisine": "regional",
        "name": "Idly 24"
      }
    },
    {
      "type": "node",
      "id": 11801896519,
      "lat": 12.9069288,
      "lon": 77.5623339,
      "tags": {
        "name": "Vivo",
        "shop": "mobile_phone"
      }
    },
    {
      "type": "node",
      "id": 11801896520,
      "lat": 12.9069,
      "lon": 77.562633,
      "tags": {
        "brand": "Nandini",
        "name": "Nandini",
        "shop": "dairy"
      }
    },
    {
      "type": "node",
      "id": 11801896521,
      "lat": 12.9069955,
      "lon": 77.5627497,
      "tags": {
        "amenity": "fast_food",
        "name": "Stop N Joy"
      }
    },
    {
      "type": "node",
      "id": 11801896522,
      "lat": 12.9069589,
      "lon": 77.5631614,
      "tags": {
        "shop": "computer"
      }
    },
    {
      "type": "node",
      "id": 11801896523,
      "lat": 12.9067497,
      "lon": 77.5633478,
      "tags": {
        "amenity": "fast_food",
        "name": "Eat N Drink"
      }
    },
    {
      "type": "node",
      "id": 11801896524,
      "lat": 12.9067255,
      "lon": 77.5634068,
      "tags": {
        "amenity": "fast_food",
        "name": "Donne Biryani Corner"
      }
    },
    {
      "type": "node",
      "id": 11801896525,
      "lat": 12.9064621,
      "lon": 77.5634377,
      "tags": {
        "name": "Bharath Furnitures",
        "shop": "furniture"
      }
    },
    {
      "type": "node",
      "id": 11801896526,
      "lat": 12.9063719,
      "lon": 77.563376,
      "tags": {
        "name": "Chowdeshwari Rice Traders",
        "shop": "convenience"
      }
    },
    {
      "type": "node",
      "id": 11801896527,
      "lat": 12.9062713,
      "lon": 77.5631178,
      "tags": {
        "name": "Sri Vinayaka Dry Cleaners",
        "shop": "dry_cleaning"
      }
    },
    {
      "type": "node",
      "id": 11801896544,
      "lat": 12.9061183,
      "lon": 77.5630534,
      "tags": {
        "name": "JK Furniture",
        "shop": "furniture"
      }
    },
    {
      "type": "node",
      "id": 11801896545,
      "lat": 12.9055203,
      "lon": 77.562747,
      "tags": {
        "name": "Iyengar Sweets and Bakery",
        "shop": "bakery"
      }
    },
    {
      "type": "node",
      "id": 11801896546,
      "lat": 12.9060177,
      "lon": 77.5630052,
      "tags": {
        "amenity": "fast_food",
        "cuisine": "regional",
        "name": "Jagli Thindi"
      }
    },
    {
      "type": "node",
      "id": 11801896547,
      "lat": 12.9056549,
      "lon": 77.5628214,
      "tags": {
        "name": "Century Ply",
        "shop": "furniture"
      }
    },
    {
      "type": "node",
      "id": 11801896548,
      "lat": 12.9056288,
      "lon": 77.5630286,
      "tags": {
        "brand": "Asian Paints",
        "brand:wikidata": "Q28171825",
        "name": "Asian Paints",
        "shop": "paint"
      }
    },
    {
      "type": "node",
      "id": 11801896549,
      "lat": 12.905519,
      "lon": 77.5629569,
      "tags": {
        "name": "Nandus",
        "shop": "butcher"
      }
    },
    {
      "type": "node",
      "id": 11801896550,
      "lat": 12.9050954,
      "lon": 77.5625485,
      "tags": {
        "shop": "electronics"
      }
    },
    {
      "type": "node",
      "id": 11801896551,
      "lat": 12.9048549,
      "lon": 77.5623997,
      "tags": {
        "amenity": "pharmacy",
        "name": "Mitra Medical Centre"
      }
    },
    {
      "type": "node",
      "id": 11801896552,
      "lat": 12.9047876,
      "lon": 77.5623541,
      "tags": {
        "name": "Titan",
        "shop": "watches"
      }
    },
    {
      "type": "node",
      "id": 11801896553,
      "lat": 12.9052359,
      "lon": 77.5626122,
      "tags": {
        "amenity": "fast_food",
        "cuisine": "regional",
        "name": "SLV Refreshment"
      }
    },
    {
      "type": "node",
      "id": 11801896560,
      "lat": 12.9045947,
      "lon": 77.5623125,
      "tags": {
        "shop": "optician"
      }
    },
    {
      "type": "node",
      "id": 12538086462,
      "lat": 12.9165713,
      "lon": 77.5615738,
      "tags": {
        "amenity": "atm",
        "brand": "State Bank of India",
        "brand:wikidata": "Q1340361",
        "operator": "State Bank of India",
        "operator:wikidata": "Q1340361",
        "short_name": "SBI"
      }
    },
    {
      "type": "way",
      "id": 133142991,
      "center": {
        "lat": 12.9125019,
        "lon": 77.5574602
      },
      "tags": {
        "amenity": "college",
        "name": "Sri Kumarans College",
        "name:kn": "ಕುಮಾರನ್ ಕಾಲೇಜು"
      }
    },
    {
      "type": "way",
      "id": 188433204,
      "center": {
        "lat": 12.9116078,
        "lon": 77.563912
      },
      "tags": {
        "leisure": "park"
      }
    },
    {
      "type": "way",
      "id": 244031567,
      "center": {
        "lat": 12.9209039,
        "lon": 77.5591701
      },
      "tags": {
        "amenity": "college",
        "name": "Regional Institute of Co-operative Management"
      }
    },
    {
      "type": "way",
      "id": 294995608,
      "center": {
        "lat": 12.9069084,
        "lon": 77.5650004
      },
      "tags": {
        "leisure": "playground"
      }
    },
    {
      "type": "way",
      "id": 294999800,
      "center": {
        "lat": 12.9052391,
        "lon": 77.5651936
      },
      "tags": {
        "leisure": "playground"
      }
    },
    {
      "type": "way",
      "id": 322859361,
      "center": {
        "lat": 12.9088622,
        "lon": 77.5610719
      },
      "tags": {
        "leisure": "park",
        "name": "Raj Katte Park",
        "note": "No children play area"
      }
    },
    {
      "type": "way",
      "id": 334651226,
      "center": {
        "lat": 12.9179562,
        "lon": 77.5553876
      },
      "tags": {
        "landuse": "commercial",
        "name": "Padmanabhanagara BSNL Office",
        "name:kn": "ಪದ್ಮನಾಭನಗರ ಬಿಎಸ್ಎನ್ಎಲ್ ಕಛೇರಿ",
        "shop": "telecommunication"
      }
    },
    {
      "type": "way",
      "id": 347223443,
      "center": {
        "lat": 12.9057557,
        "lon": 77.5644229
      },
      "tags": {
        "amenity": "place_of_worship",
        "building": "yes",
        "religion": "hindu"
      }
    },
    {
      "type": "way",
      "id": 347223859,
      "center": {
        "lat": 12.9053018,
        "lon": 77.5644609
      },
      "tags": {
        "amenity": "place_of_worship",
        "building": "yes"
      }
    },
    {
      "type": "way",
      "id": 347224329,
      "center": {
        "lat": 12.9056095,
        "lon": 77.5649245
      },
      "tags": {
        "amenity": "place_of_worship",
        "building": "yes"
      }
    },
    {
      "type": "way",
      "id": 347226659,
      "center": {
        "lat": 12.9056308,
        "lon": 77.5644535
      },
      "tags": {
        "amenity": "place_of_worship",
        "building": "yes",
        "religion": "hindu"
      }
    },
    {
      "type": "way",
      "id": 347591637,
      "center": {
        "lat": 12.9055094,
        "lon": 77.5651399
      },
      "tags": {
        "amenity": "place_of_worship",
        "building": "yes"
      }
    },
    {
      "type": "way",
      "id": 347591659,
      "center": {
        "lat": 12.9060743,
        "lon": 77.5644977
      },
      "tags": {
        "amenity": "place_of_worship",
        "building": "yes",
        "religion": "hindu"
      }
    },
    {
      "type": "way",
      "id": 348101723,
      "center": {
        "lat": 12.9152778,
        "lon": 77.5588134
      },
      "tags": {
        "addr:city": "Bangalore",
        "addr:postcode": "560070",
        "addr:street": "Puttalingaiah Road",
        "amenity": "fuel",
        "fuel:diesel": "yes",
        "fuel:petrol": "yes",
        "name": "Bharath Petrol Bunk",
        "name:kn": "ಭಾರತ್ ಪೆಟ್ರೋಲಿಯಂ",
        "opening_hours": "07:00-21:00"
      }
    },
    {
      "type": "way",
      "id": 349716799,
      "center": {
        "lat": 12.9065758,
        "lon": 77.5572543
      },
      "tags": {
        "amenity": "place_of_worship",
        "building": "yes",
        "name": "Raja Rajeshwari Temple",
        "name:kn": "ರಾಜ ರಾಜೇಶ್ವರಿ ದೇವಸ್ಥಾನ",
        "religion": "hindu"
      }
    },
    {
      "type": "way",
      "id": 442048027,
      "center": {
        "lat": 12.9077922,
        "lon": 77.5667401
      },
      "tags": {
        "amenity": "college",
        "name": "Dayanand Sagar Institutions",
        "name:kn": "ದಯಾನಂದ ಸಾಗರ್ ಕಾಲೇಜು"
      }
    },
    {
      "type": "way",
      "id": 442048031,
      "center": {
        "lat": 12.9078674,
        "lon": 77.5651623
      },
      "tags": {
        "amenity": "hospital",
        "building": "hospital",
        "name": "Sagar Hospital",
        "name:kn": "ಸಾಗರ ಆಸ್ಪತ್ರೆ",
        "opening_hours": "Mo-Su 00:00-23:00"
      }
    },
    {
      "type": "way",
      "id": 469349055,
      "center": {
        "lat": 12.9042459,
        "lon": 77.5625
      },
      "tags": {
        "alt_name": "Kumaraswamy Park",
        "alt_name:kn": "ಕುಮಾರಸ್ವಾಮಿ ಉದ್ಯಾನವನ",
        "leisure": "park",
        "name": "Atal Bihari Vajpayee Park",
        "name:etymology:wikidata": "Q233289",
        "name:kn": "ಅಟಲ್ ಬಿಹಾರಿ ವಾಜಪೇಯಿ ಉದ್ಯಾನವನ"
      }
    },
    {
      "type": "way",
      "id": 469349058,
      "center": {
        "lat": 12.9048447,
        "lon": 77.5621046
      },
      "tags": {
        "leisure": "park",
        "name": "Ambabhavi park",
        "name:kn": "ಅಂಬಾಬಾವಿ ಉದ್ಯಾನವನ"
      }
    },
    {
      "type": "way",
      "id": 469353409,
      "center": {
        "lat": 12.9061459,
        "lon": 77.5577684
      },
      "tags": {
        "amenity": "school"
      }
    },
    {
      "type": "way",
      "id": 469354011,
      "center": {
        "lat": 12.9064926,
        "lon": 77.5572909
      },
      "tags": {
        "amenity": "place_of_worship",
        "building": "yes",
        "name": "Sri Rajarajeshwari Temple",
        "name:kn": "ಶ್ರೀ ರಾಜರಾಜೇಶ್ವರಿ ದೇವಸ್ಥಾನ",
        "religion": "hindu"
      }
    },
    {
      "type": "way",
      "id": 479981469,
      "center": {
        "lat": 12.9192913,
        "lon": 77.5592937
      },
      "tags": {
        "amenity": "school",
        "name": "Carmel School",
        "name:kn": "ಕಾರ್ಮೆಲ್ ಶಾಲೆ"
      }
    },
    {
      "type": "way",
      "id": 556950053,
      "center": {
        "lat": 12.9180877,
        "lon": 77.5576506
      },
      "tags": {
        "description": "A public park with Gazebo to rest and have the natural freshness. Also called as Senior Citizen Park.",
        "leisure": "park",
        "name": "Padmanabhanagar Park",
        "name:kn": "ಪದ್ಮನಭನಗರ ಉದ್ಯಾನವನ"
      }
    },
    {
      "type": "way",
      "id": 579494263,
      "center": {
        "lat": 12.9149354,
        "lon": 77.5570101
      },
      "tags": {
        "leisure": "park",
        "name": "RK Layout park"
      }
    },
    {
      "type": "way",
      "id": 579495211,
      "center": {
        "lat": 12.9186872,
        "lon": 77.5592203
      },
      "tags": {
        "leisure": "park",
        "name": "Carmel School",
        "name:kn": "ಕಾರ್ಮೆಲ್ ಶಾಲೆ"
      }
    },
    {
      "type": "way",
      "id": 588708615,
      "center": {
        "lat": 12.9066599,
        "lon": 77.5547625
      },
      "tags": {
        "leisure": "park",
        "opening_hours": "Mo-Su 05:00-09:00, 16:00-20:00"
      }
    },
    {
      "type": "way",
      "id": 731648896,
      "center": {
        "lat": 12.9183704,
        "lon": 77.559938
      },
      "tags": {
        "addr:city": "Bengaluru",
        "addr:postcode": "560070",
        "addr:street": "Puttalingaiah Road",
        "amenity": "place_of_worship",
        "building": "yes",
        "name": "Sai Baba Temple",
        "name:kn": "ಸಾಯಿಬಾಬಾ ದೇವಸ್ಥಾನ",
        "religion": "hindu"
      }
    },
    {
      "type": "way",
      "id": 731648897,
      "center": {
        "lat": 12.9181044,
        "lon": 77.557742
      },
      "tags": {
        "addr:city": "Bengaluru",
        "addr:postcode": "560070",
        "addr:street": "Padmanabhanagar park",
        "amenity": "place_of_worship",
        "building": "yes",
        "name": "Sri Lakshmi Kanth Swamy Devstan Sankiran",
        "name:kn": "ಶ್ರೀ ಲಕ್ಷ್ಮಿ ಕಾಂತ್ ಸ್ವಾಮಿ ದೇವ್ಸ್ತಾನ್ ಸಂಕಿರಣ್",
        "religion": "hindu"
      }
    },
    {
      "type": "way",
      "id": 1033609968,
      "center": {
        "lat": 12.9125755,
        "lon": 77.5549599
      },
      "tags": {
        "access": "private",
        "leisure": "playground",
        "playground:theme": "playground",
        "surface": "dirt"
      }
    },
    {
      "type": "way",
      "id": 1033609969,
      "center": {
        "lat": 12.9125456,
        "lon": 77.5556204
      },
      "tags": {
        "access": "private",
        "leisure": "swimming_pool",
        "location": "outdoor",
        "swimming_pool": "outdoor"
      }
    },
    {
      "type": "way",
      "id": 1033609970,
      "center": {
        "lat": 12.9123905,
        "lon": 77.5558965
      },
      "tags": {
        "access": "private",
        "leisure": "swimming_pool",
        "location": "outdoor",
        "swimming_pool": "outdoor"
      }
    },
    {
      "type": "way",
      "id": 1044521107,
      "center": {
        "lat": 12.9141478,
        "lon": 77.5689536
      },
      "tags": {
        "amenity": "college",
        "name": "National Power Training Institute",
        "office": "educational_institution"
      }
    },
    {
      "type": "way",
      "id": 1148268346,
      "center": {
        "lat": 12.9050939,
        "lon": 77.5629547
      },
      "tags": {
        "amenity": "police",
        "name": "Kumaraswamy Layout Police Station",
        "name:kn": "ಕುಮಾರಸ್ವಾಮಿ ಲೇಔಟ್ ಪೋಲಿಸ್ ಸ್ಟೇಶನ್"
      }
    },
    {
      "type": "way",
      "id": 1148268347,
      "center": {
        "lat": 12.9069498,
        "lon": 77.5645767
      },
      "tags": {
        "landuse": "recreation_ground",
        "leisure": "pitch",
        "name": "Kumaraswamy Layout Grounds"
      }
    },
    {
      "type": "way",
      "id": 1208265155,
      "center": {
        "lat": 12.9057145,
        "lon": 77.566493
      },
      "tags": {
        "leisure": "park"
      }
    },
    {
      "type": "way",
      "id": 1208265156,
      "center": {
        "lat": 12.9032764,
        "lon": 77.5628899
      },
      "tags": {
        "leisure": "park"
      }
    },
    {
      "type": "way",
      "id": 1208265157,
      "center": {
        "lat": 12.9037019,
        "lon": 77.5641337
      },
      "tags": {
        "leisure": "park"
      }
    },
    {
      "type": "way",
      "id": 1208265158,
      "center": {
        "lat": 12.9026489,
        "lon": 77.5628262
      },
      "tags": {
        "leisure": "park"
      }
    },
    {
      "type": "way",
      "id": 1217350530,
      "center": {
        "lat": 12.9211634,
        "lon": 77.5636127
      },
      "tags": {
        "amenity": "place_of_worship",
        "landuse": "religious",
        "religion": "hindu"
      }
    },
    {
      "type": "way",
      "id": 1217350537,
      "center": {
        "lat": 12.9209241,
        "lon": 77.5615494
      },
      "tags": {
        "leisure": "park"
      }
    },
    {
      "type": "way",
      "id": 1217372151,
      "center": {
        "lat": 12.9176655,
        "lon": 77.5647513
      },
      "tags": {
        "amenity": "place_of_worship",
        "religion": "hindu"
      }
    },
    {
      "type": "way",
      "id": 1263805847,
      "center": {
        "lat": 12.9037719,
        "lon": 77.5617198
      },
      "tags": {
        "amenity": "fuel",
        "brand": "Indian Oil",
        "brand:wikidata": "Q1289348",
        "brand:wikipedia": "en:Indian Oil Corporation",
        "name": "Chinnaswamy Petrol",
        "operator": "Indian Oil"
      }
    },
    {
      "type": "way",
      "id": 1270407977,
      "center": {
        "lat": 12.9076814,
        "lon": 77.5640964
      },
      "tags": {
        "access": "customers",
        "amenity": "parking",
        "parking": "surface"
      }
    },
    {
      "type": "way",
      "id": 1270560978,
      "center": {
        "lat": 12.9081086,
        "lon": 77.5661575
      },
      "tags": {
        "amenity": "theatre",
        "name": "Amphitheatre",
        "theatre:type": "amphi"
      }
    },
    {
      "type": "way",
      "id": 1270560979,
      "center": {
        "lat": 12.9089752,
        "lon": 77.5678526
      },
      "tags": {
        "access": "permissive",
        "amenity": "parking",
        "parking": "surface"
      }
    },
    {
      "type": "way",
      "id": 1270560980,
      "center": {
        "lat": 12.9091881,
        "lon": 77.5659819
      },
      "tags": {
        "access": "permissive",
        "amenity": "parking",
        "parking": "surface"
      }
    },
    {
      "type": "way",
      "id": 1270560984,
      "center": {
        "lat": 12.9069,
        "lon": 77.5670812
      },
      "tags": {
        "leisure": "pitch",
        "sport": "tennis"
      }
    },
    {
      "type": "way",
      "id": 1270568416,
      "center": {
        "lat": 12.9034088,
        "lon": 77.5629804
      },
      "tags": {
        "leisure": "playground"
      }
    },
    {
      "type": "way",
      "id": 1270568433,
      "center": {
        "lat": 12.9078618,
        "lon": 77.5637562
      },
      "tags": {
        "leisure": "park"
      }
    },
    {
      "type": "way",
      "id": 1270568436,
      "center": {
        "lat": 12.9063696,
        "lon": 77.5604393
      },
      "tags": {
        "leisure": "park"
      }
    },
    {
      "type": "way",
      "id": 1270568440,
      "center": {
        "lat": 12.9051954,
        "lon": 77.5604128
      },
      "tags": {
        "addr:city": "Bengaluru",
        "addr:postcode": "560078",
        "addr:street": "1st Stage, Kumaraswamy Layout",
        "amenity": "place_of_worship",
        "landuse": "religious",
        "name": "Amba Bhavani Temple",
        "name:kn": "ಶ್ರೀ ಹನುಮಂತ",
        "religion": "hindu"
      }
    },
    {
      "type": "way",
      "id": 1270568444,
      "center": {
        "lat": 12.9042667,
        "lon": 77.5615543
      },
      "tags": {
        "amenity": "school",
        "name": "Blossom School"
      }
    },
    {
      "type": "way",
      "id": 1270568446,
      "center": {
        "lat": 12.9045091,
        "lon": 77.56268
      },
      "tags": {
        "leisure": "fitness_station"
      }
    },
    {
      "type": "way",
      "id": 1270568447,
      "center": {
        "lat": 12.904727,
        "lon": 77.5627743
      },
      "tags": {
        "leisure": "playground"
      }
    },
    {
      "type": "way",
      "id": 1270568459,
      "center": {
        "lat": 12.9033589,
        "lon": 77.5619554
      },
      "tags": {
        "alt_name": "Temple of Books",
        "amenity": "library",
        "landuse": "commercial",
        "name": "City Central Library",
        "name:kn": "ಕೇಂದ್ರಿಯ ಗ್ರಂಥಾಲಯ"
      }
    },
    {
      "type": "way",
      "id": 1270568466,
      "center": {
        "lat": 12.9029352,
        "lon": 77.5617157
      },
      "tags": {
        "amenity": "bus_station",
        "name": "Kumaraswamy Layout",
        "name:kn": "ಕುಮಾರಸ್ವಾಮಿ ಬಡಾವಣೆ"
      }
    },
    {
      "type": "way",
      "id": 1270797118,
      "center": {
        "lat": 12.9073394,
        "lon": 77.5647302
      },
      "tags": {
        "leisure": "sports_centre",
        "name": "Atmadarshan Yogashram",
        "name:kn": "ಆತ್ಮದರ್ಶನ ಯೋಗಾಶ್ರಮ",
        "sport": "yoga"
      }
    },
    {
      "type": "way",
      "id": 1270817507,
      "center": {
        "lat": 12.9031532,
        "lon": 77.5603082
      },
      "tags": {
        "amenity": "hospital",
        "healthcare": "hospital",
        "name": "Vasavi Hospital",
        "name:kn": "ವಾಸವಿ ಆಸ್ಪತ್ರೆ"
      }
    },
    {
      "type": "way",
      "id": 1270817515,
      "center": {
        "lat": 12.9041408,
        "lon": 77.5618783
      },
      "tags": {
        "amenity": "place_of_worship",
        "landuse": "religious",
        "name": "Sri Muneshwara Swamy Temple",
        "religion": "hindu"
      }
    },
    {
      "type": "way",
      "id": 1271076833,
      "center": {
        "lat": 12.9091226,
        "lon": 77.5706097
      },
      "tags": {
        "leisure": "park"
      }
    },
    {
      "type": "way",
      "id": 1271076834,
      "center": {
        "lat": 12.9089357,
        "lon": 77.5703496
      },
      "tags": {
        "leisure": "playground"
      }
    },
    {
      "type": "way",
      "id": 1271077557,
      "center": {
        "lat": 12.9080667,
        "lon": 77.5658416
      },
      "tags": {
        "leisure": "garden"
      }
    },
    {
      "type": "way",
      "id": 1271213565,
      "center": {
        "lat": 12.9056735,
        "lon": 77.5633871
      },
      "tags": {
        "amenity": "clinic",
        "name": "Kumaraswamy Layout UPHC",
        "operator": "BBMP"
      }
    },
    {
      "type": "way",
      "id": 1337111980,
      "center": {
        "lat": 12.9134204,
        "lon": 77.553895
      },
      "tags": {
        "amenity": "school",
        "name": "Deccan International School"
      }
    },
    {
      "type": "way",
      "id": 1352846823,
      "center": {
        "lat": 12.9208102,
        "lon": 77.5581159
      },
      "tags": {
        "addr:city": "Bengaluru",
        "addr:district": "Bengaluru Urban",
        "addr:postcode": "560070",
        "addr:street": "13th Main Road",
        "leisure": "park",
        "name": "Gururaghavendra Layout Park",
        "opening_hours": "Mo-Sa 05:00-20:00",
        "operator": "ಬೃಹತ್ ಬೆಂಗಳೂರು ಮಹಾನಗರ ಪಾಲಿಕೆ",
        "operator:en": "Bruhat Bengaluru Mahanagara Palike",
        "operator:ka": "ಬೃಹತ್ ಬೆಂಗಳೂರು ಮಹಾನಗರ ಪಾಲಿಕೆ",
        "operator:short": "BBMP",
        "operator:type": "government",
        "operator:wikidata": "Q4978693"
      }
    },
    {
      "type": "way",
      "id": 1419219665,
      "center": {
        "lat": 12.9136594,
        "lon": 77.5670643
      },
      "tags": {
        "amenity": "fast_food",
        "brand": "Indira Canteen",
        "brand:wikidata": "Q36164828",
        "building": "yes",
        "cuisine": "south_indian",
        "name": "Indira Canteen",
        "operator": "BBMP",
        "takeaway": "yes"
      }
    }
  ]
}