{
  "area_name": "Sadgunte Palya",
  "osm_id": 3415500221,
  "osm_type": "node",
  "place_type": "neighbourhood",
  "amenity_count": 547,
  "amenities": [
    {
      "type": "node",
      "id": 306588111,
      "lat": 12.935703,
      "lon": 77.6156133,
      "tags": {
        "amenity": "place_of_worship",
        "name": "Masjid-e-Mamoor",
        "name:kn": "ಮಸ್ಜಿದ್ ಎ ಮಮೂರ್",
        "religion": "muslim"
      }
    },
    {
      "type": "node",
      "id": 308779330,
      "lat": 12.9353555,
      "lon": 77.6148616,
      "tags": {
        "addr:street": "80 Feet Road",
        "amenity": "bank",
        "atm": "yes",
        "brand": "ICICI Bank",
        "brand:wikidata": "Q1653258",
        "name": "ICICI Bank",
        "name:en": "ICICI Bank",
        "short_name": "ICICI",
        "website": "https://www.icicibank.com"
      }
    },
    {
      "type": "node",
      "id": 308779347,
      "lat": 12.9356671,
      "lon": 77.6144578,
      "tags": {
        "addr:street": "80 Feet Road",
        "amenity": "fuel",
        "brand": "Bharat Petroleum",
        "brand:wikidata": "Q854826",
        "name": "Bharat Petroleum",
        "name:kn": "ಭಾರತ್ ಪೆಟ್ರೋಲಿಯಂ"
      }
    },
    {
      "type": "node",
      "id": 363167057,
      "lat": 12.9344837,
      "lon": 77.6130843,
      "tags": {
        "amenity": "pub",
        "contact:instagram": "senditbob",
        "delivery": "yes",
        "name": "Bob's Bar",
        "takeaway": "yes",
        "toilets": "yes"
      }
    },
    {
      "type": "node",
      "id": 537535762,
      "lat": 12.932679,
      "lon": 77.6135844,
      "tags": {
        "addr:street": "Hosur Road",
        "amenity": "restaurant",
        "cuisine": "indian",
        "name": "Hyderabad House",
        "name:kn": "ಹೈದರಾಬಾದ್ ಹೌಸ್",
        "speciality": "biriyani"
      }
    },
    {
      "type": "node",
      "id": 537535805,
      "lat": 12.9351086,
      "lon": 77.611565,
      "tags": {
        "addr:city": "Bangalore",
        "addr:housename": "Forum Mall",
        "addr:street": "Hosur Road",
        "amenity": "fast_food",
        "brand": "McDonald's",
        "brand:pa": "ਮੈਕਡੋਨਲਡ’ਜ਼",
        "brand:ur": "مکڈونلڈز",
        "brand:wikidata": "Q38076",
        "brand:wikipedia": "en:McDonald's",
        "brand:wikipedia:pa": "ਮੈਕਡੋਨਲਡ’ਜ਼",
        "brand:wikipedia:ur": "مکڈونلڈز",
        "cuisine": "burger",
        "name": "McDonald's",
        "name:kn": "ಮ್ಯಾಕ್‌ಡೊನಾಲ್ಡ್ಸ್",
        "name:pa": "ਮੈਕਡੋਨਲਡ’ਜ਼",
        "name:ur": "مکڈونلڈز",
        "takeaway": "yes",
        "wheelchair": "yes"
      }
    },
    {
      "type": "node",
      "id": 537535920,
      "lat": 12.9343669,
      "lon": 77.6107742,
      "tags": {
        "addr:city": "Bangalore",
        "addr:housename": "Forum Mall",
        "addr:postcode": "560095",
        "addr:street": "Hosur Road",
        "alt_name": "Kentucky Fried Chicken",
        "alt_name:en": "Kentucky Fried Chicken",
        "alt_name:hi": "केंटुकी फ्राइड चिकन",
        "alt_name:pa": "ਕੈਂਟੁਕੀ ਫ੍ਰਾਈਡ ਚਿਕਨ",
        "alt_name:pnb": "کینٹکی فرائیڈ چکن",
        "alt_name:ur": "کینٹکی فرائیڈ چکن",
        "amenity": "fast_food",
        "brand": "KFC",
        "brand:en": "KFC",
        "brand:hi": "केएफसी",
        "brand:pa": "ਕੇਐਫਸੀ",
        "brand:pnb": "کے ایف سی",
        "brand:ur": "کے ایف سی",
        "brand:wikidata": "Q524757",
        "brand:wikipedia": "en:KFC",
        "brand:wikipedia:pa": "ਕੇਐਫਸੀ",
        "brand:wikipedia:ur": "کینٹکی فرائیڈ چکن",
        "cuisine": "chicken",
        "name": "KFC",
        "name:en": "KFC",
        "name:hi": "केएफसी",
        "name:kn": "ಕೆಎಫ್‌ಸಿ",
        "name:pa": "ਕੇਐਫਸੀ",
        "name:pnb": "کے ایف سی",
        "name:ur": "کے ایف سی",
        "takeaway": "yes",
        "toilets:wheelchair": "yes",
        "wheelchair": "yes"
      }
    },
    {
      "type": "node",
      "id": 668990999,
      "lat": 12.9356995,
      "lon": 77.6145787,
      "tags": {
        "addr:street": "80 Feet Road",
        "amenity": "cafe",
        "brand": "Cafe Coffee Day",
        "brand:wikidata": "Q5017235",
        "cuisine": "coffee_shop",
        "name": "Cafe Coffee Day",
        "name:kn": "ಕಫೆ ಕಾಫಿ ಡೇ",
        "takeaway": "yes"
      }
    },
    {
      "type": "node",
      "id": 878034972,
      "lat": 12.9356089,
      "lon": 77.6151797,
      "tags": {
        "amenity": "bank",
        "atm": "yes",
        "brand": "HDFC Bank",
        "brand:wikidata": "Q631047",
        "brand:wikipedia": "en:HDFC Bank",
        "name": "HDFC Bank",
        "name:kn": "ಎಚ್ ಡಿ ಎಫ್ ಸಿ",
        "operator": "HDFC",
        "short_name": "HDFC",
        "website": "https://www.hdfcbank.com"
      }
    },
    {
      "type": "node",
      "id": 1070361755,
      "lat": 12.934729,
      "lon": 77.6125976,
      "tags": {
        "addr:street": "80 Feet Road",
        "amenity": "restaurant",
        "cuisine": "chinese",
        "name": "Hungry Panda",
        "name:kn": "ಹಂಗ್ರಿ ಪಾಂಡ"
      }
    },
    {
      "type": "node",
      "id": 1307443100,
      "lat": 12.9343647,
      "lon": 77.6110938,
      "tags": {
        "addr:city": "Bangalore",
        "addr:housename": "Forum Mall",
        "addr:street": "Hosur Road",
        "amenity": "food_court",
        "name": "Transit"
      }
    },
    {
      "type": "node",
      "id": 1307443105,
      "lat": 12.9344118,
      "lon": 77.6109865,
      "tags": {
        "addr:city": "Bangalore",
        "addr:housename": "Forum Mall",
        "addr:street": "Hosur Road",
        "amenity": "cafe",
        "brand": "Cafe Coffee Day",
        "brand:wikidata": "Q5017235",
        "cuisine": "coffee_shop",
        "internet_access": "wlan",
        "name": "Cafe Coffee Day",
        "name:kn": "ಕಫೆ ಕಾಫಿ ಡೇ",
        "takeaway": "yes"
      }
    },
    {
      "type": "node",
      "id": 1346450614,
      "lat": 12.9354349,
      "lon": 77.6058672,
      "tags": {
        "amenity": "library",
        "name": "Christ University Library"
      }
    },
    {
      "type": "node",
      "id": 1375978217,
      "lat": 12.9359939,
      "lon": 77.6151031,
      "tags": {
        "amenity": "cafe",
        "brand": "Sweet Chariot",
        "delivery": "yes",
        "name": "Sweet Chariot",
        "shop": "pastry",
        "takeaway": "yes"
      }
    },
    {
      "type": "node",
      "id": 1375978240,
      "lat": 12.9334642,
      "lon": 77.6151016,
      "tags": {
        "amenity": "cafe",
        "name": "Latte Tude"
      }
    },
    {
      "type": "node",
      "id": 1375978244,
      "lat": 12.9365445,
      "lon": 77.6142714,
      "tags": {
        "amenity": "restaurant",
        "name": "Lucky da dhaba",
        "name:kn": "ಲಕ್ಕಿ ದ ಡಾಬ"
      }
    },
    {
      "type": "node",
      "id": 1375978247,
      "lat": 12.9360494,
      "lon": 77.6149821,
      "tags": {
        "amenity": "pharmacy",
        "healthcare": "pharmacy",
        "name": "Shakti Medical"
      }
    },
    {
      "type": "node",
      "id": 1375978253,
      "lat": 12.9345967,
      "lon": 77.6162526,
      "tags": {
        "amenity": "restaurant",
        "name": "Meghna Biryani",
        "name:kn": "ಮೇಘನ ಬಿರಿಯಾನಿ"
      }
    },
    {
      "type": "node",
      "id": 1375978258,
      "lat": 12.9336119,
      "lon": 77.6152238,
      "tags": {
        "amenity": "restaurant",
        "check_date": "2024-01-20",
        "cuisine": "chinese",
        "name": "Zheng",
        "name:kn": "ಜೆಂಗ್"
      }
    },
    {
      "type": "node",
      "id": 1375978263,
      "lat": 12.9345246,
      "lon": 77.6162996,
      "tags": {
        "amenity": "cafe",
        "brand": "Costa",
        "brand:wikidata": "Q608845",
        "cuisine": "coffee_shop",
        "name": "Costa",
        "takeaway": "yes"
      }
    },
    {
      "type": "node",
      "id": 1375978264,
      "lat": 12.9365369,
      "lon": 77.614409,
      "tags": {
        "amenity": "restaurant",
        "name": "Aalishan",
        "name:kn": "ಆಲಿಶಾನ್"
      }
    },
    {
      "type": "node",
      "id": 1375978265,
      "lat": 12.936364,
      "lon": 77.6147769,
      "tags": {
        "alt_name": "Jukebox",
        "amenity": "pub",
        "cuisine": "burger;steak_house",
        "name": "The Juke Box"
      }
    },
    {
      "type": "node",
      "id": 1375978268,
      "lat": 12.9351354,
      "lon": 77.6134273,
      "tags": {
        "amenity": "pharmacy",
        "healthcare": "pharmacy",
        "name": "Health And Glow"
      }
    },
    {
      "type": "node",
      "id": 1375978269,
      "lat": 12.9339266,
      "lon": 77.6161393,
      "tags": {
        "addr:city": "Bangalore",
        "addr:district": "Bengaluru Urban",
        "addr:full": "No.51, Jyothi Nivas Colleges, 5Th Block, Kormangala",
        "addr:housenumber": "143",
        "addr:postcode": "560095",
        "addr:state": "Karnataka",
        "addr:street": "1st Cross, 5th Block, Koramangala, Near Nagarjuna Hotel",
        "amenity": "clinic",
        "healthcare": "clinic",
        "name": "The Apollo Clinic, Bengaluru Urban",
        "name:kn": "ಅಪೊಲೊ ಕ್ಲಿನಿಕ್",
        "phone": "+91860 500 2244",
        "source": "OpenGovernmentData",
        "website": "https://www.apollospectra.com/"
      }
    },
    {
      "type": "node",
      "id": 1375978270,
      "lat": 12.9366058,
      "lon": 77.614973,
      "tags": {
        "amenity": "pub",
        "name": "Sixtyfour"
      }
    },
    {
      "type": "node",
      "id": 1375978272,
      "lat": 12.9359336,
      "lon": 77.6146718,
      "tags": {
        "amenity": "restaurant",
        "name": "Daawat",
        "name:kn": "ದಾವತ್"
      }
    },
    {
      "type": "node",
      "id": 1375978274,
      "lat": 12.9362549,
      "lon": 77.6145138,
      "tags": {
        "amenity": "restaurant",
        "name": "Atithya",
        "name:kn": "ಅತಿತ್ಯ"
      }
    },
    {
      "type": "node",
      "id": 1375978275,
      "lat": 12.9334928,
      "lon": 77.6157175,
      "tags": {
        "service": "spair",
        "shop": "car"
      }
    },
    {
      "type": "node",
      "id": 1375978276,
      "lat": 12.9363466,
      "lon": 77.6146761,
      "tags": {
        "amenity": "pharmacy",
        "brand": "Apollo Pharmacy",
        "brand:wikidata": "Q62562612",
        "dispensing": "no",
        "healthcare": "pharmacy",
        "name": "Apollo Pharmacy",
        "name:kn": "ಅಪೋಲೋ ಫಾರ್ಮಸಿ"
      }
    },
    {
      "type": "node",
      "id": 1375978278,
      "lat": 12.9358653,
      "lon": 77.6149483,
      "tags": {
        "amenity": "restaurant",
        "name": "Udupi Upahaara",
        "name:kn": "ಉಡುಪಿ ಉಪಹಾರ"
      }
    },
    {
      "type": "node",
      "id": 1375978279,
      "lat": 12.9354363,
      "lon": 77.6147873,
      "tags": {
        "amenity": "cafe",
        "name": "Friends"
      }
    },
    {
      "type": "node",
      "id": 1375978280,
      "lat": 12.9332689,
      "lon": 77.6147839,
      "tags": {
        "amenity": "pub",
        "name": "Purple Haze"
      }
    },
    {
      "type": "node",
      "id": 1375978281,
      "lat": 12.9333951,
      "lon": 77.6155122,
      "tags": {
        "amenity": "cafe",
        "check_date": "2024-01-20",
        "name": "Cuppa"
      }
    },
    {
      "type": "node",
      "id": 1375978282,
      "lat": 12.9363343,
      "lon": 77.6151183,
      "tags": {
        "amenity": "restaurant",
        "name": "Coorg",
        "name:kn": "ಕೂರ್ಗ್"
      }
    },
    {
      "type": "node",
      "id": 1375978284,
      "lat": 12.9358031,
      "lon": 77.6147343,
      "tags": {
        "addr:city": "Bangalore",
        "addr:postcode": "560065",
        "addr:street": "80 Feet Road, Koramangala, Bangalore",
        "alt_name": "A2B",
        "amenity": "restaurant",
        "brand": "Adyar Ananda Bhavan",
        "brand:wikidata": "Q15178238",
        "cuisine": "regional",
        "diet:vegetarian": "only",
        "name": "Adyar Ananda Bhavan",
        "name:kn": "ಆದ್ಯಾರ್ ಆನಂದ ಭವನ",
        "operator": "Adyar Ananda Bhavan",
        "phone": "+91 77950 73031",
        "shop": "confectionery",
        "smoking": "no",
        "website": "https://aabsweets.com"
      }
    },
    {
      "type": "node",
      "id": 1375978285,
      "lat": 12.9361583,
      "lon": 77.6146013,
      "tags": {
        "name": "Mobile Store",
        "shop": "mobile_phone"
      }
    },
    {
      "type": "node",
      "id": 1375978286,
      "lat": 12.9363805,
      "lon": 77.6151025,
      "tags": {
        "amenity": "restaurant",
        "cuisine": "Naga",
        "name": "Zingron",
        "name:kn": "ಜಿಂಗ್ರೊನ್"
      }
    },
    {
      "type": "node",
      "id": 1375978289,
      "lat": 12.9341001,
      "lon": 77.6164042,
      "tags": {
        "amenity": "restaurant",
        "name": "Lazeez Express",
        "name:kn": "ಲಜೀಜ್ ಎಕ್ಸ್‌ಪ್ರೆಸ್"
      }
    },
    {
      "type": "node",
      "id": 1375978290,
      "lat": 12.936529,
      "lon": 77.6146211,
      "tags": {
        "amenity": "restaurant",
        "name": "Ammi's Biryani",
        "name:kn": "ಅಮ್ಮಿ ಬಿರಿಯಾನಿ"
      }
    },
    {
      "type": "node",
      "id": 1444233099,
      "lat": 12.934708,
      "lon": 77.6126855,
      "tags": {
        "amenity": "atm",
        "brand": "State Bank of India",
        "brand:wikidata": "Q1340361",
        "check_date": "2021-09-24",
        "fee": "None/Standard",
        "level": "0",
        "name": "State Bank of India",
        "name:kn": "ಭಾರತೀಯ ಸ್ಟೇಟ್ ಬ್ಯಾಂಕ್",
        "operator": "State Bank of India",
        "operator:wikidata": "Q1340361",
        "short_name": "SBI"
      }
    },
    {
      "type": "node",
      "id": 1455123608,
      "lat": 12.9356059,
      "lon": 77.6143393,
      "tags": {
        "amenity": "atm",
        "brand": "Axis Bank",
        "brand:wikidata": "Q2003549",
        "fee": "None/Standard",
        "name": "Axis Bank",
        "name:kn": "ಆಕ್ಸಿಸ್ ಬ್ಯಾಂಕ್",
        "operator": "Axis Bank",
        "operator:wikidata": "Q2003549"
      }
    },
    {
      "type": "node",
      "id": 1455123611,
      "lat": 12.9354419,
      "lon": 77.6141569,
      "tags": {
        "name": "Sree Mittai",
        "shop": "bakery"
      }
    },
    {
      "type": "node",
      "id": 1459472858,
      "lat": 12.9346877,
      "lon": 77.6116748,
      "tags": {
        "addr:city": "Bangalore",
        "addr:housename": "Forum Mall",
        "addr:street": "Hosur Road",
        "amenity": "cinema",
        "brand": "PVR Cinemas",
        "brand:short": "PVR",
        "brand:wikidata": "Q3359908",
        "name": "PVR",
        "operator": "PVR Cinemas",
        "screen": "12",
        "short_name": "PVR"
      }
    },
    {
      "type": "node",
      "id": 1459719058,
      "lat": 12.934745,
      "lon": 77.611659,
      "tags": {
        "addr:city": "Bangalore",
        "addr:housename": "Forum Mall",
        "addr:street": "Hosur Road",
        "brand": "Westside",
        "brand:wikidata": "Q123376384",
        "name": "Westside",
        "shop": "clothes"
      }
    },
    {
      "type": "node",
      "id": 1459720916,
      "lat": 12.934792,
      "lon": 77.6113,
      "tags": {
        "addr:city": "Bangalore",
        "addr:housename": "Forum Mall",
        "addr:housenumber": "21, Shop No.5",
        "addr:postcode": "560095",
        "addr:street": "Hosur Road",
        "brand": "Reebok",
        "brand:wikidata": "Q466183",
        "name": "Reebok",
        "name:kn": "ರೀಬಾಕ್",
        "shop": "clothes"
      }
    },
    {
      "type": "node",
      "id": 1459721959,
      "lat": 12.934525,
      "lon": 77.610909,
      "tags": {
        "addr:city": "Bangalore",
        "addr:housename": "Forum Mall",
        "addr:street": "Hosur Road",
        "amenity": "restaurant",
        "brand": "Pizza Hut",
        "brand:wikidata": "Q191615",
        "cuisine": "pizza",
        "level": "1",
        "name": "Pizza Hut",
        "name:kn": "ಪಿಟ್ಸ ಹಟ್"
      }
    },
    {
      "type": "node",
      "id": 1459722798,
      "lat": 12.934546,
      "lon": 77.61107,
      "tags": {
        "addr:city": "Bangalore",
        "addr:housename": "Forum Mall",
        "addr:street": "Hosur Road",
        "brand": "Metro",
        "brand:wikidata": "Q16938284",
        "name": "Metro",
        "shop": "shoes",
        "wheelchair": "yes"
      }
    },
    {
      "type": "node",
      "id": 1459725062,
      "lat": 12.935016,
      "lon": 77.611357,
      "tags": {
        "addr:city": "Bangalore",
        "addr:housename": "Forum Mall",
        "addr:street": "Hosur Road",
        "amenity": "restaurant",
        "level": "2",
        "name": "Sahib Singh Sultan",
        "name:kn": "ಸಾಹಿಬ್ ಸಿಂಗ್ ಸುಲ್ತಾನ್"
      }
    },
    {
      "type": "node",
      "id": 1459965429,
      "lat": 12.934504,
      "lon": 77.613547,
      "tags": {
        "addr:housename": "Raheja Arcade",
        "addr:street": "80ft Road",
        "amenity": "restaurant",
        "diet:vegetarian": "only",
        "name": "Gramin",
        "name:kn": "ಗ್ರಾಮೀಣ್ ಶಾರದ"
      }
    },
    {
      "type": "node",
      "id": 1459966148,
      "lat": 12.934323,
      "lon": 77.613299,
      "tags": {
        "amenity": "restaurant",
        "name": "Om",
        "name:kn": "ಓಂ"
      }
    },
    {
      "type": "node",
      "id": 1462973987,
      "lat": 12.9378468,
      "lon": 77.6107028,
      "tags": {
        "name": "Tata Docomo Show Room",
        "shop": "mobile_phone"
      }
    },
    {
      "type": "node",
      "id": 1462976045,
      "lat": 12.9337269,
      "lon": 77.6112285,
      "tags": {
        "addr:postcode": "560095",
        "addr:street": "Near Forum Mall, Koramangala, Bangalore",
        "shop": "florist"
      }
    },
    {
      "type": "node",
      "id": 1462977137,
      "lat": 12.9341298,
      "lon": 77.6109889,
      "tags": {
        "addr:city": "Bangalore",
        "addr:housename": "Forum Mall",
        "addr:postcode": "560095",
        "addr:street": "Hosur Road",
        "brand": "More",
        "brand:wikidata": "Q6910891",
        "name": "More",
        "shop": "supermarket",
        "toilets:wheelchair": "yes",
        "wheelchair": "yes"
      }
    },
    {
      "type": "node",
      "id": 1462977852,
      "lat": 12.9348719,
      "lon": 77.6114029,
      "tags": {
        "addr:city": "Bangalore",
        "addr:housename": "Forum Mall",
        "addr:postcode": "560095",
        "addr:street": "Hosur Road",
        "brand": "Archies",
        "brand:wikidata": "Q4786843",
        "name": "Archies",
        "shop": "gift",
        "website": "https://archiecomics.com/"
      }
    },
    {
      "type": "node",
      "id": 1462978306,
      "lat": 12.9342498,
      "lon": 77.6099223,
      "tags": {
        "addr:postcode": "560095",
        "addr:street": "Near Forum Mall, Koramangala",
        "name": "Forum Cars",
        "shop": "car"
      }
    },
    {
      "type": "node",
      "id": 1462984888,
      "lat": 12.9333844,
      "lon": 77.6132413,
      "tags": {
        "addr:postcode": "560095",
        "addr:street": "Hosur Road, Koramangala, Bangalore",
        "amenity": "bank",
        "atm": "yes",
        "brand": "Standard Chartered",
        "brand:wikidata": "Q548278",
        "name": "Standard Chartered",
        "name:kn": "ಸ್ಟಾಂಡರ್ಡ್ ಚಾರ್ಟರ್ಡ್"
      }
    },
    {
      "type": "node",
      "id": 1462991954,
      "lat": 12.9355699,
      "lon": 77.6142407,
      "tags": {
        "addr:postcode": "560095",
        "addr:street": "80 Feet Road, Koramangala, Bangalore",
        "amenity": "bank",
        "atm": "yes",
        "brand": "Axis Bank",
        "brand:wikidata": "Q2003549",
        "brand:wikipedia": "en:Axis Bank",
        "name": "Axis Bank",
        "name:en": "Axis Bank",
        "name:kn": "ಅಕ್ಸಿಸ್ ಬ್ಯಾಂಕ್",
        "website": "https://www.axisbank.com"
      }
    },
    {
      "type": "node",
      "id": 1462994517,
      "lat": 12.9365162,
      "lon": 77.6135755,
      "tags": {
        "addr:postcode": "560095",
        "addr:street": "Near BOSCH Back Gate, Koramangala, Bangalore",
        "name": "Sachin's Autoshop",
        "shop": "car_repair"
      }
    },
    {
      "type": "node",
      "id": 1463612973,
      "lat": 12.9351451,
      "lon": 77.611553,
      "tags": {
        "addr:city": "Bangalore",
        "addr:housename": "Forum Mall",
        "addr:postcode": "560095",
        "addr:street": "Hosur Road",
        "name": "Ali-n-Arts Florist",
        "shop": "florist"
      }
    },
    {
      "type": "node",
      "id": 1463863510,
      "lat": 12.9353385,
      "lon": 77.6138382,
      "tags": {
        "addr:postcode": "560095",
        "addr:street": "KORAMANGALA BRANCH, BANGALORE",
        "amenity": "bank",
        "atm": "yes",
        "brand": "State Bank of India",
        "brand:wikidata": "Q1340361",
        "brand:wikipedia": "en:State Bank of India",
        "name": "State Bank of India",
        "name:kn": "ಭಾರತೀಯ ಸ್ಟೇಟ್ ಬ್ಯಾಂಕ್",
        "short_name": "SBI"
      }
    },
    {
      "type": "node",
      "id": 1465515463,
      "lat": 12.9345734,
      "lon": 77.6115121,
      "tags": {
        "addr:city": "Bangalore",
        "addr:housename": "Forum Mall",
        "addr:postcode": "560095",
        "addr:street": "Hosur Road",
        "name": "Landmark",
        "shop": "hifi",
        "website": "http://www.landmarkonthenet.com/"
      }
    },
    {
      "type": "node",
      "id": 1465570259,
      "lat": 12.9362282,
      "lon": 77.61472,
      "tags": {
        "addr:street": "Koramangala, Bangalore",
        "name": "Computer Mall",
        "shop": "computer"
      }
    },
    {
      "type": "node",
      "id": 1465577230,
      "lat": 12.9365387,
      "lon": 77.6144945,
      "tags": {
        "name": "Banchaaram Sweets",
        "shop": "confectionery"
      }
    },
    {
      "type": "node",
      "id": 1465610689,
      "lat": 12.9354469,
      "lon": 77.6154094,
      "tags": {
        "amenity": "fast_food",
        "brand": "McDonald's",
        "brand:pa": "ਮੈਕਡੋਨਲਡ’ਜ਼",
        "brand:ur": "مکڈونلڈز",
        "brand:wikidata": "Q38076",
        "brand:wikipedia": "en:McDonald's",
        "brand:wikipedia:pa": "ਮੈਕਡੋਨਲਡ’ਜ਼",
        "brand:wikipedia:ur": "مکڈونلڈز",
        "cuisine": "burger",
        "name": "McDonald's",
        "name:pa": "ਮੈਕਡੋਨਲਡ’ਜ਼",
        "name:ur": "مکڈونلڈز",
        "takeaway": "yes"
      }
    },
    {
      "type": "node",
      "id": 1465628983,
      "lat": 12.9365314,
      "lon": 77.6137437,
      "tags": {
        "amenity": "post_box",
        "operator": "India Post",
        "operator:wikidata": "Q3519720"
      }
    },
    {
      "type": "node",
      "id": 1466684135,
      "lat": 12.9309662,
      "lon": 77.6004616,
      "tags": {
        "amenity": "fuel",
        "brand": "Auto LPG",
        "fuel:cng": "yes",
        "fuel:lpg": "yes",
        "name": "Classic Auto Gas"
      }
    },
    {
      "type": "node",
      "id": 1466688325,
      "lat": 12.9301626,
      "lon": 77.6011209,
      "tags": {
        "addr:city": "Bangalore",
        "addr:housename": "Spar Hyper Market",
        "addr:housenumber": "39/3",
        "addr:postcode": "560029",
        "addr:street": "Bannerghatta Road",
        "branch": "Hypermarket",
        "brand": "Spar",
        "brand:wikidata": "Q610492",
        "name": "Spar",
        "phone": "(91)-80-41811600",
        "shop": "supermarket"
      }
    },
    {
      "type": "node",
      "id": 1466731605,
      "lat": 12.9351927,
      "lon": 77.6136464,
      "tags": {
        "addr:housename": "F M Silks",
        "addr:housenumber": "115",
        "addr:postcode": "560095",
        "addr:street": "80 feet road",
        "designation": "Garment retailers - sarees, salwars",
        "name": "F M Silks",
        "shop": "clothes"
      }
    },
    {
      "type": "node",
      "id": 1466742214,
      "lat": 12.9336342,
      "lon": 77.6176324,
      "tags": {
        "amenity": "place_of_worship",
        "denomination": "vaishnavism",
        "name": "Krishna Temple",
        "name:kn": "ಕೃಷ್ಣ ದೇವಸ್ಥಾನ",
        "religion": "hindu"
      }
    },
    {
      "type": "node",
      "id": 1466921785,
      "lat": 12.9335033,
      "lon": 77.606469,
      "tags": {
        "addr:city": "Bangalore",
        "addr:postcode": "560029",
        "amenity": "library",
        "name": "Christ University Library"
      }
    },
    {
      "type": "node",
      "id": 1466932410,
      "lat": 12.93091,
      "lon": 77.608255,
      "tags": {
        "amenity": "place_of_worship",
        "name": "Anjaneya Temple",
        "name:kn": "ಆಂಜನೇಯ ದೇವಸ್ಥಾನ",
        "religion": "hindu"
      }
    },
    {
      "type": "node",
      "id": 1466932413,
      "lat": 12.9309532,
      "lon": 77.6084387,
      "tags": {
        "amenity": "place_of_worship",
        "name": "Srirama Temple",
        "name:kn": "ಶ್ರೀರಾಮ ದೇವಸ್ಥಾನ",
        "religion": "hindu"
      }
    },
    {
      "type": "node",
      "id": 1467937185,
      "lat": 12.934104,
      "lon": 77.6164798,
      "tags": {
        "addr:housename": "Adaa",
        "addr:postcode": "560095",
        "addr:street": "5th Block Koramangala",
        "amenity": "restaurant",
        "cuisine": "indian",
        "designation": "Punjabi",
        "name": "Adaa Restaurant",
        "name:kn": "ಅದಾ ರೆಸ್ಟೋರೆಂಟ್"
      }
    },
    {
      "type": "node",
      "id": 1467937186,
      "lat": 12.9364646,
      "lon": 77.614012,
      "tags": {
        "addr:city": "Bengaluru",
        "addr:postcode": "560095",
        "addr:street": "Someshwara Temple Road, 7th Block, Koramangala",
        "amenity": "place_of_worship",
        "denomination": "hindu",
        "designation": "Temple",
        "name": "Shri Someshwara Temple",
        "name:kn": "ಸೋಮೇಶ್ವರ ದೇವಸ್ಥಾನ",
        "religion": "hindu",
        "wikidata": "Q16934416",
        "wikipedia": "en:Old Madiwala Someshwara Temple, Bangalore"
      }
    },
    {
      "type": "node",
      "id": 1468014994,
      "lat": 12.93567,
      "lon": 77.6152337,
      "tags": {
        "amenity": "atm",
        "fee": "HDFC ATM",
        "operator": "HDFC Bank ATM"
      }
    },
    {
      "type": "node",
      "id": 1468014995,
      "lat": 12.9364151,
      "lon": 77.6144033,
      "tags": {
        "name": "Safal Supermarket",
        "shop": "supermarket"
      }
    },
    {
      "type": "node",
      "id": 1468014996,
      "lat": 12.9363015,
      "lon": 77.6151475,
      "tags": {
        "amenity": "restaurant",
        "cuisine": "indian",
        "name": "Sathyas Biriyani",
        "name:kn": "ಸತ್ಯಸ್ ಬಿರಿಯಾನಿ"
      }
    },
    {
      "type": "node",
      "id": 1468014999,
      "lat": 12.935901,
      "lon": 77.614926,
      "tags": {
        "addr:housenumber": "1st floor",
        "amenity": "pub",
        "name": "Madan Pub",
        "opening_hours": "Fr-Su 00:00-24:00"
      }
    },
    {
      "type": "node",
      "id": 1468015000,
      "lat": 12.9365288,
      "lon": 77.6150063,
      "tags": {
        "name": "Glamorous Unisex salon",
        "shop": "hairdresser"
      }
    },
    {
      "type": "node",
      "id": 1468015001,
      "lat": 12.9360411,
      "lon": 77.6148636,
      "tags": {
        "amenity": "restaurant",
        "diet:vegetarian": "only",
        "name": "Red fort restaurant",
        "name:kn": "ರೆಡ್ ಫಾರ್ಟ್ ರೆಸ್ಟೋರೆಂಟ್"
      }
    },
    {
      "type": "node",
      "id": 1468015002,
      "lat": 12.936049,
      "lon": 77.6150661,
      "tags": {
        "amenity": "ice_cream",
        "brand": "Corner House",
        "cuisine": "ice_cream",
        "delivery": "yes",
        "name": "Corner House",
        "name:kn": "ಕಾರ್ನರ್ ಹೌಸ್",
        "takeaway": "yes"
      }
    },
    {
      "type": "node",
      "id": 1468164169,
      "lat": 12.9348451,
      "lon": 77.6128809,
      "tags": {
        "amenity": "restaurant",
        "name": "N.E Diner",
        "name:kn": "ಎನ್.ಇ ಡೈನರ್"
      }
    },
    {
      "type": "node",
      "id": 1468164170,
      "lat": 12.9349392,
      "lon": 77.6129828,
      "tags": {
        "name": "Vodafone Store",
        "shop": "kiosk"
      }
    },
    {
      "type": "node",
      "id": 1468190772,
      "lat": 12.9371612,
      "lon": 77.6129292,
      "tags": {
        "name": "Yem and Tee Beauty parlor",
        "shop": "hairdresser"
      }
    },
    {
      "type": "node",
      "id": 1468190774,
      "lat": 12.9350385,
      "lon": 77.6130633,
      "tags": {
        "addr:postcode": "560095",
        "addr:street": "Koramangala Industrial Layout",
        "amenity": "restaurant",
        "cuisine": "ice_cream",
        "name": "Thanco Fresh Fruitz Ice-Creams",
        "name:kn": "ತಾನ್ಕೊ ಫ್ರೆಷ್ ಫ್ರುಟ್ಸ್ ಐಸ್-ಕ್ರೀಮ್ಸ್"
      }
    },
    {
      "type": "node",
      "id": 1468190775,
      "lat": 12.935577,
      "lon": 77.6130901,
      "tags": {
        "addr:postcode": "560095",
        "amenity": "restaurant",
        "cuisine": "seafood",
        "name": "Mangoa Coastal cuisine",
        "name:kn": "ಮಂಗೊ ಕೊಸ್ಟಲ್ ಕ್ಯೂಸಿನ್"
      }
    },
    {
      "type": "node",
      "id": 1468190776,
      "lat": 12.935294,
      "lon": 77.61306,
      "tags": {
        "addr:postcode": "560095",
        "name": "The Book shoppe",
        "shop": "books"
      }
    },
    {
      "type": "node",
      "id": 1468190779,
      "lat": 12.9353286,
      "lon": 77.6128207,
      "tags": {
        "designation": "Dresses/Toys for Kids",
        "name": "Baby's day out",
        "shop": "convenience"
      }
    },
    {
      "type": "node",
      "id": 1468235024,
      "lat": 12.9365549,
      "lon": 77.6165979,
      "tags": {
        "amenity": "restaurant",
        "name": "Aangan restaurant",
        "name:kn": "ಆಂಗನ್ ರೆಸ್ಟೊರೆಂಟ್"
      }
    },
    {
      "type": "node",
      "id": 1468235026,
      "lat": 12.9364451,
      "lon": 77.6170968,
      "tags": {
        "name": "Nandini Shoppe",
        "shop": "convenience"
      }
    },
    {
      "type": "node",
      "id": 1469272712,
      "lat": 12.93647,
      "lon": 77.6165564,
      "tags": {
        "name": "Sapna Book Stall",
        "shop": "books"
      }
    },
    {
      "type": "node",
      "id": 1469643919,
      "lat": 12.9362945,
      "lon": 77.6149366,
      "tags": {
        "designation": "Dresses/Toys for Kids",
        "name": "Babys Planet",
        "shop": "convenience"
      }
    },
    {
      "type": "node",
      "id": 1469643988,
      "lat": 12.9367342,
      "lon": 77.6131209,
      "tags": {
        "amenity": "driving_school",
        "name": "KMS driving school"
      }
    },
    {
      "type": "node",
      "id": 1469643991,
      "lat": 12.9352294,
      "lon": 77.6076048,
      "tags": {
        "amenity": "restaurant",
        "designation": "Kerala Style",
        "name": "Kairali Restaurant",
        "name:kn": "ಕೈರಾಲಿ ರೆಸ್ಟೊರೆಂಟ್"
      }
    },
    {
      "type": "node",
      "id": 1469644017,
      "lat": 12.9343755,
      "lon": 77.6090481,
      "tags": {
        "amenity": "restaurant",
        "cuisine": "italian",
        "name": "Little Italy",
        "name:kn": "ಲಿಟಲ್ ಇಟಲಿ"
      }
    },
    {
      "type": "node",
      "id": 1469644046,
      "lat": 12.935785,
      "lon": 77.6076261,
      "tags": {
        "addr:floor": "1",
        "amenity": "restaurant",
        "check_date": "2023-11-23",
        "indoor_seating": "yes",
        "level": "1",
        "name": "Karavali Fine Dine",
        "outdoor_seating": "no"
      }
    },
    {
      "type": "node",
      "id": 1469644049,
      "lat": 12.9335261,
      "lon": 77.6152234,
      "tags": {
        "amenity": "restaurant",
        "check_date": "2024-01-20",
        "name": "Sultan of Spice",
        "name:kn": "ಸುಲ್ತಾನ್ ಆಫ್ ಸ್ಪೈಸ್"
      }
    },
    {
      "type": "node",
      "id": 1470523365,
      "lat": 12.9364743,
      "lon": 77.6166077,
      "tags": {
        "name": "Vellara Avenue",
        "shop": "gift"
      }
    },
    {
      "type": "node",
      "id": 1470523369,
      "lat": 12.936209,
      "lon": 77.6171253,
      "tags": {
        "amenity": "atm",
        "brand": "Deutsche Bank",
        "brand:wikidata": "Q66048",
        "fee": "no",
        "name": "Deutsche Bank",
        "operator": "Deutsche Bank",
        "operator:wikidata": "Q66048"
      }
    },
    {
      "type": "node",
      "id": 1470523370,
      "lat": 12.9364168,
      "lon": 77.6164628,
      "tags": {
        "name": "Reliance Footprint",
        "shop": "convenience"
      }
    },
    {
      "type": "node",
      "id": 1470523375,
      "lat": 12.933536,
      "lon": 77.6155026,
      "tags": {
        "amenity": "restaurant",
        "cuisine": "indian",
        "name": "Ammis Biriyani",
        "name:kn": "ಅಮ್ಮಿ ಬಿರಿಯಾನಿ"
      }
    },
    {
      "type": "node",
      "id": 1470523376,
      "lat": 12.9352797,
      "lon": 77.6157628,
      "tags": {
        "amenity": "restaurant",
        "cuisine": "chinese",
        "name": "Chung Wah Restaurant",
        "name:kn": "ಚುಂಗ್ ವಾ ರೆಸ್ಟೊರೆಂಟ್"
      }
    },
    {
      "type": "node",
      "id": 1470523377,
      "lat": 12.933719,
      "lon": 77.6176805,
      "tags": {
        "designation": "Kids and Gift shop",
        "name": "Kids N Gifts",
        "shop": "gift"
      }
    },
    {
      "type": "node",
      "id": 1470533215,
      "lat": 12.9232149,
      "lon": 77.612864,
      "tags": {
        "name": "Food City Super Market",
        "shop": "supermarket"
      }
    },
    {
      "type": "node",
      "id": 1470539723,
      "lat": 12.9348619,
      "lon": 77.6112385,
      "tags": {
        "addr:city": "Bangalore",
        "addr:housename": "Forum Mall",
        "addr:street": "Hosur Road",
        "name": "Soch",
        "shop": "clothes",
        "wheelchair": "yes"
      }
    },
    {
      "type": "node",
      "id": 1470541759,
      "lat": 12.93419,
      "lon": 77.6109248,
      "tags": {
        "addr:city": "Bangalore",
        "addr:housename": "Forum Mall",
        "addr:street": "Hosur Road",
        "name": "Nexus Mall Koramangla",
        "shop": "alcohol"
      }
    },
    {
      "type": "node",
      "id": 1470608018,
      "lat": 12.9345459,
      "lon": 77.6114217,
      "tags": {
        "addr:city": "Bangalore",
        "addr:housename": "Forum Mall",
        "addr:street": "Hosur Road",
        "brand": "United Colors of Benetton",
        "brand:wikidata": "Q817139",
        "name": "United Colors of Benetton",
        "shop": "clothes",
        "short_name": "Benetton",
        "toilets:wheelchair": "yes",
        "wheelchair": "yes"
      }
    },
    {
      "type": "node",
      "id": 1470608021,
      "lat": 12.934891,
      "lon": 77.6110462,
      "tags": {
        "addr:city": "Bangalore",
        "addr:housename": "Forum Mall",
        "addr:street": "Hosur Road",
        "branch": "Dockers",
        "brand": "Levi's",
        "brand:wikidata": "Q127962",
        "clothes": "denim;men;women",
        "name": "Levi's",
        "shop": "clothes",
        "wheelchair": "yes"
      }
    },
    {
      "type": "node",
      "id": 1470608022,
      "lat": 12.9341695,
      "lon": 77.6110462,
      "tags": {
        "addr:city": "Bangalore",
        "addr:housename": "Forum Mall",
        "addr:street": "Hosur Road",
        "name": "Raymonds",
        "shop": "clothes"
      }
    },
    {
      "type": "node",
      "id": 1470628750,
      "lat": 12.9366298,
      "lon": 77.6132797,
      "tags": {
        "amenity": "restaurant",
        "cuisine": "indian",
        "name": "Sri Sai Vijay Mess",
        "name:kn": "ಶ್ರೀ ಸಾಯಿ ವಿಜಯ್ ಮೆಸ್"
      }
    },
    {
      "type": "node",
      "id": 1470628752,
      "lat": 12.9367971,
      "lon": 77.6130007,
      "tags": {
        "addr:street": "Koramangala 7th block",
        "designation": "Garments",
        "name": "The Look Shoppe",
        "shop": "clothes"
      }
    },
    {
      "type": "node",
      "id": 1470628753,
      "lat": 12.9367971,
      "lon": 77.6131509,
      "tags": {
        "name": "463 Cross roads",
        "shop": "clothes"
      }
    },
    {
      "type": "node",
      "id": 1470628754,
      "lat": 12.9360965,
      "lon": 77.614653,
      "tags": {
        "name": "Leher Casuals",
        "shop": "clothes"
      }
    },
    {
      "type": "node",
      "id": 1470628755,
      "lat": 12.9360233,
      "lon": 77.6153074,
      "tags": {
        "name": "Cantabil Showroom",
        "shop": "clothes"
      }
    },
    {
      "type": "node",
      "id": 1470628756,
      "lat": 12.9370062,
      "lon": 77.6120888,
      "tags": {
        "name": "Hot Chips",
        "shop": "convenience"
      }
    },
    {
      "type": "node",
      "id": 1470631821,
      "lat": 12.9358593,
      "lon": 77.6150138,
      "tags": {
        "designation": "Cakes",
        "name": "Cake Yard",
        "shop": "bakery"
      }
    },
    {
      "type": "node",
      "id": 1470856078,
      "lat": 12.9347915,
      "lon": 77.6109681,
      "tags": {
        "addr:city": "Bangalore",
        "addr:housename": "Forum Mall",
        "addr:street": "Hosur Road",
        "name": "Ayesha",
        "name:kn": "ಅಯೇಶ",
        "shop": "jewelry"
      }
    },
    {
      "type": "node",
      "id": 1470856090,
      "lat": 12.9347444,
      "lon": 77.6110003,
      "tags": {
        "addr:city": "Bangalore",
        "addr:housename": "Forum Mall",
        "addr:street": "Hosur Road",
        "name": "Cookie Man",
        "shop": "bakery"
      }
    },
    {
      "type": "node",
      "id": 1470856097,
      "lat": 12.9346922,
      "lon": 77.6110539,
      "tags": {
        "addr:city": "Bangalore",
        "addr:housename": "Forum Mall",
        "addr:street": "Hosur Road",
        "name": "Sangeeta Mobiles",
        "shop": "hifi"
      }
    },
    {
      "type": "node",
      "id": 1470856114,
      "lat": 12.9343785,
      "lon": 77.611365,
      "tags": {
        "addr:city": "Bangalore",
        "addr:housename": "Forum Mall",
        "addr:street": "Hosur Road",
        "amenity": "toilets",
        "fee": "no",
        "wheelchair": "limited"
      }
    },
    {
      "type": "node",
      "id": 1470856144,
      "lat": 12.9347706,
      "lon": 77.6110968,
      "tags": {
        "addr:city": "Bangalore",
        "addr:housename": "Forum Mall",
        "addr:street": "Hosur Road",
        "branch": "showroom",
        "brand": "Samsung",
        "brand:wikidata": "Q20718",
        "name": "Samsung",
        "shop": "electronics",
        "wheelchair": "yes"
      }
    },
    {
      "type": "node",
      "id": 1471128651,
      "lat": 12.9359421,
      "lon": 77.6157219,
      "tags": {
        "name": "Airtel Office",
        "name:kn": "ಏರ್ಟೆಲ್",
        "shop": "telecommunication"
      }
    },
    {
      "type": "node",
      "id": 1471780770,
      "lat": 12.9332663,
      "lon": 77.6153051,
      "tags": {
        "amenity": "restaurant",
        "name": "Ande ka funda",
        "name:kn": "ಅಂಡೆ ಕ ಫಂಡಾ"
      }
    },
    {
      "type": "node",
      "id": 1471886877,
      "lat": 12.927128,
      "lon": 77.616183,
      "tags": {
        "name": "Kallada Travels",
        "shop": "travel_agency"
      }
    },
    {
      "type": "node",
      "id": 1472014087,
      "lat": 12.9324841,
      "lon": 77.6137336,
      "tags": {
        "addr:street": "Jyothinivas college road",
        "name": "Bhima",
        "shop": "jewelry"
      }
    },
    {
      "type": "node",
      "id": 1472748545,
      "lat": 12.9335885,
      "lon": 77.6107455,
      "tags": {
        "addr:street": "Hosur road",
        "name": "@home",
        "shop": "furniture",
        "wheelchair": "no"
      }
    },
    {
      "type": "node",
      "id": 1473082673,
      "lat": 12.9275755,
      "lon": 77.6160908,
      "tags": {
        "addr:housenumber": "15/95",
        "addr:street": "Hosur Road",
        "amenity": "pharmacy",
        "dispensing": "yes",
        "healthcare": "pharmacy",
        "name": "Balaji Medicals",
        "name:kn": "ಬಾಲಾಜಿ ಮೆಡಿಕಲ್"
      }
    },
    {
      "type": "node",
      "id": 1474100959,
      "lat": 12.934928,
      "lon": 77.6126828,
      "tags": {
        "name": "Print Express",
        "shop": "hifi"
      }
    },
    {
      "type": "node",
      "id": 1474101623,
      "lat": 12.9351759,
      "lon": 77.6127454,
      "tags": {
        "name": "Fabric Spa",
        "shop": "dry_cleaning"
      }
    },
    {
      "type": "node",
      "id": 1474324416,
      "lat": 12.9366448,
      "lon": 77.612113,
      "tags": {
        "access": "private",
        "amenity": "library",
        "designation": "Second floor",
        "name": "Kor 901 Library"
      }
    },
    {
      "type": "node",
      "id": 1474324422,
      "lat": 12.9366224,
      "lon": 77.6134497,
      "tags": {
        "amenity": "parking",
        "name": "Bosch (DH) Parking"
      }
    },
    {
      "type": "node",
      "id": 1474351207,
      "lat": 12.9346333,
      "lon": 77.6124687,
      "tags": {
        "amenity": "restaurant",
        "check_date": "2023-10-28",
        "diet:vegetarian": "only",
        "name": "Kota Kachori",
        "takeaway": "yes"
      }
    },
    {
      "type": "node",
      "id": 1474351217,
      "lat": 12.9361926,
      "lon": 77.6147442,
      "tags": {
        "name": "Sports Planet",
        "shop": "convenience"
      }
    },
    {
      "type": "node",
      "id": 1474432222,
      "lat": 12.9345952,
      "lon": 77.6094985,
      "tags": {
        "amenity": "bar",
        "name": "Manchester United"
      }
    },
    {
      "type": "node",
      "id": 1474432223,
      "lat": 12.9340524,
      "lon": 77.6102738,
      "tags": {
        "name": "Mom & Me",
        "shop": "clothes",
        "wheelchair": "no"
      }
    },
    {
      "type": "node",
      "id": 1474432224,
      "lat": 12.9339607,
      "lon": 77.6104356,
      "tags": {
        "addr:street": "hosur road",
        "amenity": "restaurant",
        "indoor_seating": "yes",
        "name": "Shiva Sagar",
        "name:kn": "ಶಿವಸಾಗರ್",
        "outdoor_seating": "yes"
      }
    },
    {
      "type": "node",
      "id": 1474432226,
      "lat": 12.930861,
      "lon": 77.6069707,
      "tags": {
        "addr:street": "Christ School Road",
        "amenity": "dentist",
        "name": "Tooth N Care"
      }
    },
    {
      "type": "node",
      "id": 1474432228,
      "lat": 12.9316137,
      "lon": 77.6072662,
      "tags": {
        "addr:street": "8th Cross",
        "name": "Bakery",
        "shop": "bakery"
      }
    },
    {
      "type": "node",
      "id": 1474442618,
      "lat": 12.9256315,
      "lon": 77.6152769,
      "tags": {
        "addr:street": "Maruthi Nagar Main Road",
        "air_conditioning": "no",
        "amenity": "restaurant",
        "diet:vegetarian": "only",
        "indoor_seating": "yes",
        "name": "Shanti Sagar",
        "name:kn": "ಶಾಂತಿ ಸಾಗರ್",
        "outdoor_seating": "no",
        "smoking": "no"
      }
    },
    {
      "type": "node",
      "id": 1474445664,
      "lat": 12.9231702,
      "lon": 77.6126406,
      "tags": {
        "addr:street": "Chocolate Factory Road",
        "amenity": "restaurant",
        "cuisine": "indian",
        "name": "Andra Curry Point",
        "name:kn": "ಆಂಧ್ರ ಕರ್ರಿ ಪಾಯಿಂಟ್"
      }
    },
    {
      "type": "node",
      "id": 1474446679,
      "lat": 12.9234682,
      "lon": 77.611734,
      "tags": {
        "name": "Bake O Fresh Bakery",
        "shop": "bakery"
      }
    },
    {
      "type": "node",
      "id": 1474449391,
      "lat": 12.9239335,
      "lon": 77.61116,
      "tags": {
        "addr:district": "Bengaluru Urban",
        "addr:full": "#22, 1st Main, Chocolate Factory Road , Tavarekere Btm Layout",
        "addr:postcode": "560029",
        "addr:state": "Karnataka",
        "amenity": "hospital",
        "healthcare": "hospital",
        "name": "Spurthy Hospital",
        "source": "OpenGovernmentData"
      }
    },
    {
      "type": "node",
      "id": 1474449978,
      "lat": 12.9245296,
      "lon": 77.6094944,
      "tags": {
        "amenity": "atm",
        "brand": "Federal Bank",
        "brand:wikidata": "Q2044983",
        "name": "Federal Bank",
        "operator": "Federal Bank",
        "operator:wikidata": "Q2044983"
      }
    },
    {
      "type": "node",
      "id": 1474450888,
      "lat": 12.9243597,
      "lon": 77.6094434,
      "tags": {
        "amenity": "atm",
        "brand": "HDFC Bank",
        "brand:wikidata": "Q631047",
        "name": "HDFC Bank",
        "operator": "HDFC Bank",
        "operator:wikidata": "Q631047",
        "short_name": "HDFC"
      }
    },
    {
      "type": "node",
      "id": 1474455985,
      "lat": 12.9312664,
      "lon": 77.6097492,
      "tags": {
        "name": "SreeVinayaka Alcohol Shop",
        "shop": "alcohol"
      }
    },
    {
      "type": "node",
      "id": 1474456651,
      "lat": 12.9325892,
      "lon": 77.6101676,
      "tags": {
        "amenity": "place_of_worship",
        "name": "Ayyappa Swami Temple",
        "name:kn": "ಅಯ್ಯಪ್ಪ ಸ್ವಾಮಿ ದೇವಸ್ಥಾನ",
        "religion": "hindu"
      }
    },
    {
      "type": "node",
      "id": 1474458358,
      "lat": 12.9351929,
      "lon": 77.6086817,
      "tags": {
        "amenity": "hospital",
        "healthcare": "hospital",
        "name": "Prasad Eye Hospital"
      }
    },
    {
      "type": "node",
      "id": 1669961198,
      "lat": 12.9337369,
      "lon": 77.6176108,
      "tags": {
        "name": "Lords & Kings Eye Gallery",
        "shop": "optician"
      }
    },
    {
      "type": "node",
      "id": 1675248129,
      "lat": 12.935464,
      "lon": 77.616304,
      "tags": {
        "name": "Furtados Music India Private Limited",
        "shop": "music"
      }
    },
    {
      "type": "node",
      "id": 1675552772,
      "lat": 12.9347196,
      "lon": 77.61367,
      "tags": {
        "amenity": "atm",
        "brand": "Citibank",
        "brand:wikidata": "Q857063",
        "check_date": "2021-09-24",
        "name": "Citibank",
        "operator": "Citibank",
        "operator:wikidata": "Q857063",
        "short_name": "Citi"
      }
    },
    {
      "type": "node",
      "id": 1675555859,
      "lat": 12.9341965,
      "lon": 77.6164502,
      "tags": {
        "alt_name": "Goli Vada Pav No.1",
        "amenity": "fast_food",
        "brand": "Goli Vada Pav",
        "brand:wikidata": "Q5580697",
        "cuisine": "indian",
        "name": "Goli Vada Pav",
        "name:kn": "ಗೋಲಿ ವಡ ಪಾವ್",
        "takeaway": "yes"
      }
    },
    {
      "type": "node",
      "id": 1675556127,
      "lat": 12.9341648,
      "lon": 77.6164835,
      "tags": {
        "amenity": "fast_food",
        "name": "Jumboking Vadapav"
      }
    },
    {
      "type": "node",
      "id": 1682878082,
      "lat": 12.9363897,
      "lon": 77.613793,
      "tags": {
        "amenity": "place_of_worship",
        "name": "Sai Baba Temple",
        "name:kn": "ಸಾಯಿಬಾಬಾ ದೇವಸ್ಥಾನ",
        "religion": "hindu"
      }
    },
    {
      "type": "node",
      "id": 1697594718,
      "lat": 12.9348541,
      "lon": 77.6110076,
      "tags": {
        "access": "customers",
        "addr:city": "Bangalore",
        "addr:housename": "Forum Mall",
        "addr:street": "Hosur Road",
        "amenity": "parking",
        "fee": "yes",
        "name": "Nexus Mall Parking",
        "parking": "multi-storey"
      }
    },
    {
      "type": "node",
      "id": 1781918450,
      "lat": 12.9348525,
      "lon": 77.6157906,
      "tags": {
        "amenity": "restaurant",
        "cuisine": "indian",
        "name": "Hotel Empire",
        "name:kn": "ಹೋಟೆಲ್ ಎಂಪೈರ್"
      }
    },
    {
      "type": "node",
      "id": 1781918451,
      "lat": 12.9340146,
      "lon": 77.6163371,
      "tags": {
        "amenity": "restaurant",
        "cuisine": "chinese",
        "internet_access": "no",
        "name": "Khawa Karpo",
        "name:kn": "ಖಾವ ಕಾರ್ಪೊ"
      }
    },
    {
      "type": "node",
      "id": 2322770073,
      "lat": 12.934646,
      "lon": 77.6067313,
      "tags": {
        "amenity": "food_court",
        "name": "Christ University Food Court"
      }
    },
    {
      "type": "node",
      "id": 2647774007,
      "lat": 12.9338666,
      "lon": 77.6123477,
      "tags": {
        "addr:postcode": "560095",
        "addr:street": "Hosur Road",
        "brand": "Tata",
        "brand:wikidata": "Q188514",
        "check_date": "2023-10-28",
        "name": "Tata Motors",
        "shop": "car"
      }
    },
    {
      "type": "node",
      "id": 2647774013,
      "lat": 12.9351849,
      "lon": 77.6135299,
      "tags": {
        "amenity": "cafe",
        "brand": "Starbucks",
        "brand:pa": "ਸਟਾਰਬਕਸ",
        "brand:ur": "اسٹاربکس",
        "brand:wikidata": "Q37158",
        "brand:wikipedia": "en:Starbucks",
        "cuisine": "coffee_shop",
        "internet_access": "wlan",
        "internet_access:fee": "no",
        "name": "Starbucks",
        "name:pa": "ਸਟਾਰਬਕਸ",
        "name:ur": "اسٹاربکس",
        "official_name": "Starbucks Coffee",
        "official_name:pa": "ਸਟਾਰਬਕਸ ਕੌਫੀ",
        "official_name:ur": "اسٹاربکس کافی",
        "opening_hours": "10:00-23:00",
        "takeaway": "yes",
        "website": "https://www.starbucks.com/"
      }
    },
    {
      "type": "node",
      "id": 2694347072,
      "lat": 12.9250286,
      "lon": 77.6143616,
      "tags": {
        "addr:city": "Bangalore",
        "addr:postcode": "560068",
        "addr:street": "Maruthi Nagar Main Road",
        "amenity": "restaurant",
        "cuisine": "sweet_and_chat_shop",
        "name": "New Surya Sweets",
        "wheelchair": "limited"
      }
    },
    {
      "type": "node",
      "id": 2746556770,
      "lat": 12.9344918,
      "lon": 77.6160061,
      "tags": {
        "amenity": "restaurant",
        "cuisine": "barbecue",
        "diet:vegetarian": "yes",
        "name": "Black Pearl"
      }
    },
    {
      "type": "node",
      "id": 2941500439,
      "lat": 12.9338837,
      "lon": 77.6072471,
      "tags": {
        "addr:street": "Christ School Road",
        "amenity": "fast_food",
        "cuisine": "chinese",
        "name": "Hot n Cool"
      }
    },
    {
      "type": "node",
      "id": 3193517612,
      "lat": 12.9353301,
      "lon": 77.6091895,
      "tags": {
        "name": "Stellar",
        "shop": "furniture"
      }
    },
    {
      "type": "node",
      "id": 3211789974,
      "lat": 12.9341751,
      "lon": 77.6170762,
      "tags": {
        "amenity": "restaurant",
        "name": "California Burritos"
      }
    },
    {
      "type": "node",
      "id": 3221387165,
      "lat": 12.9298056,
      "lon": 77.6008877,
      "tags": {
        "brand": "Hyundai",
        "brand:wikidata": "Q55931",
        "name": "Advaith Hyundai",
        "name:kn": "ಅದ್ವೈತ ಹ್ಯುಂಡೈ",
        "shop": "car"
      }
    },
    {
      "type": "node",
      "id": 3400223630,
      "lat": 12.9296663,
      "lon": 77.6009087,
      "tags": {
        "amenity": "kindergarten",
        "name": "Your kids r our kids"
      }
    },
    {
      "type": "node",
      "id": 3417176625,
      "lat": 12.9311572,
      "lon": 77.6070088,
      "tags": {
        "addr:street": "Christ School Road",
        "amenity": "fast_food",
        "cuisine": "indian",
        "name": "Ande Ka Funda"
      }
    },
    {
      "type": "node",
      "id": 3490677257,
      "lat": 12.9320659,
      "lon": 77.6182289,
      "tags": {
        "amenity": "restaurant"
      }
    },
    {
      "type": "node",
      "id": 3490677458,
      "lat": 12.9319665,
      "lon": 77.6179178,
      "tags": {
        "brand": "Food Basics",
        "brand:wikidata": "Q5465300",
        "name": "Food Basics",
        "shop": "supermarket"
      }
    },
    {
      "type": "node",
      "id": 3510053759,
      "lat": 12.9360891,
      "lon": 77.6159498,
      "tags": {
        "addr:city": "Koramangala",
        "addr:housenumber": "Next to Airtel Office",
        "addr:postcode": "560095",
        "addr:street": "80 Feet Road, 5th Block",
        "amenity": "cafe",
        "cuisine": "Juice_shop",
        "internet_access": "no",
        "name": "Juicy",
        "smoking": "outside"
      }
    },
    {
      "type": "node",
      "id": 3510063809,
      "lat": 12.9359584,
      "lon": 77.6162475,
      "tags": {
        "addr:city": "Koramangala",
        "addr:housenumber": "A/4, KHB Colony, Near Airtel Office",
        "addr:postcode": "560095",
        "addr:street": "5th Block, 80 Feet Road",
        "amenity": "restaurant",
        "cuisine": "chinese",
        "delivery": "yes",
        "name": "Momoz",
        "opening_hours": "12 Noon to 3:30 PM, 7 PM to 11 PM",
        "phone": "+91 80 41739353",
        "smoking": "outside"
      }
    },
    {
      "type": "node",
      "id": 3510063810,
      "lat": 12.9346905,
      "lon": 77.6159203,
      "tags": {
        "addr:city": "Koramangala",
        "addr:housenumber": "Near Hotel Empire International",
        "addr:postcode": "560095",
        "addr:street": "Koramangala 5th Block",
        "amenity": "cafe",
        "brand": "Chai Point",
        "brand:wikidata": "Q28173415",
        "cuisine": "coffee_shop",
        "name": "Chai Point",
        "takeaway": "yes"
      }
    },
    {
      "type": "node",
      "id": 3510063811,
      "lat": 12.9344396,
      "lon": 77.6160195,
      "tags": {
        "addr:city": "Koramangala",
        "addr:housenumber": "Shop No.105, Ground Floor, 5th Floor",
        "addr:postcode": "560095",
        "addr:street": "1A Cross Road, Koramangala Industrial Layout, Koramangala",
        "amenity": "restaurant",
        "brand": "California Pizza Kitchen",
        "brand:wikidata": "Q15109854",
        "cuisine": "pizza",
        "delivery": "yes",
        "name": "California Pizza Kitchen",
        "opening_hours": "11:00-23:00",
        "short_name": "CPK"
      }
    },
    {
      "type": "node",
      "id": 3510319613,
      "lat": 12.934947,
      "lon": 77.6139133,
      "tags": {
        "addr:street": "80 feet road",
        "name": "Inmark",
        "opening_hours": "Mo-Su 10:00 21:00",
        "shop": "clothes"
      }
    },
    {
      "type": "node",
      "id": 3520665041,
      "lat": 12.935925,
      "lon": 77.6061828,
      "tags": {
        "amenity": "bank",
        "atm": "yes",
        "brand": "South Indian Bank",
        "brand:wikidata": "Q2044973",
        "name": "South Indian Bank"
      }
    },
    {
      "type": "node",
      "id": 3702210813,
      "lat": 12.9311314,
      "lon": 77.6007942,
      "tags": {
        "amenity": "restaurant",
        "cuisine": "Multi-cuisne",
        "name": "Seashell Savoury",
        "note": "Halal Restaurant"
      }
    },
    {
      "type": "node",
      "id": 3702268573,
      "lat": 12.9307235,
      "lon": 77.6004442,
      "tags": {
        "amenity": "restaurant",
        "cuisine": "indian",
        "name": "Chicken County",
        "note": "Halal Restaurant"
      }
    },
    {
      "type": "node",
      "id": 3709164638,
      "lat": 12.9335629,
      "lon": 77.614322,
      "tags": {
        "addr:street": "1st A Cross Road",
        "amenity": "fast_food",
        "cuisine": "cake;burger;grill;italian_pizza;breakfast;american;donut;international;hot_dog;french;coffee_shop;barbecue;ice_cream",
        "name": "Truffles",
        "name:en": "Truffles",
        "name:kn": "ಟ್ರಫಲ್ಸ್"
      }
    },
    {
      "type": "node",
      "id": 3924977249,
      "lat": 12.9302063,
      "lon": 77.6140996,
      "tags": {
        "addr:street": "Hosur road",
        "amenity": "cafe",
        "name": "Seekers Cafe",
        "wheelchair": "yes"
      }
    },
    {
      "type": "node",
      "id": 3931929663,
      "lat": 12.9341108,
      "lon": 77.6099202,
      "tags": {
        "addr:city": "Bengaluru",
        "addr:country": "IN",
        "addr:housenumber": "16",
        "addr:postcode": "560029",
        "addr:street": "Tavarekere Main Road",
        "amenity": "coworking_space",
        "email": "ikpeden@ikpknowledgepark.com",
        "leisure": "hackerspace",
        "name": "IKP EDEN",
        "name:kn": "ಐಕೆಪಿ-ಇಡೆನ್",
        "phone": "+91-8790672424",
        "source": "https://ikpeden.com",
        "website": "https://ikpeden.com/"
      }
    },
    {
      "type": "node",
      "id": 4117092201,
      "lat": 12.9310409,
      "lon": 77.6081159,
      "tags": {
        "amenity": "restaurant",
        "cuisine": "indian",
        "name": "Jose Mess",
        "source": "gps"
      }
    },
    {
      "type": "node",
      "id": 4319280082,
      "lat": 12.9364231,
      "lon": 77.6151528,
      "tags": {
        "amenity": "restaurant",
        "name": "Maria's Goan Kitchen"
      }
    },
    {
      "type": "node",
      "id": 4441888253,
      "lat": 12.9263384,
      "lon": 77.6168571,
      "tags": {
        "addr:city": "Bangalore",
        "addr:postcode": "560068",
        "addr:street": "Hosur Rd, Zuzuvadi, Madiwala, 1st Stage, BTM Layout",
        "amenity": "pharmacy",
        "name": "Trust Chemists & Druggists Ltd",
        "phone": "+91-80 2563 0022",
        "website": "https://www.trustpharmacy.co.in/"
      }
    },
    {
      "type": "node",
      "id": 4443240833,
      "lat": 12.9350497,
      "lon": 77.6114296,
      "tags": {
        "addr:city": "Bangalore",
        "addr:housename": "Forum Mall",
        "addr:housenumber": "forum mall",
        "addr:postcode": "560095",
        "addr:street": "Hosur Road",
        "description": "It is a fashion store",
        "level": "1",
        "name": "Chumbak",
        "opening_hours": "00:00-12:00",
        "phone": "6747589579869",
        "shop": "clothes",
        "website": "https://www.chumbak.com/"
      }
    },
    {
      "type": "node",
      "id": 4445200414,
      "lat": 12.927082,
      "lon": 77.6034417,
      "tags": {
        "addr:city": "Bangalore",
        "addr:housenumber": "No.26/10",
        "addr:postcode": "560029",
        "addr:street": "Bismillanagar, BTM Layout 1st Stage",
        "amenity": "clinic",
        "name": "Kubra Maternity And Nursing Home",
        "phone": "+9198444 56346"
      }
    },
    {
      "type": "node",
      "id": 4447017355,
      "lat": 12.939969,
      "lon": 77.6091099,
      "tags": {
        "addr:city": "Bangalore",
        "addr:postcode": "560030",
        "addr:street": "Adugodi, Hosur Road",
        "amenity": "restaurant",
        "cuisine": "regional",
        "delivery": "yes",
        "name": "Taj Food Point",
        "phone": "9008010360",
        "smoking": "no",
        "takeaway": "yes"
      }
    },
    {
      "type": "node",
      "id": 4457715091,
      "lat": 12.9301342,
      "lon": 77.6181807,
      "tags": {
        "amenity": "atm",
        "brand": "South Indian Bank",
        "brand:wikidata": "Q2044973",
        "name": "South Indian Bank",
        "opening_hours": "24/7",
        "operator": "South Indian Bank",
        "operator:wikidata": "Q2044973"
      }
    },
    {
      "type": "node",
      "id": 4457715192,
      "lat": 12.9301613,
      "lon": 77.618137,
      "tags": {
        "amenity": "atm",
        "brand": "Bank of Baroda",
        "brand:wikidata": "Q2003797",
        "name": "Bank of Baroda",
        "opening_hours": "24/7",
        "operator": "Bank of Baroda",
        "operator:wikidata": "Q2003797"
      }
    },
    {
      "type": "node",
      "id": 4457765089,
      "lat": 12.9304666,
      "lon": 77.6183064,
      "tags": {
        "amenity": "atm",
        "brand": "Federal Bank",
        "brand:wikidata": "Q2044983",
        "name": "Federal Bank",
        "opening_hours": "24/7",
        "operator": "Federal Bank",
        "operator:wikidata": "Q2044983"
      }
    },
    {
      "type": "node",
      "id": 4487228564,
      "lat": 12.9268233,
      "lon": 77.6164922,
      "tags": {
        "addr:city": "Bangalore",
        "addr:housenumber": "2nd Floor, S V R Complex 89",
        "addr:postcode": "560068",
        "addr:street": "Hosur Road",
        "brand": "Puma",
        "brand:wikidata": "Q157064",
        "name": "Puma",
        "name:kn": "ಪೂಮ ಸ್ಟೋರ್",
        "phone": "094003 77812",
        "shop": "clothes",
        "website": "https://in.puma.com/"
      }
    },
    {
      "type": "node",
      "id": 4487272388,
      "lat": 12.9350706,
      "lon": 77.6116041,
      "tags": {
        "addr:city": "Bangalore",
        "addr:housename": "Forum Mall",
        "addr:housenumber": "Chikku Lakshmaiah Layout",
        "addr:postcode": "560029",
        "addr:street": "Hosur Road",
        "brand": "Adidas",
        "brand:wikidata": "Q3895",
        "name": "Adidas",
        "name:kn": "ಅಡಿಡಾಸ್",
        "shop": "sports",
        "website": "https://shop.adidas.co.in/"
      }
    },
    {
      "type": "node",
      "id": 4487302966,
      "lat": 12.934232,
      "lon": 77.6111578,
      "tags": {
        "addr:city": "Bangalore",
        "addr:housename": "Forum Mall",
        "addr:postcode": "560029",
        "addr:street": "Hosur Road",
        "brand": "Puma",
        "brand:wikidata": "Q157064",
        "name": "Puma",
        "phone": "088422 76825",
        "shop": "clothes",
        "website": "https://in.puma.com/"
      }
    },
    {
      "type": "node",
      "id": 4487307801,
      "lat": 12.9343711,
      "lon": 77.6109597,
      "tags": {
        "addr:city": "Bangalore",
        "addr:housename": "Forum Mall",
        "addr:housenumber": "17",
        "addr:postcode": "560029",
        "addr:street": "Hosur Road",
        "brand": "Nike",
        "brand:wikidata": "Q483915",
        "level": "0",
        "name": "Nike",
        "name:kn": "ನೈಕ್",
        "phone": "080 2206 7664",
        "shop": "clothes",
        "website": "https://nike.ssiplgroup.com/"
      }
    },
    {
      "type": "node",
      "id": 4488383692,
      "lat": 12.9349788,
      "lon": 77.6081457,
      "tags": {
        "addr:city": "Bangalore",
        "addr:housenumber": "No.39",
        "addr:postcode": "560029",
        "addr:street": "Ground Floor Krishna Nagar Industrial Layout, Dharmaram College Post Hosur Road, Koramangala, Venkateshwara Layout, Suddagunte Palya",
        "leisure": "sports_centre",
        "name": "360° workout",
        "opening_hours": "6:00-22:00",
        "phone": "8040992414",
        "sport": "gymnastics",
        "website": "360workout.in"
      }
    },
    {
      "type": "node",
      "id": 4489307261,
      "lat": 12.9362197,
      "lon": 77.6149088,
      "tags": {
        "addr:city": "Bengaluru",
        "addr:housenumber": "#64, #351",
        "addr:postcode": "560095",
        "addr:street": "1st B Main, 7th Block, Opposite HDFC Bank, 1st B Main Road, Koramangala 7th Block, Koramangala 5th Block, Koramangala, 7th Block, Koramangala,",
        "name": "Sports Planet",
        "opening_hours": "10:00-21:00",
        "phone": "+919900454672",
        "shop": "sports"
      }
    },
    {
      "type": "node",
      "id": 4489711293,
      "lat": 12.9354439,
      "lon": 77.6140945,
      "tags": {
        "addr:city": "Bengaluru",
        "addr:housenumber": "118",
        "addr:postcode": "560095",
        "addr:street": "Ganapathi Temple Road,7th Block, Koramangala",
        "leisure": "sports_centre",
        "name": "Bodycraft Academy",
        "opening_hours": "09:00-22:00",
        "phone": "9972388844",
        "sport": "gymnastics",
        "website": "https://www.bodycraft.co.in/"
      }
    },
    {
      "type": "node",
      "id": 4489768760,
      "lat": 12.9367017,
      "lon": 77.6104595,
      "tags": {
        "addr:city": "Bangalore",
        "addr:postcode": "560034",
        "addr:street": "H M Vibha Towers, Adugodi Road, Koramangala",
        "brand": "Star Bazaar",
        "brand:wikidata": "Q124175958",
        "name": "Star Bazaar",
        "organic": "yes",
        "phone": "80-25535222",
        "shop": "supermarket",
        "website": "https://starbazaarindia.com/",
        "wheelchair": "yes"
      }
    },
    {
      "type": "node",
      "id": 4489798323,
      "lat": 12.9343332,
      "lon": 77.616638,
      "tags": {
        "addr:city": "Bangalore",
        "addr:housenumber": "126",
        "addr:postcode": "560095",
        "addr:street": "1st A Cross Rd, 5th Block, Koramangala, Bengaluru,",
        "leisure": "sports_centre",
        "name": "Contours Women's Fitness Studio Kormangala",
        "opening_hours": "6:00-21:00",
        "phone": "8042068635",
        "sport": "gymnasium",
        "website": "https://contours.in/"
      }
    },
    {
      "type": "node",
      "id": 4489799742,
      "lat": 12.9348205,
      "lon": 77.6169334,
      "tags": {
        "addr:city": "Bangalore",
        "addr:housenumber": "106 MIG, KHB Colony, 5 Block",
        "addr:postcode": "560095",
        "addr:street": "Koramangala., 5th Block, Koramangala",
        "name": "The Beautique Women's Salon and Spa",
        "opening_hours": "10:00-20:30",
        "phone": "9845184473",
        "shop": "beauty",
        "website": "www.beautique.in"
      }
    },
    {
      "type": "node",
      "id": 4489848317,
      "lat": 12.9344426,
      "lon": 77.6130436,
      "tags": {
        "addr:city": "Bengaluru",
        "addr:housenumber": "No.15,16,17, Raheja Arcade",
        "addr:postcode": "560095",
        "addr:street": "80 Feet Road kormangala",
        "name": "Margarets Hair Dressing",
        "opening_hours": "8:30-19:30",
        "phone": "080-39557096",
        "shop": "beauty",
        "website": "www.margaretsbeautyparlour.co.in"
      }
    },
    {
      "type": "node",
      "id": 4489848534,
      "lat": 12.9245268,
      "lon": 77.6098595,
      "tags": {
        "addr:city": "bangalore",
        "addr:housenumber": "Shop No:H1/1-2",
        "addr:street": "1st Cross,Tavarekere, Chocolate Factory Rd, Maruti Nagar, Stage 1, BTM Layout",
        "leisure": "sports_centre",
        "name": "Fitness Maniac",
        "opening_hours": "10:00-21:00",
        "phone": "9845725015",
        "sport": "gymnastics",
        "website": "fitnessmaniacgym.com"
      }
    },
    {
      "type": "node",
      "id": 4490259040,
      "lat": 12.9350103,
      "lon": 77.6089671,
      "tags": {
        "addr:city": "Bangalore",
        "addr:housenumber": "9",
        "addr:street": "No. 5, 2nd floor, Krishna Nagar, Hosur Road, Above Royal Enfield Showroom, Bangalore, India, Venkateshwara Layout, Suddagunte Palya",
        "leisure": "sports_centre",
        "name": "Fuerza - The Fitness Squad",
        "opening_hours": "5:30-22:30",
        "phone": "9916983338",
        "sport": "gymnasium",
        "website": "fuerza.co.in"
      }
    },
    {
      "type": "node",
      "id": 4490297125,
      "lat": 12.9364773,
      "lon": 77.6150929,
      "tags": {
        "addr:city": "Bengaluru",
        "addr:housenumber": "62",
        "addr:postcode": "560095",
        "addr:street": "Near HDFC Bank, Opp. Corner House, 1st Main Rd, 7th Block, Koramangala,",
        "leisure": "sports_centre",
        "name": "O2 The Fitness",
        "opening_hours": "5:30-21:00",
        "phone": "8041742020",
        "sport": "gymnasium",
        "website": "https://www.o2thefitness.com"
      }
    },
    {
      "type": "node",
      "id": 4506805592,
      "lat": 12.936323,
      "lon": 77.6148832,
      "tags": {
        "addr:postcode": "560084",
        "amenity": "cafe",
        "cuisine": "burger;sandwich;ice_cream;cake;coffee_shop;donut;pancake;pizza;italian_pizza;mexican;breakfast;tea;italian",
        "diet:vegetarian": "yes",
        "internet_access": "wlan",
        "name": "The Chocolate Room",
        "name:en": "The Chocolate Room",
        "name:hi": "The Chocolate Room",
        "opening_hours": "Mo-Su 11:00-23:00"
      }
    },
    {
      "type": "node",
      "id": 4531744796,
      "lat": 12.9345661,
      "lon": 77.6116372,
      "tags": {
        "addr:city": "Bangalore",
        "addr:housename": "Forum Mall",
        "addr:housenumber": "345",
        "addr:postcode": "560095",
        "addr:street": "Hosur Road",
        "brand": "Pantaloons",
        "brand:wikidata": "Q7131643",
        "level": "3",
        "name": "Pantaloons",
        "opening_hours": "09:00-20:00, Su closed",
        "phone": "+91 9886921292",
        "shop": "clothes"
      }
    },
    {
      "type": "node",
      "id": 4563420692,
      "lat": 12.9308168,
      "lon": 77.6180438,
      "tags": {
        "addr:street": "Sarjapur Road",
        "name": "St.John's Utility Complex",
        "name:en": "St.John's Utility Complex",
        "name:hi": "St.John's Utility Complex",
        "opening_hours": "Mo-Su 08:00-00:00",
        "shop": "bakery"
      }
    },
    {
      "type": "node",
      "id": 4635147132,
      "lat": 12.9348261,
      "lon": 77.6158067,
      "tags": {
        "amenity": "restaurant",
        "name": "Karama restaurant"
      }
    },
    {
      "type": "node",
      "id": 4716734089,
      "lat": 12.9365279,
      "lon": 77.6148198,
      "tags": {
        "amenity": "fast_food",
        "name": "Sri Balaji Dosa Corner",
        "name:en": "Sri Balaji Dosa Corner"
      }
    },
    {
      "type": "node",
      "id": 4716734389,
      "lat": 12.9365231,
      "lon": 77.6148638,
      "tags": {
        "name": "Hairkraft",
        "name:en": "Hairkraft",
        "shop": "hairdresser"
      }
    },
    {
      "type": "node",
      "id": 4723511153,
      "lat": 12.9351549,
      "lon": 77.6134782,
      "tags": {
        "addr:city": "Bengaluru",
        "addr:housenumber": "115",
        "addr:postcode": "560094",
        "addr:street": "80 Feet Road",
        "amenity": "fast_food",
        "brand": "Krispy Kreme",
        "brand:wikidata": "Q1192805",
        "cuisine": "donut",
        "name": "Krispy Kreme",
        "takeaway": "yes",
        "website": "https://krispykremeindia.in/"
      }
    },
    {
      "type": "node",
      "id": 4733642622,
      "lat": 12.9356426,
      "lon": 77.6087092,
      "tags": {
        "addr:housenumber": "8",
        "addr:postcode": "560029",
        "addr:street": "Hosur Road",
        "amenity": "cafe",
        "cuisine": "italian_pizza",
        "email": "destreetcafe@mail.com",
        "name": "De Street Cafe",
        "name:en": "De Street Cafe",
        "opening_hours": "24/7"
      }
    },
    {
      "type": "node",
      "id": 4805856923,
      "lat": 12.9306558,
      "lon": 77.6179004,
      "tags": {
        "name": "St Johns opticians and hearing aid",
        "name:en": "St Johns opticians and hearing aid",
        "shop": "optician"
      }
    },
    {
      "type": "node",
      "id": 4805858621,
      "lat": 12.9307586,
      "lon": 77.6179314,
      "tags": {
        "amenity": "fast_food",
        "name": "ಬೇಕ್ಸ್ ಅಂಡ್ ಶೇಕ್ಸ್",
        "name:en": "Bakes and Shakes",
        "name:kn": "ಬೇಕ್ಸ್ ಅಂಡ್ ಶೇಕ್ಸ್"
      }
    },
    {
      "type": "node",
      "id": 4805858622,
      "lat": 12.9310212,
      "lon": 77.6180799,
      "tags": {
        "amenity": "fast_food",
        "name": "ಆಶೀರ್ವಾದ್ ರೆಸ್ಟೋರಂಟ್ - ಸಸ್ಯಾಹಾರಿ",
        "name:en": "Aashirwaad Restaurant - Pure Veg",
        "name:kn": "ಆಶೀರ್ವಾದ್ ರೆಸ್ಟೋರಂಟ್ - ಸಸ್ಯಾಹಾರಿ"
      }
    },
    {
      "type": "node",
      "id": 4805862921,
      "lat": 12.9308485,
      "lon": 77.6179719,
      "tags": {
        "amenity": "fast_food",
        "name": "ಕೋಸ್ಟಲ್ ಬೇ - ಮಾಂಸಾಹಾರಿ",
        "name:en": "Coastal Bay - Non Veg",
        "name:kn": "ಕೋಸ್ಟಲ್ ಬೇ - ಮಾಂಸಾಹಾರಿ"
      }
    },
    {
      "type": "node",
      "id": 4849094826,
      "lat": 12.935018,
      "lon": 77.6088654,
      "tags": {
        "amenity": "restaurant",
        "name": "Punjabi by Nature",
        "name:en": "Punjabi by Nature"
      }
    },
    {
      "type": "node",
      "id": 4849094827,
      "lat": 12.9354982,
      "lon": 77.6089438,
      "tags": {
        "amenity": "fast_food",
        "name": "Sip N Snacks",
        "name:en": "Sip N Snacks"
      }
    },
    {
      "type": "node",
      "id": 4849094828,
      "lat": 12.9353203,
      "lon": 77.6090576,
      "tags": {
        "amenity": "fast_food",
        "name": "Salads and Grill's",
        "name:en": "Salads and Grill's"
      }
    },
    {
      "type": "node",
      "id": 4849108025,
      "lat": 12.9361427,
      "lon": 77.6070292,
      "tags": {
        "name": "Kanpur shoe mela",
        "name:en": "Kanpur shoe mela",
        "shop": "shoes"
      }
    },
    {
      "type": "node",
      "id": 4849108622,
      "lat": 12.9345853,
      "lon": 77.6095622,
      "tags": {
        "check_date": "2023-11-23",
        "name": "Nexa",
        "name:en": "NEXA",
        "shop": "car"
      }
    },
    {
      "type": "node",
      "id": 4849108623,
      "lat": 12.9355551,
      "lon": 77.608926,
      "tags": {
        "amenity": "restaurant",
        "name": "The Royal Pride",
        "name:en": "The Royal Pride"
      }
    },
    {
      "type": "node",
      "id": 4849108624,
      "lat": 12.9352983,
      "lon": 77.6091104,
      "tags": {
        "amenity": "atm",
        "brand": "South Indian Bank",
        "brand:wikidata": "Q2044973",
        "name": "South Indian Bank",
        "operator": "South Indian Bank",
        "operator:wikidata": "Q2044973"
      }
    },
    {
      "type": "node",
      "id": 4849108921,
      "lat": 12.9353982,
      "lon": 77.6090182,
      "tags": {
        "amenity": "restaurant",
        "name": "Forum Park",
        "name:en": "Forum Park"
      }
    },
    {
      "type": "node",
      "id": 4851635491,
      "lat": 12.9353584,
      "lon": 77.6089853,
      "tags": {
        "name": "Laboratory Traders",
        "shop": "yes"
      }
    },
    {
      "type": "node",
      "id": 4851635492,
      "lat": 12.935344,
      "lon": 77.6090148,
      "tags": {
        "name": "Star Electronics",
        "shop": "electronics"
      }
    },
    {
      "type": "node",
      "id": 4851635493,
      "lat": 12.9348245,
      "lon": 77.6092786,
      "tags": {
        "brand": "Kohler",
        "brand:wikidata": "Q6426036",
        "name": "Kohler",
        "shop": "bathroom_furnishing"
      }
    },
    {
      "type": "node",
      "id": 4851635494,
      "lat": 12.9349422,
      "lon": 77.6091848,
      "tags": {
        "name": "Kajoria",
        "shop": "yes"
      }
    },
    {
      "type": "node",
      "id": 4851635497,
      "lat": 12.9347845,
      "lon": 77.60897,
      "tags": {
        "name": "@home",
        "shop": "furniture"
      }
    },
    {
      "type": "node",
      "id": 5349525423,
      "lat": 12.9272982,
      "lon": 77.6162285,
      "tags": {
        "name": "A1 Travels",
        "shop": "travel_agency"
      }
    },
    {
      "type": "node",
      "id": 5349525424,
      "lat": 12.9272747,
      "lon": 77.6161823,
      "tags": {
        "name": "Sleigh Travels",
        "shop": "travel_agency"
      }
    },
    {
      "type": "node",
      "id": 5349525426,
      "lat": 12.9273803,
      "lon": 77.6162014,
      "tags": {
        "amenity": "pharmacy",
        "name": "Kottakkal Aruna Vaidya Sala"
      }
    },
    {
      "type": "node",
      "id": 5349548321,
      "lat": 12.9272874,
      "lon": 77.6162004,
      "tags": {
        "name": "SRS Travels",
        "shop": "travel_agency"
      }
    },
    {
      "type": "node",
      "id": 5350089622,
      "lat": 12.9275651,
      "lon": 77.6161044,
      "tags": {
        "name": "Universal Tours and Travels",
        "shop": "travel_agency"
      }
    },
    {
      "type": "node",
      "id": 5350092822,
      "lat": 12.9272402,
      "lon": 77.6162757,
      "tags": {
        "amenity": "bar",
        "name": "Invitation Restaurant and Bar"
      }
    },
    {
      "type": "node",
      "id": 5350114421,
      "lat": 12.9273422,
      "lon": 77.6162245,
      "tags": {
        "name": "RP Wines",
        "shop": "wine"
      }
    },
    {
      "type": "node",
      "id": 5350114521,
      "lat": 12.9273813,
      "lon": 77.6161773,
      "tags": {
        "name": "KBS Travels",
        "shop": "travel_agency"
      }
    },
    {
      "type": "node",
      "id": 5350114522,
      "lat": 12.9273334,
      "lon": 77.6161904,
      "tags": {
        "name": "KPN Travels",
        "shop": "travel_agency"
      }
    },
    {
      "type": "node",
      "id": 5350114523,
      "lat": 12.9274733,
      "lon": 77.6161422,
      "tags": {
        "name": "Kalpana Travels",
        "shop": "travel_agency"
      }
    },
    {
      "type": "node",
      "id": 5350114524,
      "lat": 12.9274618,
      "lon": 77.6160372,
      "tags": {
        "name": "Sanchethi Jewellers and Bankers",
        "shop": "jewelry"
      }
    },
    {
      "type": "node",
      "id": 5395290524,
      "lat": 12.9376028,
      "lon": 77.6108891,
      "tags": {
        "name": "Budweiser",
        "shop": "beverages"
      }
    },
    {
      "type": "node",
      "id": 5396222724,
      "lat": 12.9340385,
      "lon": 77.6122448,
      "tags": {
        "amenity": "bank",
        "atm": "yes",
        "brand": "UCO Bank",
        "brand:wikidata": "Q2005310",
        "name": "UCO Bank"
      }
    },
    {
      "type": "node",
      "id": 5402302823,
      "lat": 12.9365495,
      "lon": 77.6113287,
      "tags": {
        "amenity": "toilets"
      }
    },
    {
      "type": "node",
      "id": 5597795472,
      "lat": 12.9353554,
      "lon": 77.6075043,
      "tags": {
        "amenity": "fast_food",
        "name": "Just Shawarma",
        "smoking": "separated",
        "takeaway": "yes"
      }
    },
    {
      "type": "node",
      "id": 5915195078,
      "lat": 12.9350324,
      "lon": 77.6089973,
      "tags": {
        "amenity": "pub",
        "contact:instagram": "theweekly.blr",
        "name": "The Weekly - Brewhouse & Kitchen"
      }
    },
    {
      "type": "node",
      "id": 5915195079,
      "lat": 12.9358056,
      "lon": 77.6084211,
      "tags": {
        "amenity": "pub",
        "name": "Avon Bar And Kitchen"
      }
    },
    {
      "type": "node",
      "id": 5915195080,
      "lat": 12.9352198,
      "lon": 77.6093401,
      "tags": {
        "amenity": "pub",
        "name": "Johnny Fox RestoBar & Pub"
      }
    },
    {
      "type": "node",
      "id": 5915195081,
      "lat": 12.9343841,
      "lon": 77.6127469,
      "tags": {
        "amenity": "pub",
        "name": "Harry's Bar And Cafe"
      }
    },
    {
      "type": "node",
      "id": 5915195084,
      "lat": 12.9347403,
      "lon": 77.6126656,
      "tags": {
        "amenity": "cafe",
        "name": "MDP Coffee shop"
      }
    },
    {
      "type": "node",
      "id": 5915195085,
      "lat": 12.9351887,
      "lon": 77.6135481,
      "tags": {
        "amenity": "pub",
        "name": "Fenny's Lounge & Kitchen"
      }
    },
    {
      "type": "node",
      "id": 5915195086,
      "lat": 12.935327,
      "lon": 77.6137071,
      "tags": {
        "leisure": "bowling_alley",
        "name": "Blue Moustache"
      }
    },
    {
      "type": "node",
      "id": 5915195087,
      "lat": 12.9355957,
      "lon": 77.6141769,
      "tags": {
        "amenity": "pub",
        "name": "Koramangala Social"
      }
    },
    {
      "type": "node",
      "id": 5915195088,
      "lat": 12.9353889,
      "lon": 77.6157423,
      "tags": {
        "name": "Mi store",
        "shop": "mobile_phone"
      }
    },
    {
      "type": "node",
      "id": 5915195090,
      "lat": 12.9360677,
      "lon": 77.6160036,
      "tags": {
        "amenity": "restaurant",
        "contact:instagram": "bameys.blr",
        "cuisine": "nepali",
        "name": "Bamey’s Restro Cafe",
        "website": "https://bameys.co/"
      }
    },
    {
      "type": "node",
      "id": 5915195092,
      "lat": 12.9362087,
      "lon": 77.616947,
      "tags": {
        "amenity": "hospital",
        "healthcare": "hospital",
        "name": "Aparna Hospital"
      }
    },
    {
      "type": "node",
      "id": 5915247698,
      "lat": 12.9325612,
      "lon": 77.6138214,
      "tags": {
        "amenity": "pub",
        "name": "Crawl Street"
      }
    },
    {
      "type": "node",
      "id": 5915247699,
      "lat": 12.9328538,
      "lon": 77.6140068,
      "tags": {
        "amenity": "pub",
        "name": "Indigo XP"
      }
    },
    {
      "type": "node",
      "id": 5915247700,
      "lat": 12.9329338,
      "lon": 77.6145578,
      "tags": {
        "amenity": "cafe",
        "name": "Tarbouche"
      }
    },
    {
      "type": "node",
      "id": 5915247701,
      "lat": 12.9329953,
      "lon": 77.6146513,
      "tags": {
        "amenity": "pub",
        "name": "Gilly's Resto Bar"
      }
    },
    {
      "type": "node",
      "id": 5915247702,
      "lat": 12.9342494,
      "lon": 77.6160805,
      "tags": {
        "amenity": "pub",
        "name": "Sherlocks Pub"
      }
    },
    {
      "type": "node",
      "id": 5915247703,
      "lat": 12.9339697,
      "lon": 77.6154797,
      "tags": {
        "amenity": "pub",
        "name": "Happy Brew"
      }
    },
    {
      "type": "node",
      "id": 5915247704,
      "lat": 12.9341449,
      "lon": 77.6155709,
      "tags": {
        "amenity": "pub",
        "name": "Tilt Gastro Lounge"
      }
    },
    {
      "type": "node",
      "id": 5915247705,
      "lat": 12.9344559,
      "lon": 77.6159732,
      "tags": {
        "amenity": "pub",
        "name": "The Boozy Griffin"
      }
    },
    {
      "type": "node",
      "id": 5915409395,
      "lat": 12.9353243,
      "lon": 77.6146417,
      "tags": {
        "amenity": "bank",
        "name": "The National Co-operative Bank"
      }
    },
    {
      "type": "node",
      "id": 5915409397,
      "lat": 12.9348404,
      "lon": 77.6162173,
      "tags": {
        "amenity": "restaurant",
        "name": "House of Commons"
      }
    },
    {
      "type": "node",
      "id": 5915409398,
      "lat": 12.9337996,
      "lon": 77.6159147,
      "tags": {
        "name": "Tibet Mall",
        "shop": "mall"
      }
    },
    {
      "type": "node",
      "id": 5915409399,
      "lat": 12.9342331,
      "lon": 77.6164224,
      "tags": {
        "name": "Spice Girls",
        "shop": "yes"
      }
    },
    {
      "type": "node",
      "id": 5915409400,
      "lat": 12.9341641,
      "lon": 77.6166913,
      "tags": {
        "amenity": "restaurant",
        "name": "Juice Junction"
      }
    },
    {
      "type": "node",
      "id": 5915409401,
      "lat": 12.9339899,
      "lon": 77.6170683,
      "tags": {
        "amenity": "cafe",
        "name": "Hatti Kaapi"
      }
    },
    {
      "type": "node",
      "id": 5915409403,
      "lat": 12.9334898,
      "lon": 77.6184132,
      "tags": {
        "amenity": "place_of_worship",
        "name": "Ganesha Temple",
        "name:kn": "ಗಣೇಶ ದೇವಸ್ಥಾನ",
        "religion": "hindu"
      }
    },
    {
      "type": "node",
      "id": 5915409404,
      "lat": 12.9335157,
      "lon": 77.6184839,
      "tags": {
        "amenity": "place_of_worship",
        "name": "Subramanya Temple",
        "name:kn": "ಸುಬ್ರಮಣ್ಯ ದೇವಸ್ಥಾನ",
        "religion": "hindu"
      }
    },
    {
      "type": "node",
      "id": 5964485617,
      "lat": 12.9360198,
      "lon": 77.6153871,
      "tags": {
        "check_date": "2023-10-28",
        "contact:website": "https://sangeethamobiles.com",
        "name": "Sangeetha",
        "shop": "mobile_phone"
      }
    },
    {
      "type": "node",
      "id": 5964485846,
      "lat": 12.9354291,
      "lon": 77.6139861,
      "tags": {
        "name": "Woodlands",
        "shop": "shoes"
      }
    },
    {
      "type": "node",
      "id": 5983478262,
      "lat": 12.9374106,
      "lon": 77.6027513,
      "tags": {
        "alt_name": "BAMUL",
        "name": "Bangalore Dairy",
        "name:kn": "ಬೆಂಗಳೂರು ಡೈರಿ",
        "shop": "dairy"
      }
    },
    {
      "type": "node",
      "id": 5983489045,
      "lat": 12.9296155,
      "lon": 77.615275,
      "tags": {
        "amenity": "clock",
        "check_date": "2021-12-04",
        "support": "pole"
      }
    },
    {
      "type": "node",
      "id": 6067927667,
      "lat": 12.9354619,
      "lon": 77.6150961,
      "tags": {
        "addr:housenumber": "8",
        "addr:street": "80 Feet Road",
        "amenity": "restaurant",
        "cuisine": "asian",
        "level": "0;1",
        "name": "Xoox Brewmill",
        "smoking": "isolated",
        "toilets": "yes"
      }
    },
    {
      "type": "node",
      "id": 6140714666,
      "lat": 12.9353589,
      "lon": 77.6083993,
      "tags": {
        "amenity": "fast_food",
        "brand": "Domino's",
        "brand:ks": "ڈومینوز",
        "brand:pa": "ਡੋਮੀਨੋਜ਼",
        "brand:ur": "ڈومینوز",
        "brand:wikidata": "Q839466",
        "brand:wikipedia": "en:Domino's Pizza",
        "check_date": "2023-11-23",
        "cuisine": "pizza",
        "name": "Domino's",
        "name:kn": "ಡಾಮಿನೋಸ್",
        "name:ks": "ڈومینوز",
        "name:pa": "ਡੋਮੀਨੋਜ਼",
        "name:ur": "ڈومینوز",
        "takeaway": "yes"
      }
    },
    {
      "type": "node",
      "id": 6348906937,
      "lat": 12.9386863,
      "lon": 77.6072286,
      "tags": {
        "addr:place": "Dairy Colony",
        "amenity": "school",
        "isced:level": "2",
        "name": "GHPS Dairy Colony",
        "name:kn": "ಸರ್ಕಾರಿ ಹಿರಿಯ ಪ್ರಾಥಮಿಕ ಶಾಲೆ ಡೈರಿ ಕಾಲೋನಿ",
        "operator": "Department of Education",
        "school": "primary"
      }
    },
    {
      "type": "node",
      "id": 6348945619,
      "lat": 12.9305952,
      "lon": 77.6083105,
      "tags": {
        "addr:place": "Suddagunte Palya",
        "amenity": "school",
        "isced:level": "2",
        "name": "GHPS Suddagunte Palya",
        "name:kn": "ಸರ್ಕಾರಿ ಹಿರಿಯ ಪ್ರಾಥಮಿಕ ಶಾಲೆ ಸುದ್ದಗುಂಟೆ ಪಾಳ್ಯ",
        "operator": "Department of Primary and Secondary Education",
        "operator:type": "government",
        "operator:wikidata": "Q111467381",
        "school": "primary"
      }
    },
    {
      "type": "node",
      "id": 6349591431,
      "lat": 12.93132,
      "lon": 77.6088007,
      "tags": {
        "addr:place": "S G Palya",
        "amenity": "school",
        "isced:level": "2",
        "name": "Francescon S G Palya",
        "name:kn": "ಫ್ರಾನ್ಸೆಸ್ಕಾನ್ ಎಸ್.ಜಿ ಪಾಳ್ಯ",
        "operator": "Pvt. Aided",
        "school": "primary"
      }
    },
    {
      "type": "node",
      "id": 6515046862,
      "lat": 12.9325375,
      "lon": 77.613431,
      "tags": {
        "amenity": "toilets",
        "fee": "yes"
      }
    },
    {
      "type": "node",
      "id": 6536296450,
      "lat": 12.9356984,
      "lon": 77.6166336,
      "tags": {
        "addr:place": "Koramangala",
        "amenity": "school",
        "isced:level": "3",
        "name": "Holy Saint Eng Sch Koramangala",
        "name:kn": "ಹೋಲಿ ಸೇಂಟ್‌ ಆಂಗ್ಲ ಶಾಲೆ ಕೋರಮಂಗಲ",
        "operator": "Private Un-Aided",
        "school": "Higher Secondary"
      }
    },
    {
      "type": "node",
      "id": 6536303016,
      "lat": 12.935468,
      "lon": 77.6172102,
      "tags": {
        "addr:place": "Koramangala",
        "amenity": "school",
        "isced:level": "3",
        "name": "Neena HPS Kormangala",
        "name:kn": "ನೀನಾ ಹಿರಿಯ ಪ್ರಾಥಮಿಕ ಶಾಲೆ ಕೋರಮಂಗಲ",
        "operator": "Private Un-Aided",
        "school": "Higher Secondary"
      }
    },
    {
      "type": "node",
      "id": 6536678805,
      "lat": 12.9393229,
      "lon": 77.6076781,
      "tags": {
        "addr:place": "Lakkasandra",
        "amenity": "school",
        "isced:level": "1",
        "name": "GLPS (U) Adugodi, Lakkasandra",
        "name:kn": "ಸರ್ಕಾರಿ ಕಿರಿಯ ಪ್ರಾಥಮಿಕ ಶಾಲೆ(ಉರ್ದು)ಆಡುಗೋಡಿ, ಲಕ್ಕಸಂದ್ರ",
        "operator": "Department of Primary and Secondary Education",
        "operator:type": "government",
        "operator:wikidata": "Q111467381",
        "school": "primary"
      }
    },
    {
      "type": "node",
      "id": 6536731028,
      "lat": 12.9299028,
      "lon": 77.6071901,
      "tags": {
        "addr:place": "Lakkasandra",
        "amenity": "school",
        "isced:level": "3",
        "name": "Genises Public School, Lakkasandra",
        "name:kn": "ಜೆನೆಸಿಸ್ ಪಬ್ಲಿಕ್ ಶಾಲೆ, ಲಕ್ಕಸಂದ್ರ",
        "operator": "Pvt. Unaided",
        "school": "Higher Secondary"
      }
    },
    {
      "type": "node",
      "id": 6536937302,
      "lat": 12.9246386,
      "lon": 77.6149532,
      "tags": {
        "addr:place": "Madivala",
        "amenity": "school",
        "isced:level": "2",
        "name": "Padmavathi HPS Madivala",
        "name:kn": "ಪದ್ಮಾವತಿ ಹಿರಿಯ ಪ್ರಾಥಮಿಕ ಶಾಲೆ ಮಡಿವಾಳ",
        "operator": "Private Un-Aided",
        "school": "primary"
      }
    },
    {
      "type": "node",
      "id": 6536965027,
      "lat": 12.9237085,
      "lon": 77.6116936,
      "tags": {
        "addr:place": "Madivala",
        "amenity": "school",
        "isced": "3",
        "name": "A V S Convent, Madiwala",
        "name:kn": "ಎ.ವಿ.ಎಸ್ ಕಾನ್ವೆಂಟ್,ಮಡಿವಾಳ",
        "operator": "Private Un-Aided",
        "school": "Higher Secondary"
      }
    },
    {
      "type": "node",
      "id": 6690692245,
      "lat": 12.9228196,
      "lon": 77.6095716,
      "tags": {
        "addr:place": "Madiwala",
        "amenity": "school",
        "isced:level": "3",
        "name": "Indira Convent HS, Madiwala",
        "name:kn": "ಇಂದಿರಾ ಕಾನ್ವೆಂಟ್ ಪ್ರೌಢಶಾಲೆ,ಮಡಿವಾಳ",
        "operator": "Private Un-Aided",
        "school": "Higher Secondary"
      }
    },
    {
      "type": "node",
      "id": 6702757188,
      "lat": 12.9245862,
      "lon": 77.6150716,
      "tags": {
        "addr:place": "Madiwala",
        "amenity": "school",
        "isced:level": "3",
        "name": "RS Madivala School",
        "name:kn": "ಆರ್.ಎಸ್. ಮಡಿವಾಳ",
        "operator": "Private -Aided",
        "school": "Higher Secondary"
      }
    },
    {
      "type": "node",
      "id": 6938758526,
      "lat": 12.926471,
      "lon": 77.6167399,
      "tags": {
        "addr:district": "Bengaluru Urban",
        "addr:full": "#86 Hosur Main Road, Madivala",
        "addr:postcode": "560068",
        "addr:state": "Karnataka",
        "amenity": "hospital",
        "name": "Sri Venkateshwara Hospitals",
        "operator:type": "private",
        "source": "OpenGovernmentData",
        "website": "http://dpal.kar.nic.in/Kanunu%20padakosha%20PDF%20Files/Recognised%20Hospitals.pdf"
      }
    },
    {
      "type": "node",
      "id": 6944161560,
      "lat": 12.9273667,
      "lon": 77.6160046,
      "tags": {
        "addr:district": "Bengaluru Rural",
        "addr:full": "Maruthi Nagar, 1st Main, Madiwala",
        "addr:postcode": "560068",
        "addr:state": "Karnataka",
        "amenity": "clinic",
        "name": "City Clinic",
        "source": "OpenGovernmentData"
      }
    },
    {
      "type": "node",
      "id": 6944525392,
      "lat": 12.9356703,
      "lon": 77.6079905,
      "tags": {
        "addr:district": "Bengaluru Urban",
        "addr:full": "#11, Krishna Nagar Industrial Layout, D.R.C.Post,Near Christ College,Hosur",
        "addr:postcode": "560029",
        "addr:state": "Karnataka",
        "amenity": "hospital",
        "name": "Prasad Eye Hospital, Bengaluru Urban",
        "source": "OpenGovernmentData"
      }
    },
    {
      "type": "node",
      "id": 7035335585,
      "lat": 12.9317986,
      "lon": 77.6101387,
      "tags": {
        "name": "Look Smart",
        "shop": "clothes"
      }
    },
    {
      "type": "node",
      "id": 7035372785,
      "lat": 12.9314962,
      "lon": 77.609838,
      "tags": {
        "amenity": "restaurant",
        "cuisine": "chinese;chicken;asian;indian",
        "name": "BNG Dining",
        "phone": "7259452829"
      }
    },
    {
      "type": "node",
      "id": 7293804847,
      "lat": 12.9329058,
      "lon": 77.6134662,
      "tags": {
        "amenity": "restaurant",
        "cuisine": "indian",
        "name": "Taste of Rampur"
      }
    },
    {
      "type": "node",
      "id": 7293804877,
      "lat": 12.9333764,
      "lon": 77.6125275,
      "tags": {
        "addr:city": "Bengaluru",
        "addr:housename": "Salarpuria Towers",
        "addr:housenumber": "22",
        "addr:postcode": "560095",
        "addr:street": "Hosur Road",
        "addr:suburb": "Koramangala",
        "amenity": "coworking_space",
        "fee": "yes",
        "name": "315 Work Avenue",
        "office": "coworking",
        "operator": "315 Work Avenue",
        "website": "https://www.315workavenue.com"
      }
    },
    {
      "type": "node",
      "id": 7293817023,
      "lat": 12.9364493,
      "lon": 77.6107974,
      "tags": {
        "addr:city": "Bengaluru",
        "addr:country": "IN",
        "addr:hamlet": "Adugodi",
        "addr:housename": "Prestige Cube",
        "addr:housenumber": "26",
        "addr:postcode": "560029",
        "addr:street": "Hosur Road",
        "addr:suburb": "Koramangala",
        "amenity": "coworking_space",
        "brand": "WeWork",
        "brand:wikidata": "Q19995004",
        "fee": "yes",
        "name": "WeWork",
        "office": "coworking",
        "operator": "WeWork",
        "website": "https://www.wework.com/buildings/prestige-cube--bengaluru--Karnataka"
      }
    },
    {
      "type": "node",
      "id": 7293817077,
      "lat": 12.9388556,
      "lon": 77.6094228,
      "tags": {
        "addr:city": "Bangalore",
        "addr:postcode": "560030",
        "addr:street": "Hosur Road",
        "name": "Levi Strauss",
        "name:kn": "ಲೆವಿ ಸ್ಟ್ರೌಸ್",
        "shop": "clothes"
      }
    },
    {
      "type": "node",
      "id": 7528043661,
      "lat": 12.9377512,
      "lon": 77.6029632,
      "tags": {
        "name": "Bangalore Dairy",
        "name:kn": "ಬೆಂಗಳೂರು ಡೈರಿ",
        "shop": "dairy"
      }
    },
    {
      "type": "node",
      "id": 7528043670,
      "lat": 12.9338933,
      "lon": 77.6059367,
      "tags": {
        "leisure": "pitch",
        "name": "Gourmet Basketball Court",
        "sport": "basketball"
      }
    },
    {
      "type": "node",
      "id": 7528043683,
      "lat": 12.9288228,
      "lon": 77.6074009,
      "tags": {
        "name": "Arbiya Fashion Jewellery",
        "shop": "jewelry"
      }
    },
    {
      "type": "node",
      "id": 7528068987,
      "lat": 12.928049,
      "lon": 77.60724,
      "tags": {
        "amenity": "fast_food",
        "cuisine": "juice",
        "name": "DREAM JUICE"
      }
    },
    {
      "type": "node",
      "id": 7528068989,
      "lat": 12.9282084,
      "lon": 77.6066821,
      "tags": {
        "amenity": "ice_cream",
        "name": "BOMBAY KULFS"
      }
    },
    {
      "type": "node",
      "id": 7528068991,
      "lat": 12.9277065,
      "lon": 77.6063548,
      "tags": {
        "name": "New Badar Bakery",
        "shop": "bakery"
      }
    },
    {
      "type": "node",
      "id": 7528068992,
      "lat": 12.9281771,
      "lon": 77.6063602,
      "tags": {
        "name": "Anna Tea Shop",
        "shop": "tea"
      }
    },
    {
      "type": "node",
      "id": 7528068995,
      "lat": 12.9281352,
      "lon": 77.6052337,
      "tags": {
        "amenity": "place_of_worship",
        "name": "Vicariate House Precious Blood"
      }
    },
    {
      "type": "node",
      "id": 7528068996,
      "lat": 12.9282921,
      "lon": 77.605239,
      "tags": {
        "amenity": "atm",
        "operator": "AXIS BANK ATM"
      }
    },
    {
      "type": "node",
      "id": 7528068999,
      "lat": 12.92805,
      "lon": 77.6046838,
      "tags": {
        "amenity": "place_of_worship",
        "name": "Shiva Temple",
        "religion": "hindu"
      }
    },
    {
      "type": "node",
      "id": 7528069000,
      "lat": 12.9279298,
      "lon": 77.604767,
      "tags": {
        "amenity": "place_of_worship",
        "name": "Anthony Church",
        "religion": "christian"
      }
    },
    {
      "type": "node",
      "id": 7528069001,
      "lat": 12.934076,
      "lon": 77.6056306,
      "tags": {
        "amenity": "restaurant",
        "name": "Just Bake",
        "name:kn": "ಜಸ್ಟ್ ಬೇಕ್"
      }
    },
    {
      "type": "node",
      "id": 7528069002,
      "lat": 12.9337727,
      "lon": 77.6047348,
      "tags": {
        "amenity": "restaurant",
        "name": "Raja Rajeswari Hotel"
      }
    },
    {
      "type": "node",
      "id": 7579924711,
      "lat": 12.925461,
      "lon": 77.609021,
      "tags": {
        "addr:district": "Bengaluru Urban",
        "addr:full": "Maruti Nagar, Brindavan Nagar, BTM Layout, Bengaluru",
        "addr:postcode": "560029",
        "addr:state": "Karnataka",
        "amenity": "hospital",
        "name": "Lavis Hospital",
        "source": "Local Knowledge"
      }
    },
    {
      "type": "node",
      "id": 7579924764,
      "lat": 12.928795,
      "lon": 77.609192,
      "tags": {
        "addr:district": "Bengaluru Urban",
        "addr:full": "Thavarekere Main Road, Bengaluru",
        "addr:postcode": "560029",
        "addr:state": "Karnataka",
        "amenity": "dentist",
        "name": "Vinayaka Sai Dental Clinic",
        "source": "Local Knowledge"
      }
    },
    {
      "type": "node",
      "id": 7579924766,
      "lat": 12.9265183,
      "lon": 77.6090995,
      "tags": {
        "addr:district": "Bengaluru Urban",
        "addr:full": "Brindavan Nagar, S.G. Palya, Bengaluru",
        "addr:postcode": "560029",
        "addr:state": "Karnataka",
        "amenity": "hospital",
        "name": "Health India Hospital",
        "source": "Local Knowledge"
      }
    },
    {
      "type": "node",
      "id": 7579924779,
      "lat": 12.923857,
      "lon": 77.611355,
      "tags": {
        "addr:district": "Bengaluru Urban",
        "addr:full": "Taverekere, Bengaluru",
        "addr:postcode": "560029",
        "addr:state": "Karnataka",
        "amenity": "hospital",
        "name": "Spurthy Hospital",
        "source": "Local Knowledge"
      }
    },
    {
      "type": "node",
      "id": 7913548757,
      "lat": 12.9331848,
      "lon": 77.6139332,
      "tags": {
        "amenity": "bar",
        "name": "Smoky The sheesha lounge"
      }
    },
    {
      "type": "node",
      "id": 8428403226,
      "lat": 12.9305937,
      "lon": 77.6186159,
      "tags": {
        "amenity": "hospital",
        "healthcare": "hospital",
        "name": "St. Johns hospital Emergency ward"
      }
    },
    {
      "type": "node",
      "id": 8559578719,
      "lat": 12.9263406,
      "lon": 77.6037971,
      "tags": {
        "addr:postcode": "560030",
        "addr:street": "F cross, Bismillah Nagar , Bannerghatta Road, Bangalore",
        "amenity": "school",
        "name": "Lilly Rose English High School"
      }
    },
    {
      "type": "node",
      "id": 8645272055,
      "lat": 12.9333892,
      "lon": 77.6156339,
      "tags": {
        "amenity": "cafe",
        "currency:BCH": "yes",
        "name": "Candy Cloud",
        "website": "https://candycloudfactory.in"
      }
    },
    {
      "type": "node",
      "id": 9654389704,
      "lat": 12.9332287,
      "lon": 77.6146102,
      "tags": {
        "amenity": "restaurant",
        "name": "Sharief Bhai"
      }
    },