{
  "area_name": "Sarakki",
  "osm_id": 11304473527,
  "osm_type": "node",
  "place_type": "neighbourhood",
  "amenity_count": 382,
  "amenities": [
    {
      "type": "node",
      "id": 928188132,
      "lat": 12.9104601,
      "lon": 77.5823629,
      "tags": {
        "addr:street": "Sarakki Main Road (9th Cross)",
        "amenity": "place_of_worship",
        "name": "Sri Kalyana Venkateshwara Temple",
        "name:kn": "ಕಲ್ಯಾಣ ವೆಂಕಟೇಶ್ವರ ಸ್ವಾಮಿ",
        "religion": "hindu"
      }
    },
    {
      "type": "node",
      "id": 1272424543,
      "lat": 12.9073391,
      "lon": 77.5830655,
      "tags": {
        "addr:street": "29 Main",
        "address": "593 14th cross 29th main",
        "amenity": "hospital",
        "designation": "Clinic",
        "emergency": "no",
        "name": "Srinivas Clinic",
        "name:kn": "ಶ್ರೀನಿವಾಸ್ ಕ್ಲಿನಿಕ್"
      }
    },
    {
      "type": "node",
      "id": 1318917183,
      "lat": 12.9040043,
      "lon": 77.5734008,
      "tags": {
        "amenity": "restaurant",
        "brand": "Pizza Hut",
        "brand:wikidata": "Q191615",
        "cuisine": "pizza",
        "name": "Pizza Hut",
        "name:kn": "ಪಿಟ್ಸ ಹಟ್"
      }
    },
    {
      "type": "node",
      "id": 1331946754,
      "lat": 12.9109843,
      "lon": 77.5791221,
      "tags": {
        "amenity": "restaurant",
        "cuisine": "indian",
        "name": "Prasiddhi",
        "name:kn": "ಪ್ರಸಿದ್ಧಿ"
      }
    },
    {
      "type": "node",
      "id": 1331946767,
      "lat": 12.9115283,
      "lon": 77.5730096,
      "tags": {
        "amenity": "marketplace",
        "name": "Sarakki Market"
      }
    },
    {
      "type": "node",
      "id": 1331946768,
      "lat": 12.9107281,
      "lon": 77.5792052,
      "tags": {
        "brand": "Reliance Fresh",
        "brand:wikidata": "Q7311014",
        "name": "Reliance Fresh",
        "name:kn": "ರಿಲೈಯನ್ಸ್ ಫ್ರೆಶ್",
        "shop": "supermarket"
      }
    },
    {
      "type": "node",
      "id": 1331946772,
      "lat": 12.9113882,
      "lon": 77.5747186,
      "tags": {
        "amenity": "atm",
        "brand": "HDFC Bank",
        "brand:wikidata": "Q631047",
        "check_date": "2021-09-23",
        "operator": "HDFC Bank",
        "operator:wikidata": "Q631047",
        "short_name": "HDFC"
      }
    },
    {
      "type": "node",
      "id": 1331946776,
      "lat": 12.9056456,
      "lon": 77.5855728,
      "tags": {
        "amenity": "restaurant",
        "cuisine": "indian",
        "name": "Nandhini Deluxe",
        "name:kn": "ನಂದಿನಿ ಡಿಲಕ್ಸ್"
      }
    },
    {
      "type": "node",
      "id": 1331989769,
      "lat": 12.9022616,
      "lon": 77.5827185,
      "tags": {
        "amenity": "place_of_worship",
        "name": "Ganesha Temple",
        "name:kn": "ಗಣೇಶ ದೇವಸ್ಥಾನ",
        "religion": "hindu"
      }
    },
    {
      "type": "node",
      "id": 1331989779,
      "lat": 12.9027732,
      "lon": 77.5837541,
      "tags": {
        "amenity": "restaurant",
        "cuisine": "indian",
        "name": "Incara",
        "name:kn": "ಇಂಚರ"
      }
    },
    {
      "type": "node",
      "id": 1464921285,
      "lat": 12.9139266,
      "lon": 77.5854371,
      "tags": {
        "amenity": "bank",
        "atm": "yes",
        "brand": "State Bank of India",
        "brand:wikidata": "Q1340361",
        "brand:wikipedia": "en:State Bank of India",
        "name": "State Bank of India",
        "name:kn": "ಭಾರತೀಯ ಸ್ಟೇಟ್ ಬ್ಯಾಂಕ್",
        "short_name": "SBI"
      }
    },
    {
      "type": "node",
      "id": 1465138598,
      "lat": 12.9144392,
      "lon": 77.5858525,
      "tags": {
        "amenity": "bank",
        "atm": "yes",
        "brand": "HDFC Bank",
        "brand:wikidata": "Q631047",
        "brand:wikipedia": "en:HDFC Bank",
        "name": "HDFC Bank",
        "name:kn": "ಎಚ್ ಡಿ ಎಫ್ ಸಿ",
        "short_name": "HDFC",
        "website": "https://www.hdfcbank.com"
      }
    },
    {
      "type": "node",
      "id": 1473881036,
      "lat": 12.9168936,
      "lon": 77.5816496,
      "tags": {
        "name": "Krishnaiya Chetty and Sons",
        "shop": "jewelry"
      }
    },
    {
      "type": "node",
      "id": 1474277935,
      "lat": 12.9115238,
      "lon": 77.5783798,
      "tags": {
        "amenity": "pharmacy",
        "dispensing": "no",
        "healthcare": "pharmacy",
        "name": "Balaji Medicals",
        "name:kn": "ಬಾಲಾಜಿ ಮೆಡಿಕಲ್"
      }
    },
    {
      "type": "node",
      "id": 1474277938,
      "lat": 12.9135707,
      "lon": 77.5788941,
      "tags": {
        "addr:street": "Ayodhyarama Road",
        "amenity": "hospital",
        "name": "Parimala Clinic",
        "name:kn": "ಪರಿಮಳ ಚಿಕಿತ್ಸಾಲಯ"
      }
    },
    {
      "type": "node",
      "id": 1474277947,
      "lat": 12.9122041,
      "lon": 77.5784992,
      "tags": {
        "name": "Venkateshwara Stationary",
        "shop": "stationery"
      }
    },
    {
      "type": "node",
      "id": 1474277950,
      "lat": 12.9135528,
      "lon": 77.5787869,
      "tags": {
        "amenity": "pharmacy",
        "dispensing": "no",
        "name": "Vidya Medicals"
      }
    },
    {
      "type": "node",
      "id": 1474280054,
      "lat": 12.91702,
      "lon": 77.5782971,
      "tags": {
        "brand": "More",
        "brand:wikidata": "Q6910891",
        "name": "More",
        "shop": "supermarket"
      }
    },
    {
      "type": "node",
      "id": 1474282184,
      "lat": 12.9112343,
      "lon": 77.5784318,
      "tags": {
        "name": "Jagadamba Jewellers",
        "shop": "jewelry"
      }
    },
    {
      "type": "node",
      "id": 1474797135,
      "lat": 12.9143701,
      "lon": 77.5858719,
      "tags": {
        "name": "Taaza Mitai",
        "name:kn": "ತಾಜ ಮಿಟಾಯಿ",
        "shop": "confectionery"
      }
    },
    {
      "type": "node",
      "id": 1474800466,
      "lat": 12.9169431,
      "lon": 77.5822354,
      "tags": {
        "name": "Angadi Silks",
        "shop": "clothes"
      }
    },
    {
      "type": "node",
      "id": 1474800467,
      "lat": 12.9169333,
      "lon": 77.5802356,
      "tags": {
        "amenity": "bank",
        "atm": "yes",
        "brand": "Canara Bank",
        "brand:en": "Canara Bank",
        "brand:hi": "केनरा बैंक",
        "brand:kn": "ಕೆನರಾ ಬ್ಯಾಂಕ್",
        "brand:pa": "ਕੇਨਰਾ ਬੈਂਕ",
        "brand:pnb": "کینرا بینک",
        "brand:ur": "کینرا بینک",
        "brand:wikidata": "Q2003777",
        "brand:wikipedia": "en:Canara Bank",
        "brand:wikipedia:pa": "ਕੇਨਰਾ ਬੈਂਕ",
        "name": "Canara Bank",
        "name:en": "Canara Bank",
        "name:hi": "केनरा बैंक",
        "name:kn": "ಕೆನರಾ ಬ್ಯಾಂಕ್",
        "name:pa": "ਕੇਨਰਾ ਬੈਂਕ",
        "name:pnb": "کینرا بینک",
        "name:ur": "کینرا بینک",
        "website": "https://www.canarabank.com/"
      }
    },
    {
      "type": "node",
      "id": 1474800468,
      "lat": 12.9172523,
      "lon": 77.5821549,
      "tags": {
        "name": "Nalli Silks",
        "name:kn": "ನಳ್ಳಿ ಸಿಲ್ಕ್ಸ್",
        "shop": "clothes"
      }
    },
    {
      "type": "node",
      "id": 1732931230,
      "lat": 12.9116079,
      "lon": 77.58708,
      "tags": {
        "addr:street": "22nd Main",
        "amenity": "theatre",
        "name": "Ranga Shankara",
        "name:kn": "ರಂಗ ಶಂಕರ",
        "website": "http://www.rangashankara.org/",
        "wikidata": "Q7292595",
        "wikipedia": "en:Ranga Shankara"
      }
    },
    {
      "type": "node",
      "id": 1732932721,
      "lat": 12.9118641,
      "lon": 77.5867606,
      "tags": {
        "amenity": "restaurant",
        "name": "Adithya",
        "name:kn": "ಅದಿತ್ಯ"
      }
    },
    {
      "type": "node",
      "id": 1732933830,
      "lat": 12.91411,
      "lon": 77.5856235,
      "tags": {
        "amenity": "atm",
        "brand": "Corporation Bank",
        "brand:wikidata": "Q2003387",
        "name": "Corporation Bank",
        "operator": "Corporation Bank",
        "operator:wikidata": "Q2003387"
      }
    },
    {
      "type": "node",
      "id": 1922055380,
      "lat": 12.9017004,
      "lon": 77.5823794,
      "tags": {
        "name": "Posh Little",
        "note": "Baby Store",
        "shop": "toys"
      }
    },
    {
      "type": "node",
      "id": 2850537681,
      "lat": 12.9017134,
      "lon": 77.5824365,
      "tags": {
        "amenity": "library",
        "name": "Just Books CLC",
        "name:kn": "ಜಸ್ಟ್ ಬುಕ್ಸ್"
      }
    },
    {
      "type": "node",
      "id": 2893520202,
      "lat": 12.9103464,
      "lon": 77.5862157,
      "tags": {
        "brand": "Reliance Digital",
        "brand:wikidata": "Q7311012",
        "name": "Reliance Digital",
        "name:kn": "ರಿಲಾಯನ್ಸ್ ಡಿಜಿಟಲ್",
        "shop": "electronics"
      }
    },
    {
      "type": "node",
      "id": 2934051705,
      "lat": 12.9133572,
      "lon": 77.5859308,
      "tags": {
        "name": "Cakewala",
        "shop": "bakery"
      }
    },
    {
      "type": "node",
      "id": 2934051706,
      "lat": 12.9136778,
      "lon": 77.5856582,
      "tags": {
        "brand": "Liberty",
        "brand:wikidata": "Q6541947",
        "name": "Liberty Exclusive Showroom",
        "name:kn": "ಲಿಬರ್ಟಿ",
        "shop": "shoes"
      }
    },
    {
      "type": "node",
      "id": 2934051707,
      "lat": 12.9136768,
      "lon": 77.5859029,
      "tags": {
        "amenity": "restaurant",
        "name": "Shanthi Sagar",
        "name:kn": "ಶಾಂತಿ ಸಾಗರ"
      }
    },
    {
      "type": "node",
      "id": 2934051708,
      "lat": 12.9123213,
      "lon": 77.5855908,
      "tags": {
        "amenity": "restaurant",
        "cuisine": "indian",
        "name": "Siddhas Veg"
      }
    },
    {
      "type": "node",
      "id": 2934051709,
      "lat": 12.9124015,
      "lon": 77.5856011,
      "tags": {
        "name": "Yash Technologies",
        "note": "Laptop Repairs",
        "shop": "computer"
      }
    },
    {
      "type": "node",
      "id": 2934090869,
      "lat": 12.9147454,
      "lon": 77.5859258,
      "tags": {
        "name": "Foodworld",
        "name:kn": "ಫುಡ್ ವರ್ಲ್ಡ್",
        "shop": "department_store"
      }
    },
    {
      "type": "node",
      "id": 2934090870,
      "lat": 12.9145899,
      "lon": 77.5857184,
      "tags": {
        "amenity": "bank",
        "atm": "yes",
        "brand": "ICICI Bank",
        "brand:wikidata": "Q1653258",
        "name": "ICICI Bank",
        "name:en": "ICICI Bank",
        "name:kn": "ಐಸಿಐಸಿಐ ಬ್ಯಾಂಕು",
        "short_name": "ICICI",
        "website": "https://www.icicibank.com"
      }
    },
    {
      "type": "node",
      "id": 2934090872,
      "lat": 12.9152396,
      "lon": 77.585919,
      "tags": {
        "alt_name": "Kentucky Fried Chicken",
        "alt_name:en": "Kentucky Fried Chicken",
        "alt_name:hi": "केंटुकी फ्राइड चिकन",
        "alt_name:pa": "ਕੈਂਟੁਕੀ ਫ੍ਰਾਈਡ ਚਿਕਨ",
        "alt_name:pnb": "کینٹکی فرائیڈ چکن",
        "alt_name:ur": "کینٹکی فرائیڈ چکن",
        "amenity": "fast_food",
        "brand": "KFC",
        "brand:en": "KFC",
        "brand:hi": "केएफसी",
        "brand:pa": "ਕੇਐਫਸੀ",
        "brand:pnb": "کے ایف سی",
        "brand:ur": "کے ایف سی",
        "brand:wikidata": "Q524757",
        "brand:wikipedia": "en:KFC",
        "brand:wikipedia:pa": "ਕੇਐਫਸੀ",
        "brand:wikipedia:ur": "کینٹکی فرائیڈ چکن",
        "cuisine": "chicken",
        "name": "KFC",
        "name:en": "KFC",
        "name:hi": "केएफसी",
        "name:kn": "ಕೆಎಫ್‌ಸಿ",
        "name:pa": "ਕੇਐਫਸੀ",
        "name:pnb": "کے ایف سی",
        "name:ur": "کے ایف سی",
        "takeaway": "yes"
      }
    },
    {
      "type": "node",
      "id": 2934090873,
      "lat": 12.9155443,
      "lon": 77.5857799,
      "tags": {
        "name": "Mockaholic",
        "shop": "beverages"
      }
    },
    {
      "type": "node",
      "id": 2934090874,
      "lat": 12.9151486,
      "lon": 77.5857021,
      "tags": {
        "amenity": "bank",
        "atm": "yes",
        "brand": "State Bank of India",
        "brand:wikidata": "Q1340361",
        "brand:wikipedia": "en:State Bank of India",
        "name": "State Bank of India",
        "name:kn": "ಭಾರತೀಯ ಸ್ಟೇಟ್ ಬ್ಯಾಂಕ್",
        "short_name": "SBI"
      }
    },
    {
      "type": "node",
      "id": 2934090875,
      "lat": 12.9149792,
      "lon": 77.5859134,
      "tags": {
        "name": "Viveks",
        "shop": "electronics"
      }
    },
    {
      "type": "node",
      "id": 2934090876,
      "lat": 12.9153853,
      "lon": 77.585774,
      "tags": {
        "name": "3m Car Care",
        "shop": "yes"
      }
    },
    {
      "type": "node",
      "id": 3010263827,
      "lat": 12.9055717,
      "lon": 77.5855866,
      "tags": {
        "amenity": "atm",
        "brand": "Yes Bank",
        "brand:wikidata": "Q2040394",
        "name": "Yes Bank",
        "name:kn": "ಯಸ್ ಬ್ಯಾಂಕ್",
        "operator": "Yes Bank",
        "operator:wikidata": "Q2040394",
        "source": "voice, GPS"
      }
    },
    {
      "type": "node",
      "id": 3016052460,
      "lat": 12.9049455,
      "lon": 77.5856013,
      "tags": {
        "amenity": "bank",
        "atm": "no",
        "brand": "Bank of Maharashtra",
        "brand:wikidata": "Q2004304",
        "brand:wikipedia": "en:Bank of Maharashtra",
        "name": "Bank of Maharashtra",
        "name:en": "Bank of Maharashtra",
        "name:kn": "ಬ್ಯಾಂಕ್ ಆಫ್ ಮಹರಾಷ್ಟ್ರ",
        "website": "https://www.bankofmaharashtra.in/",
        "wheelchair": "no"
      }
    },
    {
      "type": "node",
      "id": 3016052465,
      "lat": 12.9059571,
      "lon": 77.58558,
      "tags": {
        "name": "Linen Club - The Ramp",
        "shop": "clothes"
      }
    },
    {
      "type": "node",
      "id": 3016052467,
      "lat": 12.9060964,
      "lon": 77.5855631,
      "tags": {
        "amenity": "fast_food",
        "brand": "McDonald's",
        "brand:pa": "ਮੈਕਡੋਨਲਡ’ਜ਼",
        "brand:ur": "مکڈونلڈز",
        "brand:wikidata": "Q38076",
        "brand:wikipedia": "en:McDonald's",
        "brand:wikipedia:pa": "ਮੈਕਡੋਨਲਡ’ਜ਼",
        "brand:wikipedia:ur": "مکڈونلڈز",
        "check_date": "2023-10-27",
        "cuisine": "burger",
        "name": "McDonald's",
        "name:kn": "ಮ್ಯಾಕ್‌ಡೊನಾಲ್ಡ್ಸ್",
        "name:pa": "ਮੈਕਡੋਨਲਡ’ਜ਼",
        "name:ur": "مکڈونلڈز",
        "takeaway": "yes"
      }
    },
    {
      "type": "node",
      "id": 3016090357,
      "lat": 12.9020984,
      "lon": 77.5859455,
      "tags": {
        "amenity": "bank",
        "atm": "no",
        "brand": "Allahabad Bank",
        "brand:wikidata": "Q2018840",
        "brand:wikipedia": "en:Allahabad Bank",
        "name": "Allahabad Bank",
        "name:en": "Allahabad Bank",
        "name:kn": "ಅಲ್ಲಹಾಬಾದ್ ಬ್ಯಾಂಕ್",
        "website": "https://www.allahabadbank.in",
        "wheelchair": "no"
      }
    },
    {
      "type": "node",
      "id": 3016090364,
      "lat": 12.9055088,
      "lon": 77.5858347,
      "tags": {
        "addr:city": "bangalore",
        "addr:housenumber": "250",
        "addr:postcode": "560078",
        "addr:street": "24th Main, 5th Phase, Opp Nandini Hotel, Puttenhalli, JP Nagar",
        "amenity": "hospital",
        "name": "Cloud Nine Fertility",
        "name:kn": "ಕ್ಲೌಡ್ ನೈನ್ ಫರ್ಟಿಲಿಟಿ",
        "phone": "080 4350 0123",
        "source": "justdial",
        "website": "https://www.cloudninefertility.com/",
        "wheelchair": "limited"
      }
    },
    {
      "type": "node",
      "id": 3016090365,
      "lat": 12.903812,
      "lon": 77.5858613,
      "tags": {
        "amenity": "bank",
        "atm": "no",
        "brand": "IDBI Bank",
        "brand:wikidata": "Q3633485",
        "brand:wikipedia": "en:IDBI Bank",
        "name": "IDBI Bank",
        "name:en": "IDBI Bank",
        "name:kn": "ಐಡಿಬಿಐ ಬ್ಯಾಂಕ್",
        "old_name": "Industrial Development Bank of India",
        "operator": "IDBI Bank",
        "short_name": "IDBI",
        "website": "https://www.idbi.com",
        "wheelchair": "no"
      }
    },
    {
      "type": "node",
      "id": 3016587966,
      "lat": 12.901616,
      "lon": 77.5822469,
      "tags": {
        "name": "James Bond Dry Cleaners",
        "shop": "dry_cleaning"
      }
    },
    {
      "type": "node",
      "id": 3024967815,
      "lat": 12.904523,
      "lon": 77.5803913,
      "tags": {
        "amenity": "atm",
        "brand": "Axis Bank",
        "brand:wikidata": "Q2003549",
        "name": "Axis Bank",
        "name:kn": "ಆಕ್ಸಿಸ್ ಬ್ಯಾಂಕ್",
        "operator": "Axis Bank",
        "operator:wikidata": "Q2003549"
      }
    },
    {
      "type": "node",
      "id": 3217683307,
      "lat": 12.9058455,
      "lon": 77.5858943,
      "tags": {
        "amenity": "bank",
        "atm": "no",
        "brand": "Citi Union Bank",
        "name": "Citi Union Bank",
        "name:kn": "ಸಿಟಿ ಯುನಿಯನ್ ಬ್ಯಾಂಕ್",
        "operator": "Citi Union Bank",
        "source": "survey",
        "wheelchair": "no"
      }
    },
    {
      "type": "node",
      "id": 3217683309,
      "lat": 12.9051478,
      "lon": 77.5858377,
      "tags": {
        "name": "Eye World Opticians",
        "shop": "optician",
        "source": "survey"
      }
    },
    {
      "type": "node",
      "id": 3217683311,
      "lat": 12.9043815,
      "lon": 77.5858999,
      "tags": {
        "amenity": "restaurant",
        "cuisine": "indian",
        "name": "Vasantha Grand",
        "name:kn": "ಶ್ರೀಕೃಷ್ಣ ಸಾಗರ",
        "source": "survey"
      }
    },
    {
      "type": "node",
      "id": 3220549890,
      "lat": 12.9033409,
      "lon": 77.5856019,
      "tags": {
        "name": "Kidzon",
        "shop": "baby_goods",
        "source": "survey"
      }
    },
    {
      "type": "node",
      "id": 3220550248,
      "lat": 12.9058961,
      "lon": 77.5802982,
      "tags": {
        "amenity": "restaurant",
        "cuisine": "indian",
        "name": "Vinaya Cafe",
        "name:kn": "ವಿನಯ ಕೆಫೆ",
        "source": "survey"
      }
    },
    {
      "type": "node",
      "id": 3221380824,
      "lat": 12.9065734,
      "lon": 77.5823503,
      "tags": {
        "amenity": "veterinary",
        "name": "Pampapathi Veterinary Centre",
        "name:kn": "ಪಂಪಾಪತಿ ಪಶು ಕೇಂದ್ರ"
      }
    },
    {
      "type": "node",
      "id": 3226825473,
      "lat": 12.9044659,
      "lon": 77.5802459,
      "tags": {
        "amenity": "restaurant",
        "cuisine": "indian",
        "name": "Karavali Garden Restaurant",
        "name:kn": "ಕರಾವಳಿ ಗಾರ್ಡನ್ ರೆಸ್ಟೋರೆಂಟ್"
      }
    },
    {
      "type": "node",
      "id": 3226825476,
      "lat": 12.9065306,
      "lon": 77.5804788,
      "tags": {
        "amenity": "post_box",
        "operator": "India Post",
        "operator:wikidata": "Q3519720"
      }
    },
    {
      "type": "node",
      "id": 3377391054,
      "lat": 12.9098297,
      "lon": 77.5811845,
      "tags": {
        "amenity": "school",
        "name": "The Oxford Secondary School"
      }
    },
    {
      "type": "node",
      "id": 3377392810,
      "lat": 12.9099238,
      "lon": 77.5813562,
      "tags": {
        "amenity": "bank",
        "atm": "no",
        "brand": "Bank of Baroda",
        "brand:wikidata": "Q2003797",
        "name": "Bank of Baroda",
        "name:kn": "ವಿಜಯ ಬ್ಯಾಂಕು"
      }
    },
    {
      "type": "node",
      "id": 3377392811,
      "lat": 12.9099264,
      "lon": 77.5810745,
      "tags": {
        "amenity": "atm",
        "brand": "Bank of Baroda",
        "brand:wikidata": "Q2003797",
        "name": "Bank of Baroda",
        "operator": "Bank of Baroda",
        "operator:wikidata": "Q2003797"
      }
    },
    {
      "type": "node",
      "id": 3381393095,
      "lat": 12.9092617,
      "lon": 77.5817945,
      "tags": {
        "amenity": "atm",
        "brand": "HDFC Bank",
        "brand:wikidata": "Q631047",
        "cash_in": "no",
        "check_date": "2023-11-01",
        "name": "HDFC Bank",
        "name:kn": "ಎಚ್ ಡಿ ಎಫ್ ಸಿ",
        "operator": "HDFC Bank",
        "operator:wikidata": "Q631047",
        "short_name": "HDFC"
      }
    },
    {
      "type": "node",
      "id": 3381393099,
      "lat": 12.9105018,
      "lon": 77.5816131,
      "tags": {
        "amenity": "restaurant",
        "cuisine": "South_Indian",
        "name": "Sri Upahara",
        "smoking": "no"
      }
    },
    {
      "type": "node",
      "id": 3381398164,
      "lat": 12.9104876,
      "lon": 77.581675,
      "tags": {
        "name": "Muthoot Finance",
        "name:kn": "ಮುತ್ತೂಟ್ ಫೈನಾನ್ಸ್",
        "shop": "pawnbroker"
      }
    },
    {
      "type": "node",
      "id": 3381398165,
      "lat": 12.9104628,
      "lon": 77.5816568,
      "tags": {
        "leisure": "sports_centre",
        "name": "Rock Fitness"
      }
    },
    {
      "type": "node",
      "id": 3381400341,
      "lat": 12.9104906,
      "lon": 77.5815408,
      "tags": {
        "addr:street": "Sarakki Main Road (9th Cross)",
        "amenity": "bank",
        "atm": "no",
        "brand": "State Bank of India",
        "brand:wikidata": "Q1340361",
        "brand:wikipedia": "en:State Bank of India",
        "name": "State Bank of India",
        "name:kn": "ಭಾರತೀಯ ಸ್ಟೇಟ್ ಬ್ಯಾಂಕ್",
        "short_name": "SBI"
      }
    },
    {
      "type": "node",
      "id": 3393457970,
      "lat": 12.9096963,
      "lon": 77.5808492,
      "tags": {
        "amenity": "college",
        "name": "The Oxford College of Hotel Management"
      }
    },
    {
      "type": "node",
      "id": 3393457971,
      "lat": 12.9098009,
      "lon": 77.5808465,
      "tags": {
        "amenity": "college",
        "name": "The Oxford Pre-University College"
      }
    },
    {
      "type": "node",
      "id": 3393457972,
      "lat": 12.9095133,
      "lon": 77.5812489,
      "tags": {
        "amenity": "school",
        "name": "The Oxford English School"
      }
    },
    {
      "type": "node",
      "id": 3393457974,
      "lat": 12.9098297,
      "lon": 77.5812542,
      "tags": {
        "amenity": "school",
        "name": "The Oxford Senior Secondary School"
      }
    },
    {
      "type": "node",
      "id": 3393458919,
      "lat": 12.9095343,
      "lon": 77.5808465,
      "tags": {
        "amenity": "college",
        "level": "0",
        "name": "The Oxford Evening Polytechnic"
      }
    },
    {
      "type": "node",
      "id": 3393458920,
      "lat": 12.9098532,
      "lon": 77.5808465,
      "tags": {
        "amenity": "college",
        "name": "The Oxford Polytechnic"
      }
    },
    {
      "type": "node",
      "id": 3393466557,
      "lat": 12.9106895,
      "lon": 77.581347,
      "tags": {
        "name": "Nandini",
        "name:kn": "ನಂದಿನಿ",
        "shop": "dairy"
      }
    },
    {
      "type": "node",
      "id": 3393478952,
      "lat": 12.910501,
      "lon": 77.5818478,
      "tags": {
        "name": "Hot N Cool",
        "shop": "convenience"
      }
    },
    {
      "type": "node",
      "id": 3393478953,
      "lat": 12.9100928,
      "lon": 77.5811668,
      "tags": {
        "amenity": "dentist",
        "healthcare": "dentist",
        "name": "The Oxford Children's Dental Clinic"
      }
    },
    {
      "type": "node",
      "id": 3393478954,
      "lat": 12.9100822,
      "lon": 77.5815125,
      "tags": {
        "amenity": "school",
        "name": "The Oxford Primary School"
      }
    },
    {
      "type": "node",
      "id": 3393483876,
      "lat": 12.9096977,
      "lon": 77.5806118,
      "tags": {
        "amenity": "parking"
      }
    },
    {
      "type": "node",
      "id": 3393485024,
      "lat": 12.9105063,
      "lon": 77.5819403,
      "tags": {
        "amenity": "pharmacy",
        "brand": "Apollo Pharmacy",
        "brand:wikidata": "Q62562612",
        "healthcare": "pharmacy",
        "name": "Apollo Pharmacy",
        "name:kn": "ಅಪೋಲೋ ಫಾರ್ಮಸಿ"
      }
    },
    {
      "type": "node",
      "id": 3393485027,
      "lat": 12.910505,
      "lon": 77.5820811,
      "tags": {
        "amenity": "cafe",
        "name": "H.S.M Iyengar"
      }
    },
    {
      "type": "node",
      "id": 3393501416,
      "lat": 12.9107057,
      "lon": 77.5835123,
      "tags": {
        "amenity": "bank",
        "atm": "yes",
        "brand": "Indian Bank",
        "brand:wikidata": "Q2003789",
        "brand:wikipedia": "en:Indian Bank",
        "name": "Indian Bank",
        "name:en": "Indian Bank",
        "name:kn": "ಇಂಡಿಯನ್ ಬ್ಯಾಂಕ್",
        "website": "https://www.indianbank.in/"
      }
    },
    {
      "type": "node",
      "id": 3393504221,
      "lat": 12.9106315,
      "lon": 77.584622,
      "tags": {
        "addr:city": "Bangalore",
        "addr:district": "Bengaluru",
        "addr:street": "1st Phase, JP Nagar",
        "amenity": "restaurant",
        "check_date": "2023-11-01",
        "cuisine": "regional",
        "diet:vegan": "on_demand",
        "diet:vegetarian": "only",
        "dog": "no",
        "image:menu": "https://panoramax.mapcomplete.org/api/pictures/0d6781a7-eb83-4304-81d0-82fc4daf457f/hd.jpg",
        "image:menu:0": "https://panoramax.mapcomplete.org/api/pictures/4e9e5fb1-89c2-473b-a47b-439ae2136cdb/hd.jpg",
        "indoor_seating": "yes",
        "internet_access": "no",
        "name": "Paakashala",
        "outdoor_seating": "no",
        "reservation": "yes",
        "service:electricity": "limited",
        "smoking": "no",
        "takeaway": "yes",
        "website": "https://paakashala.com/",
        "wheelchair": "limited"
      }
    },
    {
      "type": "node",
      "id": 3393511032,
      "lat": 12.9106137,
      "lon": 77.5805904,
      "tags": {
        "amenity": "restaurant",
        "cuisine": "regional",
        "delivery": "no",
        "name": "Spicy Tree"
      }
    },
    {
      "type": "node",
      "id": 3393514749,
      "lat": 12.9109507,
      "lon": 77.5794442,
      "tags": {
        "leisure": "sports_centre",
        "name": "O2 The fitness..."
      }
    },
    {
      "type": "node",
      "id": 3393519681,
      "lat": 12.9109471,
      "lon": 77.5793168,
      "tags": {
        "amenity": "bank",
        "atm": "yes",
        "brand": "Canara Bank",
        "brand:en": "Canara Bank",
        "brand:hi": "केनरा बैंक",
        "brand:kn": "ಕೆನರಾ ಬ್ಯಾಂಕ್",
        "brand:pa": "ਕੇਨਰਾ ਬੈਂਕ",
        "brand:pnb": "کینرا بینک",
        "brand:ur": "کینرا بینک",
        "brand:wikidata": "Q2003777",
        "brand:wikipedia": "en:Canara Bank",
        "brand:wikipedia:pa": "ਕੇਨਰਾ ਬੈਂਕ",
        "name": "Canara Bank",
        "name:en": "Canara Bank",
        "name:hi": "केनरा बैंक",
        "name:kn": "ಕೆನರಾ ಬ್ಯಾಂಕ್",
        "name:pa": "ਕੇਨਰਾ ਬੈਂਕ",
        "name:pnb": "کینرا بینک",
        "name:ur": "کینرا بینک",
        "website": "https://www.canarabank.com/"
      }
    },
    {
      "type": "node",
      "id": 3393519682,
      "lat": 12.9109649,
      "lon": 77.5792295,
      "tags": {
        "name": "Zuari Furniture",
        "shop": "furniture"
      }
    },
    {
      "type": "node",
      "id": 3393524592,
      "lat": 12.9110032,
      "lon": 77.5788747,
      "tags": {
        "addr:street": "Sarakki Main Road (9th Cross)",
        "amenity": "bank",
        "atm": "yes",
        "brand": "State Bank of India",
        "brand:wikidata": "Q1340361",
        "brand:wikipedia": "en:State Bank of India",
        "name": "State Bank of India",
        "name:kn": "ಮೈಸೂರು ಬ್ಯಾಂಕ್‌",
        "short_name": "SBI",
        "website": "https://www.sbi.co.in"
      }
    },
    {
      "type": "node",
      "id": 3393524601,
      "lat": 12.911014,
      "lon": 77.5788106,
      "tags": {
        "amenity": "bank",
        "brand": "Western Union",
        "brand:wikidata": "Q861042",
        "name": "Western Union"
      }
    },
    {
      "type": "node",
      "id": 3393528194,
      "lat": 12.9108052,
      "lon": 77.5786692,
      "tags": {
        "amenity": "pharmacy",
        "name": "Life Care Medicals"
      }
    },
    {
      "type": "node",
      "id": 3393528195,
      "lat": 12.910803,
      "lon": 77.5787134,
      "tags": {
        "name": "Hello Baby",
        "shop": "toys"
      }
    },
    {
      "type": "node",
      "id": 3393528606,
      "lat": 12.9110032,
      "lon": 77.5786913,
      "tags": {
        "amenity": "clinic",
        "name": "JP Nagar Diagnostic Centre"
      }
    },
    {
      "type": "node",
      "id": 3393529289,
      "lat": 12.9110205,
      "lon": 77.578656,
      "tags": {
        "amenity": "clinic",
        "healthcare": "physiotherapist",
        "name": "JP Nagar Physiotherapy Clinic"
      }
    },
    {
      "type": "node",
      "id": 3393529951,
      "lat": 12.9110226,
      "lon": 77.578561,
      "tags": {
        "amenity": "restaurant",
        "cuisine": "regional",
        "name": "Rolls of heaven"
      }
    },
    {
      "type": "node",
      "id": 3393529952,
      "lat": 12.9108461,
      "lon": 77.5782827,
      "tags": {
        "amenity": "restaurant",
        "name": "Sri Devi"
      }
    },
    {
      "type": "node",
      "id": 3393531562,
      "lat": 12.9110549,
      "lon": 77.5781943,
      "tags": {
        "amenity": "atm",
        "name": "Kotak Bank",
        "name:kn": "ಕೋಟಕ್ ಮಹಿಂದ್ರ ಬ್ಯಾಂಕ್"
      }
    },
    {
      "type": "node",
      "id": 3393531563,
      "lat": 12.9110743,
      "lon": 77.5780397,
      "tags": {
        "amenity": "restaurant",
        "name": "Sunrise Restaurant"
      }
    },
    {
      "type": "node",
      "id": 3393531564,
      "lat": 12.9110743,
      "lon": 77.5780949,
      "tags": {
        "name": "Nayana Fabco",
        "shop": "clothes"
      }
    },
    {
      "type": "node",
      "id": 3394938755,
      "lat": 12.9104137,
      "lon": 77.5818078,
      "tags": {
        "amenity": "pharmacy",
        "healthcare": "pharmacy",
        "name": "Shree Sai Ram Drug House"
      }
    },
    {
      "type": "node",
      "id": 3394944799,
      "lat": 12.9105047,
      "lon": 77.581862,
      "tags": {
        "addr:floor": "0",
        "addr:housenumber": "1st floor",
        "addr:street": "Sarakki Main Road (9th Cross)",
        "check_date": "2023-11-01",
        "name": "Sri Krishna Cake Palace",
        "shop": "bakery"
      }
    },
    {
      "type": "node",
      "id": 3394944800,
      "lat": 12.9104994,
      "lon": 77.5818295,
      "tags": {
        "addr:floor": "1",
        "check_date": "2023-11-01",
        "name": "Omika Bridal Hair & Skin Care",
        "shop": "beauty"
      }
    },
    {
      "type": "node",
      "id": 3394950260,
      "lat": 12.9108005,
      "lon": 77.5809977,
      "tags": {
        "name": "Archies Paper Rose Shoppe",
        "shop": "gift"
      }
    },
    {
      "type": "node",
      "id": 3394967010,
      "lat": 12.9085186,
      "lon": 77.5811693,
      "tags": {
        "name": "Nandini Milk Booth",
        "name:kn": "ನಂದಿನಿ ಹಾಲಿನ ಅಂಗಡಿ",
        "shop": "dairy"
      }
    },
    {
      "type": "node",
      "id": 3397786440,
      "lat": 12.9066169,
      "lon": 77.5858809,
      "tags": {
        "name": "Mithai Mane",
        "shop": "bakery"
      }
    },
    {
      "type": "node",
      "id": 3450259414,
      "lat": 12.9172738,
      "lon": 77.5804687,
      "tags": {
        "amenity": "post_box",
        "operator": "India Post",
        "operator:wikidata": "Q3519720"
      }
    },
    {
      "type": "node",
      "id": 3509485568,
      "lat": 12.9175165,
      "lon": 77.5780372,
      "tags": {
        "amenity": "bank",
        "brand": "ICICI Bank",
        "brand:wikidata": "Q1653258",
        "name": "ICICI Bank",
        "name:en": "ICICI Bank",
        "name:kn": "ಐಸಿಐಸಿಐ ಬ್ಯಾಂಕು",
        "short_name": "ICICI",
        "website": "https://www.icicibank.com"
      }
    },
    {
      "type": "node",
      "id": 4187514189,
      "lat": 12.9105778,
      "lon": 77.5807084,
      "tags": {
        "addr:street": "Sarakki Main Road (9th Cross)",
        "amenity": "fast_food",
        "name": "Crunch Sip"
      }
    },
    {
      "type": "node",
      "id": 4320467192,
      "lat": 12.9085614,
      "lon": 77.5859107,
      "tags": {
        "amenity": "restaurant",
        "check_date": "2023-11-01",
        "cuisine": "indian;chinese",
        "diet:vegetarian": "yes",
        "name": "24th Main Pan Indian Bistro",
        "name:kn": "೨೪ನೇ ಮುಖ್ಯ ರಸ್ತೆ",
        "opening_hours": "12:00-22:30",
        "payment:mastercard": "yes",
        "payment:visa": "yes",
        "phone": "+91 99000 92564",
        "website": "https://www.24thmain.com"
      }
    },
    {
      "type": "node",
      "id": 4321223315,
      "lat": 12.9065707,
      "lon": 77.5875216,
      "tags": {
        "addr:street": "Outer Ring Road",
        "check_date": "2023-09-11",
        "name": "Damro",
        "opening_hours": "10:30-21:00",
        "shop": "furniture"
      }
    },
    {
      "type": "node",
      "id": 4321245416,
      "lat": 12.9030809,
      "lon": 77.5855786,
      "tags": {
        "addr:street": "24th Main",
        "air_conditioning": "yes",
        "amenity": "restaurant",
        "contact:website": "https://thezaitoon.com/",
        "cuisine": "arab",
        "level": "1",
        "name": "Zaitoon",
        "name:kn": "ಜಾಐಟುನ್",
        "opening_hours": "Mo-Su 11:30-23:30",
        "toilets": "yes",
        "wheelchair": "no"
      }
    },
    {
      "type": "node",
      "id": 4321245702,
      "lat": 12.9060223,
      "lon": 77.5853926,
      "tags": {
        "addr:street": "Aurobindo Marg (24th Main)",
        "leisure": "fitness_centre",
        "name": "Body Vignyan"
      }
    },
    {
      "type": "node",
      "id": 4360018599,
      "lat": 12.9172779,
      "lon": 77.580441,
      "tags": {
        "amenity": "toilets"
      }
    },
    {
      "type": "node",
      "id": 4360019301,
      "lat": 12.9166705,
      "lon": 77.5834214,
      "tags": {
        "addr:city": "Bangalore",
        "addr:district": "Bengaluru Urban",
        "addr:housenumber": "499/32-4",
        "addr:postcode": "560078",
        "addr:street": "9th Main, 46th Cross Rd, 5th Block, Jayanagar",
        "air_conditioning": "yes",
        "amenity": "restaurant",
        "bar": "yes",
        "capacity": "80",
        "contact:facebook": "https://www.facebook.com/gardenbysu/",
        "cuisine": "indian;italian;italian_pizza;italian_pasta;burger;japanese;sushi;mexican;thai;ice_cream;greek;international;mediterranean;bistro",
        "delivery": "yes",
        "description": "Garden By Su, a global vegetarian fine dine restaurant which also serves wine.",
        "diet:gluten_free": "yes",
        "diet:halal": "yes",
        "diet:vegan": "yes",
        "diet:vegetarian": "yes",
        "email": "hello@gardenbysu.com",
        "highchair": "yes",
        "internet_access": "wlan",
        "internet_access:fee": "no",
        "internet_access:ssid": "GardenBySu",
        "level": "0",
        "microbrewery": "no",
        "mobile": "+918971228404",
        "name": "Garden By Su",
        "official_name": "Asai Hospitality & Management LLP",
        "opening_hours": "Mo-Su 12:00-23:00",
        "organic": "yes",
        "outdoor_seating": "yes",
        "payment:app": "yes",
        "payment:cash": "yes",
        "payment:contactless": "yes",
        "payment:credit_cards": "yes",
        "payment:debit_cards": "yes",
        "payment:diners_club": "yes",
        "payment:google_pay": "yes",
        "payment:maestro": "yes",
        "payment:mastercard": "yes",
        "payment:mastercard_contactless": "yes",
        "payment:visa": "yes",
        "payment:visa_debit": "yes",
        "phone": "+918971228404",
        "ref:vatin": "29ABTFA0725G1ZB",
        "reservation": "recommended",
        "smoking": "outside",
        "source": "streetlevel imagery;gps",
        "start_date": "2024-06-29",
        "takeaway": "yes",
        "toilets": "yes",
        "toilets:wheelchair": "limited",
        "website": "https://www.gardenbysu.com/",
        "website:menu": "https://www.gardenbysu.com/",
        "wheelchair": "limited"
      }
    },
    {
      "type": "node",
      "id": 4360077089,
      "lat": 12.9118329,
      "lon": 77.5859133,
      "tags": {
        "amenity": "restaurant",
        "name": "Namma Adda",
        "name:kn": "ನಮ್ಮ ಅಡ್ಡ"
      }
    },
    {
      "type": "node",
      "id": 4447156427,
      "lat": 12.9062193,
      "lon": 77.580682,
      "tags": {
        "addr:city": "Bengaluru",
        "addr:district": "Bengaluru Urban",
        "addr:full": "#726, 17Th Cross, 6Th Phase, J.P. Nagar",
        "addr:housenumber": "5",
        "addr:postcode": "560078",
        "addr:state": "Karnataka",
        "addr:street": "Outer Ring Rd, Rose Garden, JP Nagar Phase 6, JP Nagar,",
        "amenity": "hospital",
        "name": "Green City Hospital, Bengaluru Urban",
        "name:kn": "ಗ್ರೀನ್ ಸಿಟಿ ಆಸ್ಪತ್ರೆ",
        "phone": "080 2653 6222",
        "source": "OpenGovernmentData"
      }
    },
    {
      "type": "node",
      "id": 4447327973,
      "lat": 12.9105534,
      "lon": 77.5811091,
      "tags": {
        "addr:city": "bangalore",
        "addr:housenumber": "53/A",
        "addr:postcode": "560078",
        "addr:street": "9th Cross, Near-Oxford Collage, J P Nagar 1st Phase",
        "amenity": "pharmacy",
        "healthcare": "pharmacy",
        "name": "Durga Medicals",
        "phone": "080 2691 1062"
      }
    },
    {
      "type": "node",
      "id": 4447383325,
      "lat": 12.9039905,
      "lon": 77.5859569,
      "tags": {
        "addr:city": "bangalore",
        "addr:housenumber": "9",
        "addr:postcode": "560078",
        "addr:street": "24th Main Rd, KR Layout, 1st Phase, JP Nagar",
        "amenity": "hospital",
        "name": "M N Speciality Clinic",
        "name:kn": "ಎಮ್ ಎನ್ ಸ್ಪೆಶಾಲಿಟಿ ಕ್ಲಿನಿಕ್",
        "phone": "080 2653 0121"
      }
    },
    {
      "type": "node",
      "id": 4456223691,
      "lat": 12.9030471,
      "lon": 77.5851583,
      "tags": {
        "addr:housenumber": "CMS Annex 319",
        "addr:postcode": "560 078",
        "addr:street": "17th Cross Road",
        "amenity": "school",
        "email": "bschool@cms.ac.in",
        "name": "CMS Business School, Jain University",
        "name:en": "CMS Business School, Jain University",
        "name:kn": "ಸಿಎಂಎಸ್ ಬಿಸಿನೆಸ್ ಸ್ಕೂಲ್, ಜೈನ್ ವಿಶ್ವವಿದ್ಯಾಲಯ",
        "opening_hours": "Mo-Fr 09:00-17:00",
        "phone": "+91 80 4343 0400",
        "website": "http://www.bschool.cms.ac.in"
      }
    },
    {
      "type": "node",
      "id": 4456310690,
      "lat": 12.907453,
      "lon": 77.5785311,
      "tags": {
        "amenity": "clinic",
        "name": "Government Hospital",
        "name:en": "Government Hospital",
        "name:kn": "ಸರ್ಕಾರಿ ಆಸ್ಪತ್ರೆ"
      }
    },
    {
      "type": "node",
      "id": 4456336990,
      "lat": 12.9079578,
      "lon": 77.5783267,
      "tags": {
        "amenity": "atm",
        "brand": "ICICI Bank",
        "brand:wikidata": "Q1653258",
        "name": "ICICI Bank",
        "opening_hours": "24/7",
        "operator": "ICICI Bank",
        "operator:wikidata": "Q1653258",
        "short_name": "ICICI"
      }
    },
    {
      "type": "node",
      "id": 4456346090,
      "lat": 12.9074342,
      "lon": 77.578346,
      "tags": {
        "amenity": "atm",
        "brand": "Karnataka Bank",
        "brand:wikidata": "Q2042632",
        "name": "Karnataka Bank",
        "name:kn": "ಕರ್ನಾಟಕ ಬ್ಯಾಂಕ್",
        "opening_hours": "24/7",
        "operator": "Karnataka Bank",
        "operator:wikidata": "Q2042632"
      }
    },
    {
      "type": "node",
      "id": 4463113589,
      "lat": 12.9035208,
      "lon": 77.5843442,
      "tags": {
        "amenity": "atm",
        "brand": "Canara Bank",
        "brand:en": "Canara Bank",
        "brand:hi": "केनरा बैंक",
        "brand:kn": "ಕೆನರಾ ಬ್ಯಾಂಕ್",
        "brand:pa": "ਕੇਨਰਾ ਬੈਂਕ",
        "brand:pnb": "کینرا بینک",
        "brand:ur": "کینرا بینک",
        "brand:wikidata": "Q2003777",
        "name": "Canara Bank",
        "name:en": "Canara Bank",
        "name:hi": "केनरा बैंक",
        "name:kn": "ಕೆನರಾ ಬ್ಯಾಂಕ್",
        "name:pa": "ਕੇਨਰਾ ਬੈਂਕ",
        "name:pnb": "کینرا بینک",
        "name:ur": "کینرا بینک",
        "opening_hours": "24/7",
        "operator": "Canara Bank",
        "operator:wikidata": "Q2003777"
      }
    },
    {
      "type": "node",
      "id": 4470962689,
      "lat": 12.9040892,
      "lon": 77.5847141,
      "tags": {
        "amenity": "atm",
        "brand": "Axis Bank",
        "brand:wikidata": "Q2003549",
        "name": "Axis Bank",
        "opening_hours": "24/7",
        "operator": "Axis Bank",
        "operator:wikidata": "Q2003549"
      }
    },
    {
      "type": "node",
      "id": 4488069422,
      "lat": 12.9027124,
      "lon": 77.5855115,
      "tags": {
        "addr:city": "bangalore",
        "addr:housenumber": "No-10/2, 1st Floor",
        "addr:postcode": "560078",
        "addr:street": "24th Main, Sarakki Village, J.P Nagar 6th Phase, Opp. Crystal Castle Hotel,",
        "building": "yes",
        "fee": "yes",
        "leisure": "sports_centre",
        "name": "Elite Batminton Arena",
        "opening_hours": "11:00-21:00",
        "phone": "080 4171 3131",
        "sport": "multi",
        "website": "http://thesportmall.in/"
      }
    },
    {
      "type": "node",
      "id": 4488103616,
      "lat": 12.9116408,
      "lon": 77.5860843,
      "tags": {
        "addr:city": "bangalore",
        "addr:housenumber": "1",
        "addr:postcode": "560078",
        "addr:street": "Sudarsanamma Arcade Opp R.V.Dental Collage J.P., Marenahalli, 2nd Phase, JP Nagar",
        "check_date": "2023-11-01",
        "name": "SportsBunke.in",
        "opening_hours": "10:30-21:00",
        "phone": "080 4123 3530",
        "shop": "sports",
        "wheelchair": "no"
      }
    },
    {
      "type": "node",
      "id": 4621580989,
      "lat": 12.9114527,
      "lon": 77.5870878,
      "tags": {
        "amenity": "cafe",
        "name": "Ranga Shankara Cafe",
        "name:en": "Ranga Shankara Cafe"
      }
    },
    {
      "type": "node",
      "id": 5234786387,
      "lat": 12.9173939,
      "lon": 77.5781136,
      "tags": {
        "amenity": "restaurant",
        "name": "Mandarthi Veg"
      }
    },
    {
      "type": "node",
      "id": 5268233218,
      "lat": 12.9065569,
      "lon": 77.5858871,
      "tags": {
        "amenity": "fast_food",
        "name": "Iyengar Bakery",
        "name:kn": "ಐಯ್ಯಂಗಾರ್ ಬೇಕರಿ"
      }
    },
    {
      "type": "node",
      "id": 6083081071,
      "lat": 12.9122707,
      "lon": 77.5860983,
      "tags": {
        "amenity": "restaurant",
        "name": "Chulha Chauki da Dhaba"
      }
    },
    {
      "type": "node",
      "id": 6083129849,
      "lat": 12.9121661,
      "lon": 77.586287,
      "tags": {
        "amenity": "ice_cream",
        "name": "Apsara IceCreams"
      }
    },
    {
      "type": "node",
      "id": 6115117985,
      "lat": 12.9123323,
      "lon": 77.5855405,
      "tags": {
        "leisure": "sports_centre",
        "name": "Golden Ace Shooting Academy"
      }
    },
    {
      "type": "node",
      "id": 6338071472,
      "lat": 12.9020427,
      "lon": 77.5857467,
      "tags": {
        "amenity": "restaurant",
        "name": "Empire Restaurant",
        "name:kn": "ಎಂಪೈರ್",
        "wheelchair": "no"
      }
    },
    {
      "type": "node",
      "id": 6338071922,
      "lat": 12.9032342,
      "lon": 77.5856124,
      "tags": {
        "name": "SLV Flowers",
        "shop": "florist"
      }
    },
    {
      "type": "node",
      "id": 6338071923,
      "lat": 12.9021091,
      "lon": 77.5857727,
      "tags": {
        "amenity": "fast_food",
        "name": "Cheesiano Pizza"
      }
    },
    {
      "type": "node",
      "id": 6339952604,
      "lat": 12.9169098,
      "lon": 77.5826789,
      "tags": {
        "addr:street": "510/37, Jayanagar 5th Block, Jayanagar",
        "name": "Wicked Ride Bike Rental",
        "shop": "motorcycle"
      }
    },
    {
      "type": "node",
      "id": 6531907477,
      "lat": 12.9032482,
      "lon": 77.5787159,
      "tags": {
        "addr:place": "Jaraganahalli",
        "amenity": "school",
        "isced:level": "3",
        "name": "Thrishool School J P Nagar, Jaragana Halli 1",
        "name:kn": "ತ್ರಿಶೂಲ್ ಶಾಲೆ ಜೆ.ಪಿ. ನಗರ,ಜರಗನ ಹಳ್ಳಿ",
        "operator": "Private Un-Aided",
        "school": "Higher Secondary"
      }
    },
    {
      "type": "node",
      "id": 6531943351,
      "lat": 12.9020965,
      "lon": 77.57588,
      "tags": {
        "addr:place": "Jaraganahalli",
        "amenity": "school",
        "isced:level": "2",
        "name": "Sri Vidyanikethan HPS Jaragana, Jaragana Halli 1",
        "name:kn": "ಶ್ರೀ ವಿದ್ಯಾನಿಕೆಥನ್ ಹಿರಿಯ ಪ್ರಾಥಮಿಕ ಶಾಲೆ ಜರಗನ ಹಳ್ಳಿ",
        "operator": "Private Un-Aided",
        "school": "Higher Primary"
      }
    },
    {
      "type": "node",
      "id": 6531963628,
      "lat": 12.9040441,
      "lon": 77.574382,
      "tags": {
        "addr:place": "Jaraganahalli",
        "amenity": "school",
        "isced:level": "3",
        "name": "Shreyas School Jaraganahalli, Jaragana Halli 1",
        "name:kn": "ಶ್ರೇಯಸ್ ಶಾಲೆ ಜರಗನ ಹಳ್ಳಿ",
        "operator": "Private Un-Aided",
        "school": "Higher Secondary"
      }
    },
    {
      "type": "node",
      "id": 6717675008,
      "lat": 12.9083274,
      "lon": 77.5855201,
      "tags": {
        "addr:city": "Bengaluru",
        "addr:postcode": "560078",
        "addr:street": "Aurobindo Marg (24th Main)",
        "brand": "Kia",
        "brand:wikidata": "Q35349",
        "brand:wikipedia": "en:Kia Motors",
        "name": "Kia",
        "name:kn": "ಕೀಯ",
        "second_hand": "no",
        "shop": "car"
      }
    },
    {
      "type": "node",
      "id": 6938876210,
      "lat": 12.9103393,
      "lon": 77.5732398,
      "tags": {
        "addr:district": "Bengaluru Urban",
        "addr:full": "Plot No.2(A-2) A Type Bbmp No.57-64-2, Shivana Arcade",
        "addr:postcode": "560078",
        "addr:state": "Karnataka",
        "amenity": "hospital",
        "healthcare": "hospital",
        "name": "Vasan Eye Care Hospital, Sarakki",
        "operator:type": "private",
        "source": "OpenGovernmentData",
        "website": "http://www.vasaneye.in/"
      }
    },
    {
      "type": "node",
      "id": 6944507666,
      "lat": 12.9117746,
      "lon": 77.5730574,
      "tags": {
        "addr:district": "Bengaluru Urban",
        "addr:full": "No 1402, Sarakki Gate, J P Nagar, 1st Phase, K.P.Main Road",
        "addr:postcode": "560078",
        "addr:state": "Karnataka",
        "amenity": "clinic",
        "name": "Bharath Nursing Home",
        "operator:type": "private",
        "source": "OpenGovernmentData",
        "website": "http://snsvo8.seekandsource.com/venugopal/home.html"
      }
    },
    {
      "type": "node",
      "id": 6945010490,
      "lat": 12.9067079,
      "lon": 77.5849275,
      "tags": {
        "addr:district": "Bengaluru Urban",
        "addr:full": "No. 4, Sarakki Industrial Estate, 3Road Phase, J.P.Nagar, Bannerghatta Road",
        "addr:postcode": "560076",
        "addr:state": "Karnataka",
        "amenity": "hospital",
        "name": "North Star Maternity and Nursing Home",
        "source": "OpenGovernmentData"
      }
    },
    {
      "type": "node",
      "id": 6947556032,
      "lat": 12.9074269,
      "lon": 77.5716318,
      "tags": {
        "addr:district": "Bengaluru Urban",
        "addr:full": "11/2 8Th Cross, Gangadhar Nagar 100 Ring Road, J.P Nagar Post",
        "addr:postcode": "560078",
        "addr:state": "Karnataka",
        "amenity": "hospital",
        "name": "R.R. Hospital and Trauma Centre",
        "source": "OpenGovernmentData"
      }
    },
    {
      "type": "node",
      "id": 7105078866,
      "lat": 12.9083264,
      "lon": 77.5871218,
      "tags": {
        "addr:city": "Bengaluru",
        "addr:postcode": "560078",
        "addr:street": "12th Cross Road",
        "amenity": "fast_food",
        "cuisine": "indian;south",
        "name": "SN Refreshment"
      }
    },
    {
      "type": "node",
      "id": 7579924755,
      "lat": 12.915263,
      "lon": 77.584736,
      "tags": {
        "addr:district": "Bengaluru Urban",
        "addr:full": "TMC Layout, Jayanagar, Bengaluru",
        "addr:postcode": "560041",
        "addr:state": "Karnataka",
        "amenity": "clinic",
        "healthcare": "clinic",
        "name": "Banashankari Poly Clinic",
        "source": "Local Knowledge"
      }
    },
    {
      "type": "node",
      "id": 8035783019,
      "lat": 12.9077038,
      "lon": 77.5847444,
      "tags": {
        "address": "547, 26th Main, JP Nagar 1st phase, Bangalore",
        "amenity": "taxi",
        "name": "HornOK"
      }
    },
    {
      "type": "node",
      "id": 9274940516,
      "lat": 12.9070866,
      "lon": 77.5855025,
      "tags": {
        "addr:city": "bangalore",
        "addr:housenumber": "12/A",
        "addr:postcode": "560078",
        "addr:street": "24th Main Road",
        "clothes": "women;wedding;fashion;babies;fur;denim",
        "name": "Nathaya Designer Studio",
        "opening_hours": "11:30-19:30",
        "payment:cash": "yes",
        "payment:contactless": "yes",
        "payment:credit_cards": "yes",
        "payment:debit_cards": "yes",
        "payment:mastercard": "yes",
        "shop": "fashion_accessories",
        "website": "https://www.instagram.com/nathaya_designer_studio/"
      }
    },
    {
      "type": "node",
      "id": 9856264725,
      "lat": 12.9061738,
      "lon": 77.5825444,
      "tags": {
        "amenity": "restaurant",
        "name": "Neemsi"
      }
    },
    {
      "type": "node",
      "id": 10032026858,
      "lat": 12.9142714,
      "lon": 77.5859736,
      "tags": {
        "amenity": "restaurant",
        "name": "Terrace by House of Commons"
      }
    },
    {
      "type": "node",
      "id": 10123822787,
      "lat": 12.9169681,
      "lon": 77.5792509,
      "tags": {
        "amenity": "restaurant",
        "name": "Bramble"
      }
    },
    {
      "type": "node",
      "id": 10127565266,
      "lat": 12.9124162,
      "lon": 77.57502,
      "tags": {
        "name": "Rathna Medical Store",
        "shop": "medical_supply"
      }
    },
    {
      "type": "node",
      "id": 10607507428,
      "lat": 12.9072909,
      "lon": 77.5733779,
      "tags": {
        "amenity": "bicycle_rental",
        "brand": "Yulu",
        "brand:wikidata": "Q104871276",
        "name": "Yulu",
        "network": "Yulu",
        "network:wikidata": "Q104871276",
        "operator": "Yulu"
      }
    },
    {
      "type": "node",
      "id": 10647620828,
      "lat": 12.9059616,
      "lon": 77.5734858,
      "tags": {
        "amenity": "atm",
        "check_date": "2023-02-11",
        "operator": "RBL"
      }
    },
    {
      "type": "node",
      "id": 10685071178,
      "lat": 12.9019561,
      "lon": 77.5857322,
      "tags": {
        "diet:vegetarian": "only",
        "name": "Simpli Namdhari's",
        "organic": "only",
        "shop": "supermarket",
        "website": "https://www.simplinamdharis.com/",
        "wheelchair": "no"
      }
    },
    {
      "type": "node",
      "id": 10727997905,
      "lat": 12.9058477,
      "lon": 77.5829239,
      "tags": {
        "alt_name": "Sante Spa Cuisine",
        "cuisine": "indian;international;italian;pasta;pizza;thai",
        "diet:vegan": "yes",
        "diet:vegetarian": "yes",
        "name": "Santé Spa Cuisine",
        "opening_hours": "Mo-Su 11:00-23:00",
        "shop": "pastry",
        "takeaway": "yes",
        "toilets": "yes",
        "wheelchair": "limited"
      }
    },
    {
      "type": "node",
      "id": 10728055706,
      "lat": 12.9143171,
      "lon": 77.5870237,
      "tags": {
        "amenity": "theatre",
        "contact:facebook": "artkhoj",
        "contact:instagram": "artkhoj",
        "contact:linkedin": "artkhoj",
        "name": "Artkhoj",
        "website": "https://linktr.ee/Artkhoj"
      }
    },
    {
      "type": "node",
      "id": 10792812743,
      "lat": 12.9168805,
      "lon": 77.5800258,
      "tags": {
        "amenity": "community_centre",
        "name": "Rajalakshmi Kalyana Mantapa"
      }
    },
    {
      "type": "node",
      "id": 10854298583,
      "lat": 12.9168805,
      "lon": 77.5825015,
      "tags": {
        "name": "Mugdha",
        "shop": "boutique"
      }
    },
    {
      "type": "node",
      "id": 10854298584,
      "lat": 12.9172675,
      "lon": 77.5819882,
      "tags": {
        "name": "Thirumal",
        "shop": "boutique"
      }
    },
    {
      "type": "node",
      "id": 10854298585,
      "lat": 12.9172896,
      "lon": 77.5816257,
      "tags": {
        "name": "Shinys Gold and Diamonds",
        "shop": "jewelry"
      }
    },
    {
      "type": "node",
      "id": 10854298586,
      "lat": 12.9173197,
      "lon": 77.5805756,
      "tags": {
        "name": "Nandini",
        "shop": "dairy"
      }
    },
    {
      "type": "node",
      "id": 10854298587,
      "lat": 12.9173262,
      "lon": 77.5804496,
      "tags": {
        "brand": "HOPCOMS",
        "brand:wikidata": "Q22908959",
        "name": "HOPCOMS",
        "shop": "greengrocer"
      }
    },
    {
      "type": "node",
      "id": 10854298592,
      "lat": 12.9173497,
      "lon": 77.5799198,
      "tags": {
        "amenity": "drinking_water"
      }
    },
    {
      "type": "node",
      "id": 10854298594,
      "lat": 12.9173916,
      "lon": 77.5785137,
      "tags": {
        "amenity": "clinic",
        "name": "GHOC Obesity Clinic"
      }
    },
    {
      "type": "node",
      "id": 10931530154,
      "lat": 12.9177197,
      "lon": 77.5799118,
      "tags": {
        "amenity": "clinic",
        "name": "Namma Clinic"
      }
    },
    {
      "type": "node",
      "id": 11015446614,
      "lat": 12.9046821,
      "lon": 77.5819794,
      "tags": {
        "access": "private",
        "amenity": "parking_entrance",
        "parking": "underground"
      }
    },
    {
      "type": "node",
      "id": 11183640991,
      "lat": 12.9065319,
      "lon": 77.5866397,
      "tags": {
        "amenity": "restaurant",
        "check_date": "2023-09-11",
        "cuisine": "asian",
        "name": "Khmer Kitchen",
        "opening_hours": "11:30-22:30",
        "payment:mastercard": "yes",
        "payment:visa": "yes"
      }
    },
    {
      "type": "node",
      "id": 11245712606,
      "lat": 12.9046774,
      "lon": 77.5856497,
      "tags": {
        "addr:street": "24th Main Road, JP Nagar, 6th Phase, Bengaluru",
        "amenity": "clinic",
        "name": "Saphire Heart Care"
      }
    },
    {
      "type": "node",
      "id": 11292276523,
      "lat": 12.9069289,
      "lon": 77.5731279,
      "tags": {
        "access": "yes",
        "amenity": "drinking_water",
        "bottle": "yes",
        "indoor": "yes",
        "level": "1"
      }
    },
    {
      "type": "node",
      "id": 11292276524,
      "lat": 12.9073783,
      "lon": 77.5729982,
      "tags": {
        "access": "customers",
        "amenity": "drinking_water",
        "bottle": "yes",
        "indoor": "yes",
        "level": "1"
      }
    },
    {
      "type": "node",
      "id": 11292276525,
      "lat": 12.9068376,
      "lon": 77.5731978,
      "tags": {
        "access": "yes",
        "amenity": "toilets",
        "female": "yes",
        "level": "1",
        "male": "yes",
        "operator": "BMRCL",
        "toilets:handwashing": "yes",
        "toilets:position": "urinal"
      }
    },
    {
      "type": "node",
      "id": 11293333405,
      "lat": 12.906084,
      "lon": 77.586789,
      "tags": {
        "amenity": "restaurant",
        "cuisine": "sattvic",
        "level": "2",
        "name": "Sattvam"
      }
    },
    {
      "type": "node",
      "id": 11293333416,
      "lat": 12.9061075,
      "lon": 77.5862616,
      "tags": {
        "level": "0;1",
        "name": "Fabindia",
        "shop": "clothes"
      }
    },
    {
      "type": "node",
      "id": 11293333417,
      "lat": 12.9065151,
      "lon": 77.5873603,
      "tags": {
        "level": "0",
        "name": "Style Struck Jaipur",
        "note": "A shop selling a variety of handicrafts - wooden item (including furniture) and clothes",
        "shop": "furniture",
        "wheelchair": "no"
      }
    },
    {
      "type": "node",
      "id": 11293333423,
      "lat": 12.9061295,
      "lon": 77.5884337,
      "tags": {
        "amenity": "restaurant",
        "name": "Peek-a-Boo"
      }
    },
    {
      "type": "node",
      "id": 11303622566,
      "lat": 12.9061896,
      "lon": 77.5780386,
      "tags": {
        "amenity": "atm",
        "brand": "HDFC Bank",
        "brand:wikidata": "Q631047",
        "level": "0",
        "name": "HDFC Bank",
        "name:kn": "ಎಚ್ ಡಿ ಎಫ್ ಸಿ",
        "operator": "HDFC Bank",
        "operator:wikidata": "Q631047",
        "short_name": "HDFC"
      }
    },
    {
      "type": "node",
      "id": 11303632425,
      "lat": 12.9108057,
      "lon": 77.5821293,
      "tags": {
        "amenity": "restaurant",
        "check_date": "2023-11-01",
        "name": "Arogya Ahaara"
      }
    },
    {
      "type": "node",
      "id": 11303671252,
      "lat": 12.9062943,
      "lon": 77.5758493,
      "tags": {
        "amenity": "pub",
        "name": "1522"
      }
    },
    {
      "type": "node",
      "id": 11303681064,
      "lat": 12.9061749,
      "lon": 77.5789241,
      "tags": {
        "amenity": "kindergarten",
        "name": "Yello"
      }
    },
    {
      "type": "node",
      "id": 11303695822,
      "lat": 12.9104903,
      "lon": 77.5819683,
      "tags": {
        "check_date": "2023-11-01",
        "level": "0",
        "name": "Sarayu Branding & Printing",
        "phone": "+91 99800 71161",
        "shop": "copyshop",
        "website": "https://sarayus.com"
      }
    },
    {
      "type": "node",
      "id": 11303696484,
      "lat": 12.9097266,
      "lon": 77.5824286,
      "tags": {
        "amenity": "social_facility",
        "check_date": "2023-11-01",
        "name": "Belaku Vatsalya Dhama",
        "social_facility": "group_home",
        "social_facility:for": "senior"
      }
    },
    {
      "type": "node",
      "id": 11303696506,
      "lat": 12.9063819,
      "lon": 77.5775686,
      "tags": {
        "addr:housenumber": "601",
        "addr:postcode": "560078",
        "addr:street": "Outer Ring Road",
        "amenity": "pub",
        "name": "Tipsy Bull",
        "opening_hours": "Mo-Su 12:00-01:00",
        "phone": "+91 88844 42009",
        "website": "https://tipsybull.com/"
      }
    },
    {
      "type": "node",
      "id": 11303698240,
      "lat": 12.9103304,
      "lon": 77.5862796,
      "tags": {
        "check_date": "2023-11-01",
        "name": "Reliance Trends",
        "shop": "clothes"
      }
    },
    {
      "type": "node",
      "id": 11303698297,
      "lat": 12.9067877,
      "lon": 77.5858782,
      "tags": {
        "amenity": "restaurant",
        "check_date": "2023-11-01",
        "diet:non-vegetarian": "yes",
        "name": "Bendakaluru Donne Briyani"
      }
    },
    {
      "type": "node",
      "id": 11303698298,
      "lat": 12.9062356,
      "lon": 77.5762138,
      "tags": {
        "amenity": "clinic",
        "check_date": "2023-11-01",
        "healthcare": "clinic",
        "name": "Banashankari Heart Clinic"
      }
    },
    {
      "type": "node",
      "id": 11303699892,
      "lat": 12.910476,
      "lon": 77.5822027,
      "tags": {
        "amenity": "fixme",
        "check_date": "2023-11-01",
        "fixme": "type",
        "fixme:type": "vehicle rental",
        "name": "Swytchd"
      }
    },
    {
      "type": "node",
      "id": 11303701257,
      "lat": 12.906255,
      "lon": 77.5778698,
      "tags": {
        "name": "Skyline Pizzeria",
        "shop": "bakery"
      }
    },
    {
      "type": "node",
      "id": 11303702484,
      "lat": 12.9103011,
      "lon": 77.5858865,
      "tags": {
        "amenity": "restaurant",
        "check_date": "2023-11-01",
        "name": "Paradise Biryani"
      }
    },
    {
      "type": "node",
      "id": 11303705701,
      "lat": 12.9066927,
      "lon": 77.5790664,
      "tags": {
        "amenity": "kindergarten",
        "name": "Vidyasagar Preschool"
      }
    },
    {
      "type": "node",
      "id": 11303708028,
      "lat": 12.9062412,
      "lon": 77.5769133,
      "tags": {
        "addr:housenumber": "607",
        "addr:street": "15th Cross",
        "amenity": "clinic",
        "name": "Apollo CM fertility"
      }
    },
    {
      "type": "node",
      "id": 11303710183,
      "lat": 12.9107901,
      "lon": 77.5822781,
      "tags": {
        "amenity": "clinic",
        "check_date": "2023-11-01",
        "healthcare": "clinic",
        "name": "Pristyn Care"
      }
    },
    {
      "type": "node",
      "id": 11303710184,
      "lat": 12.9107901,
      "lon": 77.5822781,
      "tags": {
        "check_date": "2023-11-01",
        "leisure": "fitness_centre",
        "name": "Goldkraft Fitness",
        "phone": "+91 88841 08822; +91 88841 08855; +91 80 2664 7664"
      }
    },
    {
      "type": "node",
      "id": 11303710185,
      "lat": 12.9069743,
      "lon": 77.5820075,
      "tags": {
        "amenity": "dentist",
        "check_date": "2023-11-01",
        "healthcare": "dentist",
        "name": "Bangalore Dental Clinic",
        "opening_hours": "Mo-Sa 09:00-12:30,16:30-20:30",
        "phone": "+91 80 2663 2094",
        "wheelchair": "limited"
      }
    },
    {
      "type": "node",
      "id": 11303710697,
      "lat": 12.9060288,
      "lon": 77.5792706,
      "tags": {
        "amenity": "atm",
        "brand": "State Bank of India",
        "brand:wikidata": "Q1340361",
        "operator": "State Bank of India",
        "operator:wikidata": "Q1340361",
        "short_name": "SBI"
      }
    },
    {
      "type": "node",
      "id": 11303710927,
      "lat": 12.9122347,
      "lon": 77.5855628,
      "tags": {
        "amenity": "cafe",
        "brand": "Cafe Coffee Day",
        "brand:wikidata": "Q5017235",
        "check_date": "2023-11-01",
        "cuisine": "coffee_shop",
        "name": "Cafe Coffee Day",
        "name:kn": "ಕಫೆ ಕಾಫಿ ಡೇ",
        "takeaway": "yes"
      }
    },
    {
      "type": "node",
      "id": 11303711285,
      "lat": 12.9066266,
      "lon": 77.5805059,
      "tags": {
        "brand": "Renault",
        "brand:wikidata": "Q6686",
        "check_date": "2023-11-01",
        "internet_access": "wlan",
        "internet_access:fee": "customers",
        "name": "Renault",
        "name:en": "Renault",
        "shop": "car"
      }
    },
    {
      "type": "node",
      "id": 11303711371,
      "lat": 12.906071,
      "lon": 77.5869281,
      "tags": {
        "amenity": "hospital",
        "check_date": "2023-11-01",
        "healthcare": "hospital",
        "level": "0;1;2",
        "name": "Cadabam's Hospitals",
        "wheelchair": "yes"
      }
    },
    {
      "type": "node",
      "id": 11303711372,
      "lat": 12.9065764,
      "lon": 77.5869587,
      "tags": {
        "check_date": "2023-11-01",
        "level": "1",
        "name": "Wakefit.co",
        "shop": "bed"
      }
    },
    {
      "type": "node",
      "id": 11303711373,
      "lat": 12.9066349,
      "lon": 77.586965,
      "tags": {
        "check_date": "2023-11-01",
        "level": "2",
        "name": "Ruan Thai Spa",
        "shop": "massage",
        "wheelchair": "no"
      }
    },
    {
      "type": "node",
      "id": 11303711374,
      "lat": 12.9060987,
      "lon": 77.5874595,
      "tags": {
        "check_date": "2023-11-01",
        "level": "0",
        "name": "Friends Automotives",
        "second_hand": "only",
        "shop": "car",
        "wheelchair": "limited"
      }
    },
    {
      "type": "node",
      "id": 11303711375,
      "lat": 12.9065923,
      "lon": 77.5873203,
      "tags": {
        "check_date": "2023-11-01",
        "level": "0",
        "name": "Rajasthan Wood Works",
        "shop": "furniture",
        "wheelchair": "no"
      }
    },
    {
      "type": "node",
      "id": 11303716150,
      "lat": 12.9060151,
      "lon": 77.579232,
      "tags": {
        "amenity": "bank",
        "branch": "NRI Branch JP Nagar",
        "brand": "State Bank of India",
        "brand:wikidata": "Q1340361",
        "name": "State Bank of India",
        "name:kn": "ಎಸ್ ಬಿ ಐ",
        "short_name": "SBI"
      }
    },
    {
      "type": "node",
      "id": 11303723684,
      "lat": 12.9069535,
      "lon": 77.5803073,
      "tags": {
        "check_date": "2023-11-01",
        "fixme": "type",
        "name": "Truly",
        "shop": "greengrocer"
      }
    },
    {
      "type": "node",
      "id": 11303726646,
      "lat": 12.9082824,
      "lon": 77.5814838,
      "tags": {
        "amenity": "waste_basket"
      }
    },
    {
      "type": "node",
      "id": 11303726647,
      "lat": 12.9081145,
      "lon": 77.581483,
      "tags": {
        "amenity": "bench",
        "backrest": "yes",
        "colour": "grey",
        "material": "stone",
        "seats": "4"
      }
    },
    {
      "type": "node",
      "id": 11303726648,
      "lat": 12.9081766,
      "lon": 77.5816164,
      "tags": {
        "amenity": "shelter",
        "bench": "yes",
        "shelter_type": "gazebo"
      }
    },
    {
      "type": "node",
      "id": 11303726650,
      "lat": 12.9083702,
      "lon": 77.5812526,
      "tags": {
        "fitness_station": "fitness_station",
        "leisure": "fitness_station",
        "sport": "fitness"
      }
    },
    {
      "type": "node",
      "id": 11303726651,
      "lat": 12.9083413,
      "lon": 77.5817017,
      "tags": {
        "leisure": "playground"
      }
    },
    {
      "type": "node",
      "id": 11303726652,
      "lat": 12.9074264,
      "lon": 77.5824555,
      "tags": {
        "check_date": "2023-11-01",
        "name": "Kashyapi Naturals",
        "organic": "only",
        "shop": "supermarket"
      }
    },
    {
      "type": "node",
      "id": 11303726653,
      "lat": 12.9070993,
      "lon": 77.5825707,
      "tags": {
        "amenity": "clinic",
        "check_date": "2023-11-01",
        "healthcare": "clinic",
        "name": "Medall Clumax Diagnostics"
      }
    },
    {
      "type": "node",
      "id": 11303726654,
      "lat": 12.9072137,
      "lon": 77.5829997,
      "tags": {
        "amenity": "pharmacy",
        "check_date": "2023-11-01",
        "healthcare": "pharmacy",
        "name": "Harsitha Medicals"
      }
    },
    {
      "type": "node",
      "id": 11303726655,
      "lat": 12.907408,
      "lon": 77.5829527,
      "tags": {
        "amenity": "post_depot",
        "brand": "FedEx",
        "brand:wikidata": "Q459477",
        "check_date": "2023-11-01",
        "name": "Sri Ganesh Courier Services",
        "operator": "FedEx",
        "operator:type": "private",
        "operator:wikidata": "Q459477"
      }
    },
    {
      "type": "node",
      "id": 11303727833,
      "lat": 12.9106694,
      "lon": 77.5835369,
      "tags": {
        "amenity": "pharmacy",
        "check_date": "2023-11-01",
        "healthcare": "pharmacy",
        "level": "0",
        "name": "Pharma One",
        "phone": "+91 98117 89001"
      }
    },
    {
      "type": "node",
      "id": 11303728664,
      "lat": 12.907298,
      "lon": 77.5819357,
      "tags": {
        "check_date": "2023-11-01",
        "name": "Labdhi Vinay - Glass & Crockery",
        "shop": "houseware"
      }
    },
    {
      "type": "node",
      "id": 11303728955,
      "lat": 12.9066836,
      "lon": 77.5805215,
      "tags": {
        "amenity": "pub",
        "check_date": "2023-11-01",
        "name": "The Scene Craft Kitchen & Bar"
      }
    },
    {
      "type": "node",
      "id": 11303730516,
      "lat": 12.9107357,
      "lon": 77.5829631,
      "tags": {
        "amenity": "bank",
        "check_date": "2023-11-01",
        "name": "People's India Souharda Credit Cooperative Limited"
      }
    },
    {
      "type": "node",
      "id": 11303735210,
      "lat": 12.9106407,
      "lon": 77.5845458,
      "tags": {
        "amenity": "conference_centre",
        "check_date": "2023-11-01",
        "name": "India Sweet House"
      }
    },
    {
      "type": "node",
      "id": 11303736032,
      "lat": 12.9095975,
      "lon": 77.5818484,
      "tags": {
        "amenity": "kindergarten",
        "check_date": "2023-11-01",
        "name": "Little Sparkle Pre-school",
        "operator:type": "private",
        "preschool": "yes"
      }
    },
    {
      "type": "node",
      "id": 11303736994,
      "lat": 12.9082574,
      "lon": 77.5858666,
      "tags": {
        "access": "yes",
        "amenity": "toilets",
        "check_date": "2023-11-01"
      }
    },
    {
      "type": "node",
      "id": 11303737786,
      "lat": 12.9104716,
      "lon": 77.5822556,
      "tags": {
        "check_date": "2023-11-01",
        "name": "Howzzat Sports",
        "shop": "sports"
      }
    },
    {
      "type": "node",
      "id": 11303742134,
      "lat": 12.9062042,
      "lon": 77.5793891,
      "tags": {
        "check_date": "2023-11-01",
        "name": "Jodhpuri Furniture",
        "shop": "furniture"
      }
    },
    {
      "type": "node",
      "id": 11303742135,
      "lat": 12.9061991,
      "lon": 77.5794423,
      "tags": {
        "amenity": "bank",
        "brand": "Federal Bank",
        "brand:wikidata": "Q2044983",
        "check_date": "2023-11-01",
        "name": "Federal Bank"
      }
    },
    {
      "type": "node",
      "id": 11303742136,
      "lat": 12.9107076,
      "lon": 77.5843671,
      "tags": {
        "amenity": "toilets",
        "check_date": "2023-11-01",
        "toilets:disposal": "flush"
      }
    },
    {
      "type": "node",
      "id": 11303742269,
      "lat": 12.910476,
      "lon": 77.5822027,
      "tags": {
        "amenity": "restaurant",
        "check_date": "2023-11-01",
        "name": "Aata Oota Maathu"
      }
    },
    {
      "type": "node",
      "id": 11303742270,
      "lat": 12.910476,
      "lon": 77.5822027,
      "tags": {
        "check_date": "2023-11-01",
        "name": "Cream And Fudge",
        "shop": "bakery"
      }
    },
    {
      "type": "node",
      "id": 11303742272,
      "lat": 12.910476,
      "lon": 77.5822027,
      "tags": {
        "check_date": "2023-11-01",
        "leisure": "fitness_centre",
        "name": "O2 The Fitness",
        "phone": "08042007236"
      }
    },
    {
      "type": "node",
      "id": 11303742273,
      "lat": 12.9065442,
      "lon": 77.5782946,
      "tags": {
        "check_date": "2023-11-01",
        "name": "SSD Dhalith Sangam",
        "shop": "shoe_repair"
      }
    },
    {
      "type": "node",
      "id": 11303743268,
      "lat": 12.9072606,
      "lon": 77.5858955,
      "tags": {
        "brand": "Zudio",
        "brand:wikidata": "Q123375926",
        "check_date": "2023-11-01",
        "name": "Zudio",
        "shop": "clothes"
      }
    },
    {
      "type": "node",
      "id": 11303744482,
      "lat": 12.9066905,
      "lon": 77.5799554,
      "tags": {
        "amenity": "kindergarten",
        "check_date": "2023-11-01",
        "name": "Absorbent Mind"
      }
    },
    {
      "type": "node",
      "id": 11303744483,
      "lat": 12.9061058,
      "lon": 77.5876799,
      "tags": {
        "amenity": "cafe",
        "check_date": "2023-11-01",
        "level": "0",
        "name": "Third Wave Coffee",
        "wheelchair": "no"
      }
    },
    {
      "type": "node",
      "id": 11303744484,
      "lat": 12.9061073,
      "lon": 77.5876277,
      "tags": {
        "check_date": "2023-11-01",
        "level": "0",
        "name": "Heads Up For Tails",
        "shop": "pet",
        "wheelchair": "no"
      }
    },
    {
      "type": "node",
      "id": 11303744485,
      "lat": 12.9060441,
      "lon": 77.5876157,
      "tags": {
        "check_date": "2023-11-01",
        "level": "1",
        "name": "HomeLane.com",
        "shop": "interior_decoration",
        "wheelchair": "no"
      }
    },
    {
      "type": "node",
      "id": 11303744487,
      "lat": 12.90608,
      "lon": 77.587813,
      "tags": {
        "check_date": "2023-11-01",
        "level": "0",
        "name": "Maruit Suzuki Nexa",
        "shop": "car",
        "wheelchair": "yes"
      }
    },
    {
      "type": "node",
      "id": 11303744488,
      "lat": 12.9060772,
      "lon": 77.5880885,
      "tags": {
        "amenity": "bank",
        "brand": "ICICI Bank",
        "brand:wikidata": "Q1653258",
        "check_date": "2023-11-01",
        "level": "0",
        "name": "ICICI Bank",
        "short_name": "ICICI",
        "wheelchair": "no"
      }
    },
    {
      "type": "node",
      "id": 11303744489,
      "lat": 12.9065841,
      "lon": 77.5886336,
      "tags": {
        "check_date": "2023-11-01",
        "level": "0",
        "name": "The organic world",
        "organic": "only",
        "shop": "supermarket",
        "wheelchair": "limited"
      }
    },
    {
      "type": "node",
      "id": 11303746612,
      "lat": 12.9069387,
      "lon": 77.5856442,
      "tags": {
        "amenity": "bicycle_rental",
        "check_date": "2023-11-01",
        "name": "Yulu Bike Stand"
      }
    },
    {
      "type": "node",
      "id": 11303746666,
      "lat": 12.9086287,
      "lon": 77.5834793,
      "tags": {
        "check_date": "2023-11-01",
        "name": "Hair Sessions Men's Saloon",
        "shop": "hairdresser"
      }
    },
    {
      "type": "node",
      "id": 11303748075,
      "lat": 12.9107338,
      "lon": 77.5828423,
      "tags": {
        "check_date": "2023-11-01",
        "name": "Shana Trading Company",
        "shop": "department_store"
      }
    },
    {
      "type": "node",
      "id": 11303751506,
      "lat": 12.9061033,
      "lon": 77.5866031,
      "tags": {
        "amenity": "restaurant",
        "check_date": "2023-11-01",
        "name": "1947"
      }
    },
    {
      "type": "node",
      "id": 11303751507,
      "lat": 12.9060244,
      "lon": 77.5868402,
      "tags": {
        "check_date": "2023-11-01",
        "name": "Royal King",
        "shop": "massage"
      }
    },
    {
      "type": "node",
      "id": 11303754449,
      "lat": 12.9066859,
      "lon": 77.5768602,
      "tags": {
        "amenity": "bank",
        "atm": "yes",
        "brand": "IndusInd Bank",
        "brand:wikidata": "Q2040323",
        "check_date": "2023-11-01",
        "name": "IndusInd Bank"
      }
    },
    {
      "type": "node",
      "id": 11303756913,
      "lat": 12.9061291,
      "lon": 77.578027,
      "tags": {
        "level": "0",
        "name": "Lakeview milk bar since 1930",
        "shop": "dairy"
      }
    },
    {
      "type": "node",
      "id": 11303758350,
      "lat": 12.9107148,
      "lon": 77.583503,
      "tags": {
        "amenity": "doctors",
        "check_date": "2023-11-01",
        "healthcare": "doctor",
        "healthcare:speciality": "orthopaedics",
        "name": "Prime Orthopedics"
      }
    },
    {
      "type": "node",
      "id": 11303758351,
      "lat": 12.9106464,
      "lon": 77.5841885,
      "tags": {
        "amenity": "clinic",
        "check_date": "2023-11-01",
        "healthcare": "clinic",
        "name": "Aster Labs"
      }
    },
    {
      "type": "node",
      "id": 11303758352,
      "lat": 12.9106464,
      "lon": 77.5841885,
      "tags": {
        "amenity": "clinic",
        "check_date": "2023-11-01",
        "healthcare": "clinic",
        "healthcare:speciality": "fertility",
        "name": "Baby Science IVF clinic"
      }
    },
    {
      "type": "node",
      "id": 11303758467,
      "lat": 12.9062868,
      "lon": 77.5765195,
      "tags": {
        "name": "Royal Lifestyle",
        "shop": "car_parts"
      }
    },
    {
      "type": "node",
      "id": 11303761207,
      "lat": 12.9068406,
      "lon": 77.585623,
      "tags": {
        "check_date": "2023-11-01",
        "name": "Urban Sarees",
        "shop": "fashion_accessories"
      }
    },
    {
      "type": "node",
      "id": 11303761208,
      "lat": 12.9065242,
      "lon": 77.5783848,
      "tags": {
        "shop": "tea"
      }
    },
    {
      "type": "node",
      "id": 11303762242,
      "lat": 12.9060616,
      "lon": 77.5855244,
      "tags": {
        "amenity": "restaurant",
        "check_date": "2023-11-01",
        "level": "2",
        "name": "Casa Piccosa",
        "opening_hours": "00:00-01:00,11:00-24:00"
      }
    },
    {
      "type": "node",
      "id": 11303762243,
      "lat": 12.9060789,
      "lon": 77.5854544,
      "tags": {
        "check_date": "2023-11-01",
        "level": "1",
        "name": "Wooden Street",
        "shop": "furniture"
      }
    },
    {
      "type": "node",
      "id": 11303762244,
      "lat": 12.906127,
      "lon": 77.5860544,
      "tags": {
        "check_date": "2023-11-01",
        "level": "0",
        "name": "Global Hardware & Power Tools",
        "shop": "hardware"
      }
    },
    {
      "type": "node",
      "id": 11303762245,
      "lat": 12.9065673,
      "lon": 77.5864076,
      "tags": {
        "amenity": "restaurant",
        "check_date": "2023-11-01",
        "cuisine": "asian",
        "level": "1",
        "name": "NI YU",
        "wheelchair": "limited"
      }
    },
    {
      "type": "node",
      "id": 11303762985,
      "lat": 12.9075107,
      "lon": 77.5859176,
      "tags": {
        "check_date": "2023-11-01",
        "leisure": "fitness_centre",
        "name": "Karma Center",
        "sport": "yoga"
      }
    },
    {
      "type": "node",
      "id": 11303763219,
      "lat": 12.9060608,
      "lon": 77.58713,
      "tags": {
        "check_date": "2023-11-01",
        "name": "Pepperfry Studio",
        "shop": "furniture"
      }
    },
    {
      "type": "node",
      "id": 11303763223,
      "lat": 12.9102031,
      "lon": 77.5878491,
      "tags": {
        "check_date": "2023-11-01",
        "name": "Kinderdreams Baby Store",
        "shop": "baby_goods"
      }
    },
    {
      "type": "node",
      "id": 11303763739,
      "lat": 12.9062525,
      "lon": 77.5779194,
      "tags": {
        "name": "The Cake Shop",
        "shop": "pastry"
      }
    },
    {
      "type": "node",
      "id": 11303763740,
      "lat": 12.9103298,
      "lon": 77.587092,
      "tags": {
        "amenity": "doctors",
        "check_date": "2023-11-01",
        "healthcare": "doctor",
        "healthcare:speciality": "gynaecology",
        "name": "Bloom Women's Health",
        "phone": "+91 95917 87988"
      }
    },
    {
      "type": "node",
      "id": 11303763741,
      "lat": 12.9062374,
      "lon": 77.5762286,
      "tags": {
        "amenity": "clinic",
        "name": "PharmEasy Labs collection centre"
      }
    },
    {
      "type": "node",
      "id": 11303765856,
      "lat": 12.9093099,
      "lon": 77.5817838,
      "tags": {
        "check_date": "2023-11-01",
        "name": "Sri Durga Condiments",
        "shop": "confectionery"
      }
    },
    {
      "type": "node",
      "id": 11303765887,
      "lat": 12.9116875,
      "lon": 77.5859426,
      "tags": {
        "check_date": "2023-11-01",
        "clothes": "lingerie",
        "name": "Van Heusen Inner Wear",
        "shop": "clothes",
        "wheelchair": "no"
      }
    },
    {
      "type": "node",
      "id": 11303767325,
      "lat": 12.9103136,
      "lon": 77.5875758,
      "tags": {
        "amenity": "cafe",
        "check_date": "2023-11-01",
        "cuisine": "coffee_shop",
        "name": "Benki Coffee",
        "opening_hours": "Mo-Tu 11:00-20:00; We-Su 07:00-21:00",
        "payment:cash": "yes",
        "payment:mastercard": "yes",
        "payment:visa": "yes"
      }
    },
    {
      "type": "node",
      "id": 11303767729,
      "lat": 12.9083628,
      "lon": 77.5847684,
      "tags": {
        "check_date": "2023-11-01",
        "name": "Hopcoms",
        "shop": "greengrocer"
      }
    },
    {
      "type": "node",
      "id": 11303767730,
      "lat": 12.9083725,
      "lon": 77.5848558,
      "tags": {
        "check_date": "2023-11-01",
        "name": "Nandini Shoppe",
        "shop": "dairy"
      }
    },
    {
      "type": "node",
      "id": 11303767732,
      "lat": 12.9107078,
      "lon": 77.5843154,
      "tags": {
        "access": "yes",
        "amenity": "toilets",
        "check_date": "2023-11-01"
      }
    },
    {
      "type": "node",
      "id": 11303767734,
      "lat": 12.9104661,
      "lon": 77.5853389,
      "tags": {
        "amenity": "post_box",
        "operator": "India Post",
        "operator:wikidata": "Q3519720"
      }
    },
    {
      "type": "node",
      "id": 11303767735,
      "lat": 12.9086288,
      "lon": 77.5858739,
      "tags": {
        "amenity": "ice_cream",
        "check_date": "2023-11-01",
        "name": "Freez"
      }
    },
    {
      "type": "node",
      "id": 11303767893,
      "lat": 12.9063706,
      "lon": 77.5777546,
      "tags": {
        "name": "The Big Market",
        "shop": "supermarket"
      }
    },
    {
      "type": "node",
      "id": 11303769769,
      "lat": 12.9065579,
      "lon": 77.5776567,
      "tags": {
        "shop": "tea"
      }
    },
    {
      "type": "node",
      "id": 11303771924,
      "lat": 12.9105758,
      "lon": 77.5880187,
      "tags": {
        "amenity": "restaurant",
        "check_date": "2023-11-01",
        "name": "Baba Punjabi"
      }
    },
    {
      "type": "node",
      "id": 11303774165,
      "lat": 12.9062077,
      "lon": 77.5754154,
      "tags": {
        "amenity": "bank",
        "branch": "JP Nagar",
        "brand": "Bank of India",
        "brand:wikidata": "Q2004439",
        "name": "Bank of India",
        "name:kn": "ಬ್ಯಾಂಕ್ ಅಫ್ ಇಂಡಿಯ"
      }
    },
    {
      "type": "node",
      "id": 11303776046,
      "lat": 12.9101758,
      "lon": 77.5818113,
      "tags": {
        "check_date": "2023-11-01",
        "name": "Mari Swamy Xerox",
        "shop": "copyshop"
      }
    },
    {
      "type": "node",
      "id": 11303782101,
      "lat": 12.9103521,
      "lon": 77.5818133,
      "tags": {
        "check_date": "2023-11-01",
        "name": "Ramdev Stationery",
        "shop": "stationery"
      }
    },
    {
      "type": "node",
      "id": 11303784532,
      "lat": 12.9099304,
      "lon": 77.581821,
      "tags": {
        "amenity": "dentist",
        "check_date": "2023-11-01",
        "healthcare": "dentist",
        "name": "Spectrum Dental Clinic"
      }
    },
    {
      "type": "node",
      "id": 11303785278,
      "lat": 12.9104384,
      "lon": 77.5817415,
      "tags": {
        "check_date": "2023-11-01",
        "name": "Srinivasa Traders",
        "shop": "department_store"
      }
    },
    {
      "type": "node",
      "id": 11303785279,
      "lat": 12.9104384,
      "lon": 77.5817415,
      "tags": {
        "check_date": "2023-11-01",
        "name": "Ramdev Novelties",
        "shop": "craft"
      }
    },
    {
      "type": "node",
      "id": 11303787987,
      "lat": 12.910378,
      "lon": 77.5816822,
      "tags": {
        "amenity": "fixme",
        "check_date": "2023-11-01",
        "fixme": "type",
        "fixme:type": "courier",
        "name": "Professional Courier"
      }
    },
    {
      "type": "node",
      "id": 11303787988,
      "lat": 12.9104295,
      "lon": 77.5818288,
      "tags": {
        "check_date": "2023-11-01",
        "name": "New Classic Men's Parlour",
        "phone": "+91 99006 15439",
        "shop": "hairdresser"
      }
    },
    {
      "type": "node",
      "id": 11303787989,
      "lat": 12.9104295,
      "lon": 77.5818288,
      "tags": {
        "check_date": "2023-11-01",
        "name": "Ramdev Stationers",
        "shop": "mobile_phone"
      }
    },
    {
      "type": "node",
      "id": 11303789827,
      "lat": 12.9086016,
      "lon": 77.5834712,
      "tags": {
        "check_date": "2023-11-01",
        "name": "MedPlus",
        "shop": "chemist",
        "wheelchair": "limited"
      }
    },
    {
      "type": "node",
      "id": 11303837286,
      "lat": 12.9072205,
      "lon": 77.5786884,
      "tags": {
        "access": "yes",
        "amenity": "toilets",
        "check_date": "2023-11-01",
        "toilets:disposal": "flush",
        "wheelchair": "no"
      }
    },
    {
      "type": "node",
      "id": 11304378396,
      "lat": 12.9072425,
      "lon": 77.5787712,
      "tags": {
        "amenity": "fast_food",
        "brand": "Indira Canteen",
        "brand:wikidata": "Q36164828",
        "cuisine": "south_indian",
        "name": "Indira Canteen",
        "operator": "BBMP",
        "takeaway": "yes"
      }
    },
    {
      "type": "node",
      "id": 11304378405,
      "lat": 12.9072177,
      "lon": 77.5784721,
      "tags": {
        "name": "HOPCOMS",
        "shop": "greengrocer"
      }
    },
    {
      "type": "node",
      "id": 11309492474,
      "lat": 12.9072205,
      "lon": 77.5784124,
      "tags": {
        "brand": "Nandini",
        "name": "Bamul",
        "shop": "kiosk"
      }
    },
    {
      "type": "node",
      "id": 11309805437,
      "lat": 12.9172901,
      "lon": 77.5776156,
      "tags": {
        "check_date": "2023-11-03",
        "name": "Pet Dreams",
        "shop": "pet"
      }
    },
    {
      "type": "node",
      "id": 11309805438,
      "lat": 12.917069,
      "lon": 77.5781777,
      "tags": {
        "amenity": "motorcycle_parking"
      }
    },
    {
      "type": "node",
      "id": 11309805447,
      "lat": 12.9168722,
      "lon": 77.5834061,
      "tags": {
        "check_date": "2023-11-03",
        "name": "VRK Heritage",
        "shop": "clothes"
      }
    },
    {
      "type": "node",
      "id": 11754772661,
      "lat": 12.9061758,
      "lon": 77.5805046,
      "tags": {
        "addr:city": "Bangalore",
        "addr:country": "IN",
        "addr:postcode": "560078",
        "addr:street": "Outer Ring Road",
        "addr:suburb": "JP Nagar",
        "amenity": "restaurant",
        "cuisine": "american",
        "name": "JP Nagara Social",
        "smoking": "separated"
      }
    },
    {
      "type": "node",
      "id": 11804151884,
      "lat": 12.9112635,
      "lon": 77.5742302,
      "tags": {
        "access": "yes",
        "amenity": "toilets",
        "fee": "yes",
        "operator": "BBMP"
      }
    },
    {
      "type": "node",
      "id": 11813227397,
      "lat": 12.9075935,
      "lon": 77.5707809,
      "tags": {
        "amenity": "hospital",
        "name": "Bengaluru City Hospital"
      }
    },
    {
      "type": "node",
      "id": 12067827169,
      "lat": 12.9136597,
      "lon": 77.5862704,
      "tags": {
        "amenity": "music_school",
        "name": "Shubham School of Performing Arts"
      }
    },
    {
      "type": "node",
      "id": 12094543106,
      "lat": 12.9062386,
      "lon": 77.5788939,
      "tags": {
        "addr:city": "Bengaluru",
        "addr:country": "IN",
        "addr:hamlet": "6th Phase",
        "addr:housenumber": "597",
        "addr:postcode": "560078",
        "addr:street": "Outer Ring Road",
        "addr:suburb": "JP Nagar",
        "amenity": "restaurant",
        "contact:instagram": "sinonnas",
        "cuisine": "pizza",
        "delivery": "yes",
        "name": "Si Nonna's",
        "phone": "+91 9653423631",
        "takeaway": "yes",
        "website": "https://sinonnas.com/"
      }
    },
    {
      "type": "node",
      "id": 12161544267,
      "lat": 12.9030499,
      "lon": 77.5859107,
      "tags": {
        "amenity": "restaurant",
        "brand": "Restaurante Popular",
        "level": "0",
        "name": "Samskruthi Sathkara",
        "wheelchair": "limited"
      }
    },
    {
      "type": "node",
      "id": 12171236647,
      "lat": 12.9032735,
      "lon": 77.5737196,
      "tags": {
        "description": "Water filter and other consumables",
        "name": "Aqua World",
        "shop": "appliance"
      }
    },
    {
      "type": "node",
      "id": 12290419101,
      "lat": 12.9065813,
      "lon": 77.58214,
      "tags": {
        "amenity": "bar",
        "name": "The Pump House",
        "opening_hours": "Mo-Su 12:00-00:30",
        "phone": "+91 96061 27666",
        "website": "https://thepumphouse.in/"
      }
    },
    {
      "type": "node",
      "id": 12320273044,
      "lat": 12.9060286,
      "lon": 77.5852067,
      "tags": {
        "addr:housenumber": "745",
        "addr:street": "Aurobindo Marg (24th Main)",
        "amenity": "pub",
        "check_date": "2024-11-07",
        "name": "Taproom by Sherlock's"
      }
    },
    {
      "type": "node",
      "id": 12320273045,
      "lat": 12.9059207,
      "lon": 77.5858993,
      "tags": {
        "amenity": "pharmacy",
        "check_date": "2024-11-07",
        "healthcare": "pharmacy",
        "wheelchair": "no"
      }
    },
    {
      "type": "node",
      "id": 12320273046,
      "lat": 12.9066822,
      "lon": 77.5851367,
      "tags": {
        "air_conditioning": "yes",
        "amenity": "cafe",
        "check_date": "2025-02-22",
        "cuisine": "coffee_shop",
        "highchair": "yes",
        "level": "0",
        "name": "Cafe Petriqor",
        "outdoor_seating": "yes",
        "toilets": "yes"
      }
    },
    {
      "type": "node",
      "id": 12320273047,
      "lat": 12.906049,
      "lon": 77.586435,
      "tags": {
        "amenity": "restaurant",
        "check_date": "2024-11-07",
        "contact:instagram": "https://www.instagram.com/gaia.blr",
        "cuisine": "regional",
        "diet:vegan": "yes",
        "diet:vegetarian": "yes",
        "name": "Gaia"
      }
    },
    {
      "type": "node",
      "id": 12461000331,
      "lat": 12.9119682,
      "lon": 77.5860142,
      "tags": {
        "amenity": "pub",
        "contact:instagram": "senditbob",
        "delivery": "yes",
        "name": "Bob's Bar",
        "takeaway": "yes",
        "toilets": "yes"
      }
    },
    {
      "type": "node",
      "id": 12512478240,
      "lat": 12.9070922,
      "lon": 77.5730158,
      "tags": {
        "access": "yes",
        "amenity": "motorcycle_parking",
        "covered": "yes",
        "fee": "yes",
        "operator": "BMRCL",
        "parking": "surface"
      }
    },
    {
      "type": "node",
      "id": 12553367899,
      "lat": 12.9052342,
      "lon": 77.585597,
      "tags": {
        "addr:city": "Bengaluru",
        "addr:district": "Bengaluru Urban",
        "addr:full": "3rd floor, 722, 24th Main Rd, near Nandhini hotel, KR Layout, 6th phase, J. P. Nagar",
        "addr:postcode": "560078",
        "addr:street": "24th Main Road",
        "beauty": "spa;massage",
        "name": "Siyara Spa in JP Nagar",
        "opening_hours": "Mo-Su 10:00-21:00",
        "operator": "Mr. Ajith",
        "phone": "09148112300",
        "shop": "beauty",
        "website": "https://siyaraspa.in/"
      }
    },
    {
      "type": "node",
      "id": 12580990403,
      "lat": 12.9154291,
      "lon": 77.574685,
      "tags": {
        "access": "private",
        "amenity": "parking_entrance",
        "parking": "underground"
      }
    },
    {
      "type": "node",
      "id": 12580990408,
      "lat": 12.9154064,
      "lon": 77.5742645,
      "tags": {
        "access": "private",
        "amenity": "parking_entrance",
        "parking": "underground"
      }
    },
    {
      "type": "node",
      "id": 12609542987,
      "lat": 12.9057047,
      "lon": 77.5831816,
      "tags": {
        "amenity": "cafe",
        "check_date": "2025-02-22",
        "name": "Iris Cafe and Kitchen"
      }
    },
    {
      "type": "node",
      "id": 12828276462,
      "lat": 12.9061539,
      "lon": 77.5802618,
      "tags": {
        "check_date": "2023-11-01",
        "shop": "electronics"
      }
    },
    {
      "type": "node",
      "id": 12862846461,
      "lat": 12.9020393,
      "lon": 77.5856761,
      "tags": {
        "amenity": "fast_food",
        "cuisine": "burger",
        "delivery": "yes",
        "name": "Easy Bites by Empire",
        "takeaway": "yes"
      }
    },
    {
      "type": "node",
      "id": 12969591119,
      "lat": 12.9063123,
      "lon": 77.5746485,
      "tags": {
        "name": "PGM Party Shop",
        "shop": "party"
      }
    },
    {
      "type": "node",
      "id": 13013978949,
      "lat": 12.906051,
      "lon": 77.5825477,
      "tags": {
        "amenity": "restaurant",
        "name": "Tuk Tuk Thai"
      }
    },
    {
      "type": "node",
      "id": 13158114701,
      "lat": 12.9128491,
      "lon": 77.585578,
      "tags": {
        "addr:floor": "4",
        "air_conditioning": "yes",
        "amenity": "restaurant",
        "bar": "yes",
        "check_date": "2025-09-20",
        "cuisine": "indian;andhra;chinese;chicken;regional",
        "diet:lactose_free": "limited",
        "diet:non-vegetarian": "yes",
        "diet:vegan": "on_demand",
        "diet:vegetarian": "yes",
        "handwashing:soap": "yes",
        "image:menu": "9903160b-e5bd-4a94-a931-9f09cf78cc0a",
        "image:menu:0": "0785e08f-c2c7-47fe-8d91-435d2fb7b7b5",
        "image:menu:1": "92a57144-ecf3-4598-9bf0-3b3163be94f8",
        "image:menu:2": "f626bb09-f056-45cb-b418-c4a40a04df7d",
        "image:menu:3": "ade2fa8a-33c5-4a7b-bb9d-f513db95be04",
        "image:menu:4": "d4d1febe-0f79-4b37-853a-4241c2f9ebbe",
        "image:menu:5": "6308f86a-901e-4333-b58f-77c49ac2640d",
        "indoor_seating": "yes",
        "level": "4",
        "name": "Mayuri",
        "outdoor_seating": "no",
        "payment:cards": "no",
        "payment:cash": "yes",
        "payment:debit_cards": "yes",
        "payment:qr_code": "no",
        "payment:upi": "yes",
        "reservation": "yes",
        "takeaway": "yes",
        "toilets": "yes",
        "toilets:access": "customers",
        "toilets:disposal": "flush",
        "toilets:fee": "no",
        "toilets:handwashing": "yes",
        "toilets:level": "4",
        "wheelchair": "yes",
        "wikimedia_commons": "Category:Mayuri,_JP_Nagar,_Bangalore"
      }
    },
    {
      "type": "way",
      "id": 32258996,
      "center": {
        "lat": 12.9079385,
        "lon": 77.5814156
      },
      "tags": {
        "leisure": "park",
        "name": "Sri SK Nataraj Park"
      }
    },
    {
      "type": "way",
      "id": 97948550,
      "center": {
        "lat": 12.9089335,
        "lon": 77.5811366
      },
      "tags": {
        "leisure": "pitch",
        "name": "Sarakki Pitch",
        "name:kn": "ಸಾರಕ್ಕಿ ಆಟದ ಮೈದಾನ",
        "sport": "cricket"
      }
    },
    {
      "type": "way",
      "id": 118411722,
      "center": {
        "lat": 12.9110143,
        "lon": 77.5797725
      },
      "tags": {
        "addr:city": "bangalore",
        "addr:district": "Bengaluru Urban",
        "addr:full": "No 21, 9Th Cross, B-78 Jp Nagar",
        "addr:housenumber": "21",
        "addr:postcode": "560078",
        "addr:state": "Karnataka",
        "addr:street": "9th Cross Road, Phase 1, Sarakki Layout, JP Nagar",
        "amenity": "hospital",
        "emergency": "yes",
        "healthcare": "hospital",
        "name": "Rajshekhar Hospital",
        "name:kn": "ರಾಜಶೇಖರ ಆಸ್ಪತ್ರೆ",
        "phone": "080 4252 7555",
        "source": "OpenGovernmentData",
        "website": "https://www.rajshekarhospital.com/"
      }
    },
    {
      "type": "way",
      "id": 118411725,
      "center": {
        "lat": 12.9111132,
        "lon": 77.5816348
      },
      "tags": {
        "amenity": "place_of_worship",
        "name": "Sri Aurobindo Ashram",
        "name:kn": "ಶ್ರೀ ಅರವಿಂದ ಆಶ್ರಾಮ",
        "religion": "hindu"
      }
    },
    {
      "type": "way",
      "id": 118411727,
      "center": {
        "lat": 12.9158758,
        "lon": 77.573059
      },
      "tags": {
        "amenity": "place_of_worship",
        "name": "Banashankari Temple",
        "name:kn": "ಬನಶಂಕರಿ ದೇವಸ್ಥಾನ",
        "religion": "hindu"
      }
    },
    {
      "type": "way",
      "id": 133951786,
      "center": {
        "lat": 12.9164637,
        "lon": 77.5796155
      },
      "tags": {
        "addr:district": "Bengaluru Urban",
        "addr:full": "VR Layout, J. P. Nagar, Bengaluru",
        "addr:postcode": "560078",
        "addr:state": "Karnataka",
        "amenity": "hospital",
        "healthcare": "hospital",
        "name": "Rajalakshmi Multispeciality Hospital",
        "name:kn": "ರಾಜಾಜಿನಗರ ಆಸ್ಪತ್ರೆ"
      }
    },
    {
      "type": "way",
      "id": 161298656,
      "center": {
        "lat": 12.9082913,
        "lon": 77.5783957
      },
      "tags": {
        "amenity": "school",
        "grades": "0-12",
        "name": "Government Public School",
        "name:kn": "ಸರ್ಕಾರಿ ಶಾಲೆ"
      }
    },
    {
      "type": "way",
      "id": 161520128,
      "center": {
        "lat": 12.9072544,
        "lon": 77.5768901
      },
      "tags": {
        "leisure": "park"
      }
    },
    {
      "type": "way",
      "id": 161520129,
      "center": {
        "lat": 12.9074139,
        "lon": 77.5793532
      },
      "tags": {
        "leisure": "park"
      }
    },
    {
      "type": "way",
      "id": 262072817,
      "center": {
        "lat": 12.9052976,
        "lon": 77.5810468
      },
      "tags": {
        "leisure": "park"
      }
    },
    {
      "type": "way",
      "id": 262072818,
      "center": {
        "lat": 12.9050716,
        "lon": 77.5810481
      },
      "tags": {
        "amenity": "place_of_worship",
        "building": "yes",
        "denomination": "Shiva,Ayyappan",
        "religion": "hindu"
      }
    },
    {
      "type": "way",
      "id": 299706900,
      "center": {
        "lat": 12.9155925,
        "lon": 77.5855349
      },
      "tags": {
        "addr:city": "Bangalore",
        "addr:district": "Bengaluru Urban",
        "addr:housenumber": "1107",
        "addr:postcode": "560075",
        "addr:street": "24th Main Rd, TMC Layout, 1st Phase, J. P. Nagar",
        "amenity": "bar",
        "building": "industrial",
        "name": "Mockaholic Restro Beer Cafe"
      }
    },
    {
      "type": "way",
      "id": 330741929,
      "center": {
        "lat": 12.9095495,
        "lon": 77.5805932
      },
      "tags": {
        "amenity": "place_of_worship",
        "name": "Satyanarayana Swami Temple",
        "name:kn": "ಸತ್ಯನಾರಯಣ ಸ್ವಾಮಿ",
        "religion": "hindu"
      }
    },
    {
      "type": "way",
      "id": 332234669,
      "center": {
        "lat": 12.9094412,
        "lon": 77.5805872
      },
      "tags": {
        "amenity": "place_of_worship",
        "building": "yes",
        "name": "Sri Dharmarayaswami Devasthana",
        "name:kn": "ಧರ್ಮರಾಯಸ್ವಾಮಿ ದೇವಸ್ಥಾನ",
        "religion": "hindu"
      }
    },