{
  "area_name": "Shamanna Reddy Layout",
  "osm_id": 11812207736,
  "osm_type": "node",
  "place_type": "neighbourhood",
  "amenity_count": 182,
  "amenities": [
    {
      "type": "node",
      "id": 937026991,
      "lat": 12.9774296,
      "lon": 77.6955308,
      "tags": {
        "addr:district": "Bengaluru Urban",
        "addr:postcode": "560037",
        "addr:state": "Karnataka",
        "amenity": "clinic",
        "check_date": "2022-07-23",
        "name": "SBF Health, Bengaluru Urban",
        "source": "OpenGovernmentData"
      }
    },
    {
      "type": "node",
      "id": 1024506179,
      "lat": 12.9773708,
      "lon": 77.6954828,
      "tags": {
        "addr:city": "Doddanekundi, Marathahalli",
        "addr:housename": "Sri Kote Ashirwad Towers",
        "addr:housenumber": "27/7",
        "addr:postcode": "560037",
        "addr:street": "Outer Ring Road",
        "air_conditioning": "yes",
        "amenity": "restaurant",
        "diet:vegetarian": "yes",
        "indoor_seating": "yes",
        "name": "ArmaDQ",
        "outdoor_seating": "no",
        "payment:credit_cards": "yes",
        "payment:debit_cards": "yes"
      }
    },
    {
      "type": "node",
      "id": 1166727538,
      "lat": 12.9790704,
      "lon": 77.693907,
      "tags": {
        "amenity": "atm",
        "name": "Axis bank ATM private to Ferns Icon"
      }
    },
    {
      "type": "node",
      "id": 1166727541,
      "lat": 12.979298,
      "lon": 77.6951854,
      "tags": {
        "addr:floor": "1",
        "amenity": "restaurant",
        "bar": "no",
        "check_date": "2025-02-12",
        "cuisine": "indian",
        "diet:vegetarian": "yes",
        "highchair": "no",
        "indoor_seating": "yes",
        "internet_access": "no",
        "name": "Plate 99 Restaurant",
        "opening_hours": "Mo-Su 11:00-24:00",
        "outdoor_seating": "no",
        "payment:cards": "no",
        "payment:cash": "yes",
        "payment:credit_cards": "no",
        "payment:debit_cards": "no",
        "phone": "+91 85508 35554",
        "smoking": "no",
        "source": "survey",
        "toilets": "yes",
        "toilets:wheelchair": "no",
        "wheelchair": "no"
      }
    },
    {
      "type": "node",
      "id": 1166727551,
      "lat": 12.9788613,
      "lon": 77.6946259,
      "tags": {
        "addr:street": "ORR  opposite bhagini",
        "amenity": "bar",
        "indoor_seating": "yes",
        "name": "Sarovar Portico",
        "outdoor_seating": "no"
      }
    },
    {
      "type": "node",
      "id": 1166727555,
      "lat": 12.9789845,
      "lon": 77.6953187,
      "tags": {
        "check_date": "2024-11-09",
        "check_date:opening_hours": "2024-11-09",
        "indoor_seating": "no",
        "internet_access": "no",
        "name": "Preethi Condiments",
        "opening_hours:signed": "no",
        "outdoor_seating": "no",
        "payment:cash": "yes",
        "payment:credit_cards": "no",
        "payment:debit_cards": "no",
        "payment:upi": "yes",
        "shop": "bakery",
        "takeaway": "only",
        "wheelchair": "limited"
      }
    },
    {
      "type": "node",
      "id": 1338100076,
      "lat": 12.9717515,
      "lon": 77.6935258,
      "tags": {
        "amenity": "place_of_worship",
        "check_date": "2024-04-01",
        "name": "Temple (Ram Temple)",
        "name:kn": "ದೇವಸ್ಥಾನ",
        "religion": "hindu"
      }
    },
    {
      "type": "node",
      "id": 1386045373,
      "lat": 12.9686771,
      "lon": 77.7010336,
      "tags": {
        "air_conditioning": "yes",
        "amenity": "cafe",
        "brand": "Cafe Coffee Day",
        "brand:wikidata": "Q5017235",
        "check_date:opening_hours": "2024-04-01",
        "cuisine": "coffee_shop",
        "diet:halal": "yes",
        "diet:vegan": "yes",
        "diet:vegetarian": "yes",
        "indoor_seating": "yes",
        "name": "Cafe Coffee Day",
        "name:kn": "ಕಫೆ ಕಾಫಿ ಡೇ",
        "opening_hours": "Mo-Su 08:00-24:00",
        "outdoor_seating": "yes",
        "smoking": "no",
        "takeaway": "yes",
        "wheelchair": "no"
      }
    },
    {
      "type": "node",
      "id": 1719552441,
      "lat": 12.9785542,
      "lon": 77.6967137,
      "tags": {
        "brand": "Bosch",
        "check_date": "2024-09-20",
        "name": "Mudra Bosch Car Service",
        "opening_hours": "Mo-Sa 09:00-19:00",
        "shop": "car_repair",
        "wheelchair": "limited"
      }
    },
    {
      "type": "node",
      "id": 2281106615,
      "lat": 12.9787433,
      "lon": 77.6955214,
      "tags": {
        "air_conditioning": "no",
        "amenity": "restaurant",
        "bar": "no",
        "check_date": "2024-09-02",
        "check_date:diet:halal": "2022-08-21",
        "diet:halal": "yes",
        "diet:vegetarian": "yes",
        "highchair": "no",
        "indoor_seating": "yes",
        "internet_access": "no",
        "name": "Kabab Magic",
        "opening_hours": "Mo-Su 12:30-23:30",
        "outdoor_seating": "no",
        "payment:cash": "yes",
        "payment:credit_cards": "yes",
        "payment:debit_cards": "yes",
        "payment:upi": "yes",
        "smoking": "no",
        "takeaway": "yes",
        "wheelchair": "no"
      }
    },
    {
      "type": "node",
      "id": 2281106627,
      "lat": 12.9773921,
      "lon": 77.6956418,
      "tags": {
        "amenity": "bank",
        "atm": "yes",
        "brand": "State Bank of India",
        "brand:wikidata": "Q1340361",
        "name": "State Bank of India",
        "name:kn": "ಎಸ್ ಬಿ ಐ",
        "short_name": "SBI"
      }
    },
    {
      "type": "node",
      "id": 3150212616,
      "lat": 12.9699991,
      "lon": 77.6865703,
      "tags": {
        "addr:city": "Bangalore",
        "addr:postcode": "560037",
        "addr:street": "Hamsa Club Road",
        "amenity": "dojo",
        "name": "M S Gurukkal's Kalari Academy",
        "opening_hours": "06:00-19:00",
        "sport": "Kalaripayattu"
      }
    },
    {
      "type": "node",
      "id": 3205896049,
      "lat": 12.9788781,
      "lon": 77.6944035,
      "tags": {
        "amenity": "bicycle_parking",
        "bicycle_parking": "informal",
        "capacity": "100",
        "covered": "no",
        "name": "Two Wheeler Parking"
      }
    },
    {
      "type": "node",
      "id": 4133663292,
      "lat": 12.9792116,
      "lon": 77.6952364,
      "tags": {
        "addr:housename": "Ashirwad Towers",
        "addr:street": "Outer Ring Road",
        "amenity": "bank",
        "brand": "IDBI Bank",
        "brand:wikidata": "Q3633485",
        "brand:wikipedia": "en:IDBI Bank",
        "check_date": "2024-09-19",
        "drive_through": "no",
        "name": "IDBI Bank",
        "name:en": "IDBI Bank",
        "name:kn": "ಐಡಿಬಿಐ ಬ್ಯಾಂಕ್",
        "old_name": "Industrial Development Bank of India",
        "opening_hours": "Mo-Sa 10:00-16:00; Su,Sa[2,4] off",
        "operator": "IDBI",
        "phone": "+91 80 2853 0813",
        "short_name": "IDBI",
        "source": "survey",
        "website": "https://www.idbi.com",
        "wheelchair": "no"
      }
    },
    {
      "type": "node",
      "id": 4325367592,
      "lat": 12.9789013,
      "lon": 77.6955987,
      "tags": {
        "air_conditioning": "no",
        "amenity": "restaurant",
        "diet:vegetarian": "yes",
        "indoor_seating": "yes",
        "name": "Bijoor Biryani House",
        "outdoor_seating": "no",
        "payment:credit_cards": "no",
        "payment:debit_cards": "no",
        "smoking": "no",
        "wheelchair": "limited"
      }
    },
    {
      "type": "node",
      "id": 4365896504,
      "lat": 12.971484,
      "lon": 77.6943016,
      "tags": {
        "amenity": "post_office",
        "brand": "Professional Couriers",
        "check_date": "2023-09-03",
        "internet_access": "no",
        "name": "Professional Couriers",
        "source": "survey"
      }
    },
    {
      "type": "node",
      "id": 4443774568,
      "lat": 12.9786306,
      "lon": 77.694542,
      "tags": {
        "addr:city": "Bangalore",
        "addr:floor": "4",
        "addr:housenumber": "39/5",
        "addr:postcode": "560037",
        "addr:street": "RBD Sarovar Portico, Doddanekundi, Outer Ring Road, Marathahalli",
        "air_conditioning": "yes",
        "amenity": "restaurant",
        "bar": "yes",
        "check_date": "2025-02-02",
        "check_date:opening_hours": "2025-02-02",
        "delivery": "yes",
        "diet:vegetarian": "yes",
        "highchair": "no",
        "indoor_seating": "yes",
        "level": "4",
        "microbrewery": "no",
        "name": "Brunchilly",
        "opening_hours": "07:00-23:00",
        "outdoor_seating": "no",
        "payment:credit_cards": "yes",
        "payment:debit_cards": "yes",
        "phone": "+91 80 49652104",
        "reservation": "yes",
        "smoking": "no",
        "source": "survey",
        "takeaway": "yes",
        "toilets": "yes",
        "wheelchair": "no"
      }
    },
    {
      "type": "node",
      "id": 4488145602,
      "lat": 12.9729164,
      "lon": 77.7011884,
      "tags": {
        "addr:postcode": "560037",
        "check_date": "2024-11-24",
        "check_date:opening_hours": "2021-12-05",
        "name": "Gateway Super Bazaar",
        "opening_hours": "07:00-22:30",
        "payment:cash": "yes",
        "payment:credit_cards": "yes",
        "payment:debit_cards": "yes",
        "payment:upi": "yes",
        "shop": "supermarket",
        "wheelchair": "no"
      }
    },
    {
      "type": "node",
      "id": 4488488457,
      "lat": 12.9721261,
      "lon": 77.6987222,
      "tags": {
        "addr:city": "Bangalore",
        "addr:housenumber": "102/2",
        "addr:postcode": "560037",
        "addr:street": "Outer Ring Road  Narayana Reddy Building, Doddanekundi Extension",
        "name": "Plaza Supermarket",
        "opening_hours": "08:00-21:00",
        "phone": "(91)-80-25405115",
        "shop": "supermarket"
      }
    },
    {
      "type": "node",
      "id": 4489944387,
      "lat": 12.9792461,
      "lon": 77.6952137,
      "tags": {
        "addr:city": "Bangalore",
        "addr:housename": "Ashirwad Towers",
        "addr:postcode": "560037",
        "addr:street": "Outer Ring Road",
        "branch": "Doddanekundi",
        "check_date": "2025-03-05",
        "email": "stylewavesunisexsalon@gmail.com",
        "name": "Style Waves Unisex Salon & Beauty Studio",
        "opening_hours": "Mo-Su 10:00-21:00",
        "phone": "+91 80 25405240",
        "shop": "beauty",
        "website": "http://stylewavessalon.com/"
      }
    },
    {
      "type": "node",
      "id": 4489960099,
      "lat": 12.9731178,
      "lon": 77.7013024,
      "tags": {
        "addr:city": "Bangalore",
        "addr:housenumber": "14",
        "addr:postcode": "560037",
        "addr:street": "Outer Ring Road",
        "name": "Fashion Quotient Unisex Saloon And Spa",
        "opening_hours": "09:30-21:30",
        "phone": "080-28510719",
        "shop": "beauty",
        "wheelchair": "no"
      }
    },
    {
      "type": "node",
      "id": 5503164668,
      "lat": 12.9694372,
      "lon": 77.6937276,
      "tags": {
        "name": "Green Father, Vegitable Shop",
        "shop": "supermarket"
      }
    },
    {
      "type": "node",
      "id": 5503164669,
      "lat": 12.9694729,
      "lon": 77.6937382,
      "tags": {
        "name": "mobile recharge",
        "shop": "mobile_phone"
      }
    },
    {
      "type": "node",
      "id": 5503164671,
      "lat": 12.9691864,
      "lon": 77.693647,
      "tags": {
        "amenity": "pharmacy",
        "healthcare": "pharmacy",
        "name": "Mahadev Medical and General Store"
      }
    },
    {
      "type": "node",
      "id": 5503164672,
      "lat": 12.9699346,
      "lon": 77.6937681,
      "tags": {
        "name": "Cell fix Smart Solutions",
        "opening_hours": "Mo-Sa 10:00-22:00",
        "shop": "computer"
      }
    },
    {
      "type": "node",
      "id": 5503164674,
      "lat": 12.9702401,
      "lon": 77.6939474,
      "tags": {
        "amenity": "restaurant",
        "cuisine": "biriyani;chicken",
        "indoor_seating": "yes",
        "name": "Ambur Biriyani",
        "name:kn": "ಅಂಬುರ್ ಬಿರಿಯಾನಿ",
        "opening_hours": "10:00-22:00",
        "outdoor_seating": "no"
      }
    },
    {
      "type": "node",
      "id": 5503164675,
      "lat": 12.9702107,
      "lon": 77.6939409,
      "tags": {
        "name": "Shri Venkateshwara Tent House",
        "opening_hours": "Mo-Su 09:30-23:00",
        "shop": "Tent_House"
      }
    },
    {
      "type": "node",
      "id": 5503164676,
      "lat": 12.9691492,
      "lon": 77.6936356,
      "tags": {
        "amenity": "atm",
        "check_date": "2022-07-02",
        "currency:INR": "yes",
        "operator": "HDFC ATM"
      }
    },
    {
      "type": "node",
      "id": 5503164677,
      "lat": 12.9691135,
      "lon": 77.6936234,
      "tags": {
        "name": "Utensils and Private Cylender Shop",
        "shop": "convenience"
      }
    },
    {
      "type": "node",
      "id": 5503164678,
      "lat": 12.9694399,
      "lon": 77.6936418,
      "tags": {
        "name": "Utensils and Private Cylender Shop",
        "shop": "convenience"
      }
    },
    {
      "type": "node",
      "id": 5503164679,
      "lat": 12.9690246,
      "lon": 77.693603,
      "tags": {
        "name": "chicken shop",
        "shop": "butcher"
      }
    },
    {
      "type": "node",
      "id": 5503164680,
      "lat": 12.9689482,
      "lon": 77.6936044,
      "tags": {
        "name": "Iris Eye Care",
        "shop": "optician"
      }
    },
    {
      "type": "node",
      "id": 5503164681,
      "lat": 12.9687983,
      "lon": 77.693571,
      "tags": {
        "name": "Max Shoppee",
        "shop": "supermarket"
      }
    },
    {
      "type": "node",
      "id": 5503164682,
      "lat": 12.9687775,
      "lon": 77.6935639,
      "tags": {
        "amenity": "fast_food",
        "cuisine": "momo",
        "indoor_seating": "no",
        "name": "Momo Center",
        "outdoor_seating": "no",
        "takeaway": "only"
      }
    },
    {
      "type": "node",
      "id": 5503164683,
      "lat": 12.9690025,
      "lon": 77.6934988,
      "tags": {
        "amenity": "restaurant",
        "cuisine": "indian",
        "indoor_seating": "yes",
        "name": "Gopal Dhaba",
        "outdoor_seating": "no"
      }
    },
    {
      "type": "node",
      "id": 5503164684,
      "lat": 12.9687034,
      "lon": 77.6935455,
      "tags": {
        "amenity": "atm",
        "check_date": "2024-03-15",
        "currency:INR": "yes",
        "network": "State Bank Of India",
        "operator": "SBI Bank ATM"
      }
    },
    {
      "type": "node",
      "id": 5503164692,
      "lat": 12.9688212,
      "lon": 77.6934744,
      "tags": {
        "amenity": "fast_food",
        "indoor_seating": "no",
        "name": "Hot Chips",
        "outdoor_seating": "no",
        "takeaway": "only"
      }
    },
    {
      "type": "node",
      "id": 5503369887,
      "lat": 12.9702783,
      "lon": 77.6939453,
      "tags": {
        "addr:street": "1st Main, Doddanekundi",
        "name": "Chandan Electricals & Hardware",
        "opening_hours": "Mo-Su 10:00-21:00",
        "phone": "9845448540",
        "shop": "hardware"
      }
    },
    {
      "type": "node",
      "id": 5503379547,
      "lat": 12.9701642,
      "lon": 77.6939213,
      "tags": {
        "addr:street": "1st Main, Doddanekundi",
        "name": "Sri Venkateshwara Tent House",
        "shop": "department_store"
      }
    },
    {
      "type": "node",
      "id": 5503464385,
      "lat": 12.971547,
      "lon": 77.6943036,
      "tags": {
        "check_date": "2023-09-03",
        "indoor_seating": "no",
        "name": "Anil Bakery & Sweets",
        "outdoor_seating": "no",
        "shop": "bakery",
        "takeaway": "only"
      }
    },
    {
      "type": "node",
      "id": 5578956423,
      "lat": 12.9757683,
      "lon": 77.6930887,
      "tags": {
        "addr:postcode": "560037",
        "addr:street": "20 Cross",
        "amenity": "restaurant",
        "cuisine": "fish;chicken;diner;indian;curry",
        "name": "Green Leaf Kerela Hotel",
        "operator": "Shaji"
      }
    },
    {
      "type": "node",
      "id": 6201924576,
      "lat": 12.9712219,
      "lon": 77.6943085,
      "tags": {
        "air_conditioning": "no",
        "amenity": "restaurant",
        "diet:vegan": "yes",
        "diet:vegetarian": "yes",
        "indoor_seating": "yes",
        "name": "Marusa Food Family Restaurant",
        "opening_hours": "Mo-Sa 07:00-22:00",
        "outdoor_seating": "no",
        "smoking": "no"
      }
    },
    {
      "type": "node",
      "id": 6201946860,
      "lat": 12.9775377,
      "lon": 77.6921216,
      "tags": {
        "name": "SSK White Collar",
        "shop": "laundry"
      }
    },
    {
      "type": "node",
      "id": 6202591009,
      "lat": 12.9708386,
      "lon": 77.6941903,
      "tags": {
        "air_conditioning": "no",
        "amenity": "fast_food",
        "brand": "Five Star Chicken",
        "check_date": "2022-09-14",
        "cuisine": "chicken",
        "delivery": "yes",
        "diet:vegetarian": "yes",
        "indoor_seating": "yes",
        "name": "Five Star Chicken",
        "outdoor_seating": "no",
        "smoking": "no",
        "takeaway": "yes"
      }
    },
    {
      "type": "node",
      "id": 6202625760,
      "lat": 12.9710643,
      "lon": 77.6942355,
      "tags": {
        "amenity": "clinic",
        "healthcare": "clinic",
        "name": "Sri Radha Krishna Clinic",
        "opening_hours": "Mo-Su 09:30-17:00"
      }
    },
    {
      "type": "node",
      "id": 7178923564,
      "lat": 12.9792783,
      "lon": 77.6951985,
      "tags": {
        "air_conditioning": "no",
        "amenity": "fast_food",
        "check_date": "2025-02-02",
        "check_date:opening_hours": "2025-02-02",
        "cuisine": "dessert;ice_cream",
        "diet:vegetarian": "yes",
        "drive_through": "no",
        "indoor_seating": "yes",
        "internet_access": "no",
        "name": "Lassi Magic",
        "opening_hours": "Mo-Su 11:00-23:00",
        "payment:cash": "yes",
        "payment:credit_cards": "yes",
        "payment:debit_cards": "yes",
        "payment:upi": "yes",
        "smoking": "no",
        "source": "survey",
        "takeaway": "only",
        "website": "https://www.lassimagic.com/",
        "wheelchair": "no"
      }
    },
    {
      "type": "node",
      "id": 9312818686,
      "lat": 12.968592,
      "lon": 77.6935422,
      "tags": {
        "name": "Pet Supply Shop",
        "shop": "pet"
      }
    },
    {
      "type": "node",
      "id": 9312818687,
      "lat": 12.9690162,
      "lon": 77.6936245,
      "tags": {
        "amenity": "pharmacy",
        "dispensing": "yes",
        "drive_through": "no",
        "healthcare": "pharmacy",
        "name": "Maya Clinic Pharmacy"
      }
    },
    {
      "type": "node",
      "id": 9312818688,
      "lat": 12.9689946,
      "lon": 77.6936227,
      "tags": {
        "amenity": "clinic",
        "healthcare": "clinic",
        "healthcare:speciality": "gynaecology",
        "name": "Maya Clinic"
      }
    },
    {
      "type": "node",
      "id": 9332469928,
      "lat": 12.9696568,
      "lon": 77.6962157,
      "tags": {
        "name": "SLR Tailors",
        "shop": "tailor"
      }
    },
    {
      "type": "node",
      "id": 9332469929,
      "lat": 12.9696351,
      "lon": 77.697157,
      "tags": {
        "name": "Gopis Stores",
        "opening_hours": "Mo-Sa 09:00-21:30",
        "shop": "general"
      }
    },
    {
      "type": "node",
      "id": 9332469950,
      "lat": 12.9721915,
      "lon": 77.6976338,
      "tags": {
        "amenity": "bank",
        "brand": "State Bank of India",
        "brand:wikidata": "Q1340361",
        "brand:wikipedia": "en:State Bank of India",
        "name": "State Bank of India",
        "opening_hours": "Mo-Fr 09:30-18:00",
        "short_name": "SBI"
      }
    },
    {
      "type": "node",
      "id": 9332469951,
      "lat": 12.9721987,
      "lon": 77.6976091,
      "tags": {
        "amenity": "atm",
        "brand": "State Bank of India",
        "brand:wikidata": "Q1340361",
        "brand:wikipedia": "en:State Bank of India",
        "cash_in": "no",
        "name": "State Bank of India",
        "name:kn": "ಎಸ್ ಬಿ ಐ",
        "operator": "State Bank of India",
        "operator:wikidata": "Q1340361",
        "operator:wikipedia": "en:State Bank of India",
        "short_name": "SBI"
      }
    },
    {
      "type": "node",
      "id": 9332469952,
      "lat": 12.9721987,
      "lon": 77.6979077,
      "tags": {
        "amenity": "atm",
        "cash_in": "no",
        "indoor": "no",
        "operator": "Kotak Mahindra Bank ATM"
      }
    },
    {
      "type": "node",
      "id": 9332469957,
      "lat": 12.9733976,
      "lon": 77.6936603,
      "tags": {
        "amenity": "pharmacy",
        "brand": "MedPlus",
        "brand:wikidata": "Q65684234",
        "check_date": "2024-10-10",
        "dispensing": "yes",
        "drive_through": "no",
        "healthcare": "pharmacy",
        "name": "MedPlus",
        "name:en": "MedPlus",
        "payment:cash": "yes",
        "payment:credit_cards": "yes",
        "payment:debit_cards": "yes",
        "payment:upi": "yes",
        "source": "local knowledge",
        "wheelchair": "no"
      }
    },
    {
      "type": "node",
      "id": 9381352825,
      "lat": 12.9689173,
      "lon": 77.6934949,
      "tags": {
        "amenity": "fast_food",
        "cuisine": "juice;sandwich",
        "indoor_seating": "no",
        "name": "Lassi Shop",
        "outdoor_seating": "yes"
      }
    },
    {
      "type": "node",
      "id": 9381352832,
      "lat": 12.9715277,
      "lon": 77.6943109,
      "tags": {
        "check_date": "2023-09-03",
        "level": "1",
        "name": "VS Tailoring & Boutique",
        "shop": "tailor"
      }
    },
    {
      "type": "node",
      "id": 9381352833,
      "lat": 12.9715076,
      "lon": 77.6943046,
      "tags": {
        "amenity": "internet_cafe",
        "name": "Balaji Super Xerox"
      }
    },
    {
      "type": "node",
      "id": 9381352846,
      "lat": 12.9712747,
      "lon": 77.6919326,
      "tags": {
        "name": "Deli day Mart",
        "shop": "supermarket",
        "wheelchair": "no"
      }
    },
    {
      "type": "node",
      "id": 9841349418,
      "lat": 12.9748408,
      "lon": 77.6972081,
      "tags": {
        "amenity": "restaurant",
        "check_date": "2025-03-10",
        "indoor_seating": "yes",
        "name": "Sri Udupi Park",
        "outdoor_seating": "no"
      }
    },
    {
      "type": "node",
      "id": 9893685125,
      "lat": 12.9785463,
      "lon": 77.6968116,
      "tags": {
        "addr:floor": "0",
        "check_date": "2024-07-17",
        "check_date:opening_hours": "2023-03-18",
        "internet_access": "no",
        "name": "Farm Fresh Supermarket",
        "opening_hours": "08:00-22:00",
        "organic": "yes",
        "payment:cash": "yes",
        "payment:credit_cards": "yes",
        "payment:debit_cards": "yes",
        "payment:upi": "yes",
        "shop": "supermarket",
        "wheelchair": "limited"
      }
    },
    {
      "type": "node",
      "id": 9893685128,
      "lat": 12.9788547,
      "lon": 77.6961718,
      "tags": {
        "addr:street": "Ferns City Road",
        "air_conditioning": "no",
        "amenity": "fast_food",
        "check_date": "2024-10-20",
        "check_date:opening_hours": "2024-10-20",
        "diet:halal": "no",
        "diet:vegetarian": "yes",
        "drive_through": "no",
        "indoor_seating": "no",
        "name": "Naivedhya Tiffin's",
        "opening_hours:signed": "no",
        "outdoor_seating": "no",
        "payment:credit_cards": "no",
        "payment:debit_cards": "no",
        "phone": "+919538800200",
        "takeaway": "only",
        "wheelchair": "no"
      }
    },
    {
      "type": "node",
      "id": 9893685129,
      "lat": 12.9787033,
      "lon": 77.6964058,
      "tags": {
        "addr:street": "Ferns City Road",
        "air_conditioning": "no",
        "amenity": "restaurant",
        "indoor_seating": "yes",
        "name": "Namma Bengaluru Cafe",
        "outdoor_seating": "no"
      }
    },
    {
      "type": "node",
      "id": 9893685227,
      "lat": 12.9789715,
      "lon": 77.6957688,
      "tags": {
        "air_conditioning": "no",
        "amenity": "restaurant",
        "bar": "no",
        "check_date": "2024-07-17",
        "diet:halal": "yes",
        "diet:non-vegetarian": "yes",
        "diet:vegetarian": "yes",
        "indoor_seating": "yes",
        "name": "Abhiruchi Andhra Mess",
        "opening_hours": "Mo-Su 07:00-16:00,18:00-22:30",
        "outdoor_seating": "no",
        "payment:credit_cards": "yes",
        "payment:debit_cards": "yes",
        "smoking": "no",
        "takeaway": "yes",
        "wheelchair": "limited"
      }
    },
    {
      "type": "node",
      "id": 9893685228,
      "lat": 12.978938,
      "lon": 77.6958815,
      "tags": {
        "air_conditioning": "no",
        "amenity": "fast_food",
        "check_date": "2024-09-20",
        "check_date:opening_hours": "2024-09-20",
        "diet:vegetarian": "yes",
        "drive_through": "no",
        "indoor_seating": "yes",
        "internet_access": "no",
        "name": "Bangarpet Chats",
        "opening_hours": "Mo-Su 15:00-22:00",
        "outdoor_seating": "no",
        "payment:credit_cards": "no",
        "payment:debit_cards": "no",
        "phone": "+919964743789",
        "smoking": "no",
        "takeaway": "yes",
        "wheelchair": "limited"
      }
    },
    {
      "type": "node",
      "id": 9893685229,
      "lat": 12.9786817,
      "lon": 77.6964611,
      "tags": {
        "addr:housenumber": "41",
        "addr:street": "Ferns City Road",
        "check_date": "2024-07-17",
        "diet:halal": "yes",
        "internet_access": "no",
        "name": "Vikky’s Fresh",
        "opening_hours": "Tu-Su 08:30-19:30",
        "payment:cash": "yes",
        "payment:credit_cards": "yes",
        "payment:debit_cards": "yes",
        "payment:upi": "yes",
        "phone": "+91 99860 58417; +91 85999 88881",
        "shop": "butcher",
        "source": "survey",
        "website": "https://www.vikkysfresh.com",
        "wheelchair": "limited"
      }
    },
    {
      "type": "node",
      "id": 9893686518,
      "lat": 12.9790338,
      "lon": 77.6952923,
      "tags": {
        "addr:floor": "0",
        "air_conditioning": "no",
        "amenity": "fast_food",
        "check_date": "2024-07-17",
        "delivery": "yes",
        "diet:halal": "yes",
        "diet:vegetarian": "yes",
        "drive_through": "no",
        "highchair": "no",
        "indoor_seating": "yes",
        "internet_access": "no",
        "name": "The Shawarma Man",
        "opening_hours": "12:30-23:00",
        "outdoor_seating": "no",
        "payment:credit_cards": "no",
        "payment:debit_cards": "no",
        "phone": "+91 93530 83350",
        "smoking": "no",
        "source": "survey",
        "takeaway": "yes",
        "wheelchair": "limited"
      }
    },
    {
      "type": "node",
      "id": 9909036719,
      "lat": 12.969231,
      "lon": 77.7013535,
      "tags": {
        "check_date": "2024-09-04",
        "name": "Jodhpuri Furniture",
        "payment:credit_cards": "yes",
        "payment:debit_cards": "yes",
        "shop": "furniture",
        "website": "https://www.jodhpurifurniture.com/",
        "wheelchair": "no"
      }
    },
    {
      "type": "node",
      "id": 9909062519,
      "lat": 12.9698339,
      "lon": 77.700326,
      "tags": {
        "amenity": "bank",
        "atm": "yes",
        "branch": "Karthik Nagar",
        "brand": "Axis Bank",
        "brand:wikidata": "Q2003549",
        "brand:wikipedia": "en:Axis Bank",
        "check_date": "2025-02-04",
        "name": "Axis Bank",
        "name:kn": "ಆಕ್ಸಿಸ್ ಬ್ಯಾಂಕ್",
        "wheelchair": "no"
      }
    },
    {
      "type": "node",
      "id": 9909083417,
      "lat": 12.969514,
      "lon": 77.7005134,
      "tags": {
        "amenity": "bank",
        "atm": "yes",
        "branch": "Karthik Nagar",
        "brand": "HDFC Bank",
        "brand:wikidata": "Q631047",
        "brand:wikipedia": "en:HDFC Bank",
        "check_date": "2025-02-04",
        "name": "HDFC Bank",
        "name:kn": "ಎಚ್ ಡಿ ಎಫ್ ಸಿ",
        "short_name": "HDFC",
        "wheelchair": "no"
      }
    },
    {
      "type": "node",
      "id": 9967070882,
      "lat": 12.9694108,
      "lon": 77.700554,
      "tags": {
        "addr:housenumber": "9",
        "addr:street": "Outer Ring Road",
        "addr:unit": "UB Elega",
        "air_conditioning": "yes",
        "amenity": "cafe",
        "bar": "no",
        "changing_table": "no",
        "check_date": "2025-09-11",
        "check_date:diet:halal": "2025-09-11",
        "check_date:opening_hours": "2025-09-11",
        "cuisine": "coffee_shop;sandwich;burger",
        "diet:halal": "yes",
        "diet:non-vegetarian": "yes",
        "diet:vegan": "yes",
        "diet:vegetarian": "yes",
        "email": "karthiknagar@thirdwavecoffee.in",
        "highchair": "yes",
        "indoor_seating": "yes",
        "internet_access": "wlan",
        "internet_access:fee": "no",
        "name": "Third Wave Coffee",
        "opening_hours": "08:00-01:00",
        "outdoor_seating": "no",
        "payment:cash": "yes",
        "payment:credit_cards": "yes",
        "payment:debit_cards": "yes",
        "payment:mastercard": "yes",
        "payment:upi": "yes",
        "payment:visa": "yes",
        "phone": "+91 80957 99577",
        "smoking": "no",
        "source": "survey",
        "takeaway": "yes",
        "website": "https://cafe.thirdwavecoffee.in/coffee-cafe-bengaluru-north-bengaluru-29973/home",
        "wheelchair": "no"
      }
    },
    {
      "type": "node",
      "id": 9978416918,
      "lat": 12.9689247,
      "lon": 77.7007968,
      "tags": {
        "check_date": "2025-04-04",
        "name": "Naturals",
        "shop": "hairdresser",
        "wheelchair": "no"
      }
    },
    {
      "type": "node",
      "id": 9978419617,
      "lat": 12.9701175,
      "lon": 77.7001617,
      "tags": {
        "check_date": "2022-08-21",
        "female": "yes",
        "male": "yes",
        "name": "Green Trends",
        "opening_hours": "Mo-Fr 10:00-21:00; Sa,Su 10:00-21:00",
        "shop": "hairdresser"
      }
    },
    {
      "type": "node",
      "id": 9978419618,
      "lat": 12.9754863,
      "lon": 77.6967198,
      "tags": {
        "amenity": "pharmacy",
        "check_date": "2024-10-20",
        "healthcare": "pharmacy",
        "name": "A-Z Pharma",
        "wheelchair": "no"
      }
    },
    {
      "type": "node",
      "id": 9978419717,
      "lat": 12.9714621,
      "lon": 77.6992279,
      "tags": {
        "amenity": "place_of_worship",
        "check_date": "2025-04-04",
        "name": "Sri Krishna Temple",
        "religion": "hindu"
      }
    },
    {
      "type": "node",
      "id": 10110415036,
      "lat": 12.9787081,
      "lon": 77.6963803,
      "tags": {
        "air_conditioning": "no",
        "check_date": "2024-12-23",
        "internet_access": "no",
        "male": "yes",
        "name": "Royal Mens Salon",
        "opening_hours": "Mo-Su 10:00-20:00",
        "payment:cash": "yes",
        "payment:credit_cards": "no",
        "payment:debit_cards": "no",
        "payment:upi": "yes",
        "shop": "hairdresser",
        "source": "survey",
        "wheelchair": "limited"
      }
    },
    {
      "type": "node",
      "id": 10542364542,
      "lat": 12.9756648,
      "lon": 77.697396,
      "tags": {
        "air_conditioning": "yes",
        "amenity": "fast_food",
        "brand": "McDonald's",
        "brand:wikidata": "Q38076",
        "check_date": "2024-04-03",
        "cuisine": "burger",
        "delivery": "yes",
        "diet:vegetarian": "yes",
        "drive_through": "no",
        "highchair": "yes",
        "indoor_seating": "yes",
        "name": "McDonald's",
        "opening_hours": "Mo-Su 11:00-23:00",
        "outdoor_seating": "no",
        "payment:mastercard": "yes",
        "payment:upi": "yes",
        "payment:visa": "yes",
        "phone": "+91 90476 13998",
        "smoking": "no",
        "source": "survey",
        "takeaway": "yes",
        "wheelchair": "limited"
      }
    },
    {
      "type": "node",
      "id": 10617518509,
      "lat": 12.9791689,
      "lon": 77.6952525,
      "tags": {
        "air_conditioning": "yes",
        "amenity": "fast_food",
        "brand": "Domino's",
        "brand:wikidata": "Q839466",
        "check_date": "2025-08-13",
        "cuisine": "pizza",
        "delivery": "yes",
        "diet:halal": "yes",
        "diet:non-vegetarian": "yes",
        "diet:vegetarian": "yes",
        "drive_through": "no",
        "highchair": "yes",
        "indoor_seating": "yes",
        "internet_access": "no",
        "name": "Domino's",
        "outdoor_seating": "no",
        "payment:credit_cards": "yes",
        "payment:debit_cards": "yes",
        "smoking": "no",
        "source": "survey",
        "takeaway": "yes",
        "wheelchair": "no"
      }
    },
    {
      "type": "node",
      "id": 10617518510,
      "lat": 12.9789354,
      "lon": 77.6954036,
      "tags": {
        "addr:floor": "-1",
        "amenity": "pharmacy",
        "check_date": "2025-08-13",
        "dispensing": "no",
        "drive_through": "no",
        "healthcare": "pharmacy",
        "name": "Ganesh Medicals",
        "payment:cash": "yes",
        "payment:credit_cards": "yes",
        "payment:debit_cards": "yes",
        "payment:upi": "yes",
        "phone": "+91 95134 74684; +91 97420 83570",
        "source": "survey",
        "wheelchair": "no"
      }
    },
    {
      "type": "node",
      "id": 10992680247,
      "lat": 12.9714847,
      "lon": 77.6941294,
      "tags": {
        "check_date": "2023-09-03",
        "indoor_seating": "no",
        "name": "Anil Bakery & Sweets",
        "outdoor_seating": "no",
        "shop": "bakery",
        "takeaway": "only"
      }
    },
    {
      "type": "node",
      "id": 10992684349,
      "lat": 12.9712879,
      "lon": 77.6941564,
      "tags": {
        "amenity": "pharmacy",
        "check_date": "2023-09-03",
        "drive_through": "no",
        "name": "Shri Veer Teja Medical And General Store",
        "phone": "+91 73535 12470; +91 97720 07279",
        "source": "survey"
      }
    },
    {
      "type": "node",
      "id": 11056993028,
      "lat": 12.9692353,
      "lon": 77.7006739,
      "tags": {
        "addr:housenumber": "92",
        "addr:street": "Outer Ring Road",
        "amenity": "college",
        "check_date": "2025-09-11",
        "email": "srushtidegreecollege@gmail.com",
        "name": "Srushti Degree College",
        "phone": "+91 99646 45111; +91 97409 56262",
        "source": "survey",
        "website": "https://srushtidegreecollege.com/"
      }
    },
    {
      "type": "node",
      "id": 11091793283,
      "lat": 12.9756215,
      "lon": 77.6974475,
      "tags": {
        "brand": "cult.fit",
        "brand:wikidata": "Q121289250",
        "check_date": "2025-08-16",
        "leisure": "fitness_centre",
        "level": "1",
        "name": "cult.fit",
        "opening_hours": "Mo-Su 06:00-22:00",
        "source": "survey",
        "wheelchair": "no"
      }
    },
    {
      "type": "node",
      "id": 11116490519,
      "lat": 12.9744148,
      "lon": 77.6973898,
      "tags": {
        "air_conditioning": "yes",
        "amenity": "restaurant",
        "check_date": "2023-08-15",
        "cuisine": "mediterranean",
        "email": "bm.bng1@flechazo.in",
        "indoor_seating": "yes",
        "level": "2",
        "name": "Flechazo",
        "outdoor_seating": "no",
        "payment:mastercard": "yes",
        "payment:visa": "yes",
        "phone": "+91 89512 64441",
        "website": "https://www.flechazo.in"
      }
    },
    {
      "type": "node",
      "id": 11116490520,
      "lat": 12.9775032,
      "lon": 77.6967106,
      "tags": {
        "amenity": "car_wash",
        "check_date": "2023-08-15",
        "name": "Car Armour",
        "opening_hours": "08:30-21:30",
        "phone": "+91 89714 26809; +91 96638 48547",
        "self_service": "no"
      }
    },
    {
      "type": "node",
      "id": 11116490521,
      "lat": 12.9774464,
      "lon": 77.6965554,
      "tags": {
        "air_conditioning": "no",
        "amenity": "restaurant",
        "check_date": "2023-08-15",
        "indoor_seating": "yes",
        "name": "Gowdru Rajanna Hotel",
        "outdoor_seating": "no"
      }
    },
    {
      "type": "node",
      "id": 11116490524,
      "lat": 12.9792304,
      "lon": 77.6952189,
      "tags": {
        "addr:floor": "0",
        "amenity": "atm",
        "brand": "IDBI Bank",
        "brand:wikidata": "Q3633485",
        "cash_in": "no",
        "check_date": "2025-09-03",
        "covered": "yes",
        "drive_through": "no",
        "indoor": "no",
        "lit": "yes",
        "opening_hours": "24/7",
        "operator": "IDBI Bank",
        "operator:wikidata": "Q3633485",
        "short_name": "IDBI",
        "source": "survey",
        "wheelchair": "no"
      }
    },
    {
      "type": "node",
      "id": 11164759627,
      "lat": 12.9717447,
      "lon": 77.6941287,
      "tags": {
        "amenity": "place_of_worship",
        "check_date": "2023-09-03",
        "name": "Sri Vinayaka Sri Basavanna devalaya Sri Subramanyam",
        "religion": "hindu"
      }
    },
    {
      "type": "node",
      "id": 11164759628,
      "lat": 12.9714531,
      "lon": 77.6942959,
      "tags": {
        "addr:housenumber": "8",
        "addr:street": "Doddanekkundi Main Road",
        "addr:unit": "Munireddy Building",
        "air_conditioning": "no",
        "check_date": "2023-09-03",
        "email": "nanireddy9019@gmail.com",
        "internet_access": "no",
        "level": "1",
        "name": "Sri Balaji Photostudio & Video",
        "payment:cards": "no",
        "payment:cash": "yes",
        "payment:credit_cards": "no",
        "payment:debit_cards": "no",
        "phone": "+91 90190 60999; +91 99015 15358",
        "shop": "photo",
        "source": "survey",
        "stroller": "no",
        "toilets": "no",
        "wheelchair": "no"
      }
    },
    {
      "type": "node",
      "id": 11342658514,
      "lat": 12.9786336,
      "lon": 77.6965846,
      "tags": {
        "addr:housenumber": "41",
        "addr:street": "Ferns City Road",
        "air_conditioning": "no",
        "check_date": "2024-11-09",
        "check_date:opening_hours": "2024-11-09",
        "internet_access": "no",
        "name": "A1 Dry Cleaners",
        "opening_hours:signed": "no",
        "payment:credit_cards": "no",
        "payment:debit_cards": "no",
        "phone": "+91 72046 99906",
        "shop": "dry_cleaning",
        "source": "survey",
        "wheelchair": "yes"
      }
    },
    {
      "type": "node",
      "id": 11472780668,
      "lat": 12.9736587,
      "lon": 77.6935433,
      "tags": {
        "amenity": "post_office",
        "brand": "Desk to Desk Courier & Cargo",
        "brand:short": "DTDC",
        "brand:wikidata": "Q55608802",
        "check_date": "2023-12-27",
        "operator": "Desk to Desk Courier & Cargo",
        "operator:short": "DTDC",
        "operator:wikidata": "Q55608802",
        "payment:cards": "no",
        "payment:cash": "yes",
        "payment:credit_cards": "no",
        "payment:debit_cards": "no",
        "source": "survey"
      }
    },
    {
      "type": "node",
      "id": 11509027861,
      "lat": 12.9750751,
      "lon": 77.6987885,
      "tags": {
        "access": "private",
        "amenity": "parking_entrance",
        "parking": "underground"
      }
    },
    {
      "type": "node",
      "id": 11509027862,
      "lat": 12.9750273,
      "lon": 77.6987639,
      "tags": {
        "access": "private",
        "amenity": "parking_entrance",
        "parking": "underground"
      }
    },
    {
      "type": "node",
      "id": 12046469614,
      "lat": 12.9729744,
      "lon": 77.6994417,
      "tags": {
        "amenity": "pharmacy",
        "brand": "Apollo Pharmacy",
        "brand:wikidata": "Q62562612",
        "check_date": "2024-07-10",
        "drive_through": "no",
        "healthcare": "pharmacy",
        "name": "Apollo Pharmacy",
        "payment:cash": "yes",
        "payment:credit_cards": "yes",
        "payment:debit_cards": "yes",
        "source": "survey",
        "wheelchair": "no"
      }
    },
    {
      "type": "node",
      "id": 12046469616,
      "lat": 12.9775379,
      "lon": 77.6968009,
      "tags": {
        "addr:housenumber": "24/4",
        "addr:street": "Ferns City Road",
        "air_conditioning": "no",
        "amenity": "restaurant",
        "bar": "no",
        "check_date": "2024-07-10",
        "diet:vegetarian": "yes",
        "highchair": "no",
        "indoor_seating": "yes",
        "name": "The Secret Garden",
        "outdoor_seating": "yes",
        "payment:cash": "yes",
        "payment:credit_cards": "yes",
        "payment:debit_cards": "yes",
        "source": "survey",
        "takeaway": "yes",
        "toilets": "yes",
        "wheelchair": "limited"
      }
    },
    {
      "type": "node",
      "id": 12046469617,
      "lat": 12.9727907,
      "lon": 77.7008275,
      "tags": {
        "amenity": "atm",
        "brand": "HDFC Bank",
        "brand:wikidata": "Q631047",
        "cash_in": "no",
        "check_date": "2024-07-10",
        "operator": "HDFC Bank",
        "operator:wikidata": "Q631047",
        "short_name": "HDFC"
      }
    },
    {
      "type": "node",
      "id": 12046469618,
      "lat": 12.9727903,
      "lon": 77.7014429,
      "tags": {
        "amenity": "atm",
        "brand": "Axis Bank",
        "brand:wikidata": "Q2003549",
        "check_date": "2024-07-10",
        "operator": "Axis Bank",
        "operator:wikidata": "Q2003549"
      }
    },
    {
      "type": "node",
      "id": 12046469619,
      "lat": 12.9728694,
      "lon": 77.701613,
      "tags": {
        "amenity": "pharmacy",
        "check_date": "2024-07-10",
        "drive_through": "no",
        "healthcare": "pharmacy",
        "name": "Sri Ganesh Medicals & General Stores",
        "phone": "+91 97423 97442",
        "source": "survey",
        "wheelchair": "no"
      }
    },
    {
      "type": "node",
      "id": 12048666409,
      "lat": 12.970242,
      "lon": 77.6999922,
      "tags": {
        "addr:floor": "G",
        "addr:housenumber": "82",
        "addr:street": "Outer Ring Road",
        "addr:unit": "Ground Floor, Kellan Heights",
        "air_conditioning": "yes",
        "amenity": "cafe",
        "branch": "Karthik Nagar",
        "brand": "Chai Point",
        "brand:wikidata": "Q28173415",
        "check_date": "2025-02-04",
        "check_date:diet:vegetarian": "2025-02-04",
        "cuisine": "coffee_shop",
        "diet:vegetarian": "yes",
        "indoor_seating": "yes",
        "internet_access": "wlan",
        "internet_access:fee": "customers",
        "level": "0",
        "name": "Chai Point",
        "opening_hours": "08:00-23:00",
        "outdoor_seating": "no",
        "payment:cash": "yes",
        "payment:credit_cards": "yes",
        "payment:debit_cards": "yes",
        "smoking": "no",
        "takeaway": "yes",
        "wheelchair": "no"
      }
    },
    {
      "type": "node",
      "id": 12164756014,
      "lat": 12.9725933,
      "lon": 77.7009999,
      "tags": {
        "amenity": "restaurant",
        "indoor_seating": "yes",
        "name": "Koikod",
        "outdoor_seating": "no"
      }
    },
    {
      "type": "node",
      "id": 12164756015,
      "lat": 12.9726116,
      "lon": 77.7010806,
      "tags": {
        "name": "Open Mart",
        "shop": "supermarket"
      }
    },
    {
      "type": "node",
      "id": 12164756016,
      "lat": 12.9725717,
      "lon": 77.7009191,
      "tags": {
        "name": "Gulmohar Botique",
        "shop": "clothes"
      }
    },
    {
      "type": "node",
      "id": 12164756017,
      "lat": 12.9726569,
      "lon": 77.7011724,
      "tags": {
        "name": "Parco",
        "shop": "bakery"
      }
    },
    {
      "type": "node",
      "id": 12176946582,
      "lat": 12.9754341,
      "lon": 77.696718,
      "tags": {
        "addr:floor": "1",
        "amenity": "clinic",
        "level": "1",
        "name": "Partha Dental Clinic"
      }
    },
    {
      "type": "node",
      "id": 12209237276,
      "lat": 12.972399,
      "lon": 77.7004172,
      "tags": {
        "amenity": "car_wash"
      }
    },
    {
      "type": "node",
      "id": 12209237277,
      "lat": 12.9725127,
      "lon": 77.7006733,
      "tags": {
        "shop": "motorcycle_repair"
      }
    },
    {
      "type": "node",
      "id": 12254670079,
      "lat": 12.9791025,
      "lon": 77.6948663,
      "tags": {
        "amenity": "toilets",
        "fee": "yes",
        "wheelchair": "no"
      }
    },
    {
      "type": "node",
      "id": 12318692112,
      "lat": 12.9721343,
      "lon": 77.6950757,
      "tags": {
        "brand": "Ration Shop",
        "brand:wikidata": "Q60901",
        "check_date": "2024-10-27",
        "name": "Ration Shop",
        "name:en": "Ration shop",
        "operator": "Public Distribution System",
        "operator:type": "public",
        "operator:wikidata": "Q60901",
        "shop": "convenience"
      }
    },
    {
      "type": "node",
      "id": 12541998679,
      "lat": 12.9722492,
      "lon": 77.6982036,
      "tags": {
        "addr:city": "Bengaluru",
        "addr:postcode": "560037",
        "addr:street": "Kartik Layout, Doddanekundi",
        "name": "White Mart",
        "shop": "supermarket"
      }
    },
    {
      "type": "node",
      "id": 12977423652,
      "lat": 12.9688976,
      "lon": 77.7015009,
      "tags": {
        "amenity": "atm",
        "brand": "IDFC First Bank",
        "brand:wikidata": "Q22031467",
        "check_date": "2025-07-04",
        "opening_hours": "24/7",
        "operator": "IDFC First Bank",
        "operator:wikidata": "Q22031467",
        "wheelchair": "no"
      }
    },
    {
      "type": "node",
      "id": 12977423653,
      "lat": 12.9689452,
      "lon": 77.7014681,
      "tags": {
        "amenity": "bank",
        "brand": "IDFC First Bank",
        "brand:wikidata": "Q22031467",
        "check_date": "2025-07-04",
        "name": "IDFC First Bank",
        "wheelchair": "no"
      }
    },
    {
      "type": "node",
      "id": 13013588702,
      "lat": 12.9726668,
      "lon": 77.6999433,
      "tags": {
        "amenity": "restaurant",
        "name": "Tango"
      }
    },
    {
      "type": "node",
      "id": 13116059773,
      "lat": 12.9685368,
      "lon": 77.6934867,
      "tags": {
        "addr:street": "1st A Cross Road",
        "name": "Bike garage",
        "payment:cash": "yes",
        "shop": "motorcycle_repair"
      }
    },
    {
      "type": "node",
      "id": 13116065415,
      "lat": 12.9683478,
      "lon": 77.6935051,
      "tags": {
        "addr:street": "1st A Cross Road",
        "shop": "motorcycle_repair"
      }
    },
    {
      "type": "way",
      "id": 124538653,
      "center": {
        "lat": 12.9657747,
        "lon": 77.6932731
      },
      "tags": {
        "amenity": "college",
        "name": "HAL Management Academy"
      }
    },
    {
      "type": "way",
      "id": 218907543,
      "center": {
        "lat": 12.9778029,
        "lon": 77.6934487
      },
      "tags": {
        "building": "yes",
        "name": "Sejal Motors",
        "shop": "car_repair"
      }
    },
    {
      "type": "way",
      "id": 346495746,
      "center": {
        "lat": 12.9712692,
        "lon": 77.6893643
      },
      "tags": {
        "addr:postcode": "560037",
        "building": "yes",
        "shop": "bakery"
      }
    },
    {
      "type": "way",
      "id": 346722362,
      "center": {
        "lat": 12.9718004,
        "lon": 77.6937713
      },
      "tags": {
        "addr:district": "Bangalore",
        "addr:full": "Vibhutipura Extension, Doddanekundi",
        "addr:postcode": "560037",
        "addr:state": "Karnataka",
        "addr:subdistrict": "Bangalore East",
        "amenity": "hospital",
        "building": "yes",
        "building:levels": "1",
        "check_date": "2024-04-01",
        "healthcare": "hospital",
        "name": "Government Primary Health Centre",
        "name:kn": "ಸರ್ಕಾರಿ ಪ್ರಾಥಮಿಕ ಆರೋಗ್ಯ ಕೇಂದ್ರ",
        "source": "OpenGovernmentData"
      }
    },
    {
      "type": "way",
      "id": 346722725,
      "center": {
        "lat": 12.9719191,
        "lon": 77.6935653
      },
      "tags": {
        "addr:postcode": "560037",
        "amenity": "place_of_worship",
        "building": "temple",
        "name": "Shri Kodandarama Swamy Temple",
        "name:kn": "ಶ್ರೀ ಕೋದಂಡರಾಮ ಸ್ವಾಮಿ ದೇವಸ್ಥಾನ",
        "religion": "hindu",
        "wheelchair": "no"
      }
    },
    {
      "type": "way",
      "id": 346795645,
      "center": {
        "lat": 12.9689089,
        "lon": 77.6971502
      },
      "tags": {
        "addr:city": "Bangalore",
        "addr:housenumber": "106",
        "addr:street": "5th Cross Road, Karthik Nagar",
        "amenity": "place_of_worship",
        "building": "yes",
        "check_date": "2024-03-16",
        "name": "Hosanna Church",
        "religion": "christian"
      }
    },
    {
      "type": "way",
      "id": 347206941,
      "center": {
        "lat": 12.9765722,
        "lon": 77.6931115
      },
      "tags": {
        "amenity": "college",
        "name": "Bangalore Management Academy"
      }
    },
    {
      "type": "way",
      "id": 350158337,
      "center": {
        "lat": 12.9776301,
        "lon": 77.69794
      },
      "tags": {
        "access": "private",
        "leisure": "swimming_pool",
        "survey:date": "2022-06-19"
      }
    },
    {
      "type": "way",
      "id": 350158340,
      "center": {
        "lat": 12.9781798,
        "lon": 77.6925114
      },
      "tags": {
        "access": "private",
        "leisure": "swimming_pool",
        "survey:date": "2022-06-13"
      }
    },
    {
      "type": "way",
      "id": 350158341,
      "center": {
        "lat": 12.9776769,
        "lon": 77.6978052
      },
      "tags": {
        "access": "private",
        "leisure": "swimming_pool",
        "survey:date": "2022-06-19"
      }
    },
    {
      "type": "way",
      "id": 350158342,
      "center": {
        "lat": 12.9794162,
        "lon": 77.691649
      },
      "tags": {
        "leisure": "swimming_pool"
      }
    },
    {
      "type": "way",
      "id": 350158344,
      "center": {
        "lat": 12.9745395,
        "lon": 77.7010478
      },
      "tags": {
        "leisure": "swimming_pool"
      }
    },
    {
      "type": "way",
      "id": 402014656,
      "center": {
        "lat": 12.9688911,
        "lon": 77.7003939
      },
      "tags": {
        "leisure": "park"
      }
    },
    {
      "type": "way",
      "id": 402014659,
      "center": {
        "lat": 12.9680916,
        "lon": 77.695747
      },
      "tags": {
        "leisure": "common",
        "natural": "wood"
      }
    },
    {
      "type": "way",
      "id": 402014661,
      "center": {
        "lat": 12.9681256,
        "lon": 77.6983308
      },
      "tags": {
        "leisure": "sports_centre",
        "name": "U. R. Rao Sports Complex",
        "name:etymology:wikidata": "Q7877236",
        "sport": "basketball;soccer;cricket"
      }
    },
    {
      "type": "way",
      "id": 414837845,
      "center": {
        "lat": 12.9720228,
        "lon": 77.7009637
      },
      "tags": {
        "leisure": "sports_centre",
        "name": "Whitefield United Sports Arena"
      }
    },
    {
      "type": "way",
      "id": 464282944,
      "center": {
        "lat": 12.9685895,
        "lon": 77.7022979
      },
      "tags": {
        "leisure": "park",
        "name": "BBMP Park",
        "name:kn": "ಬೃ. ಬೆ. ಮ. ಪಾ. ಉದ್ಯಾನವನ",
        "operator": "ಬೃಹತ್ ಬೆಂಗಳೂರು ಮಹಾನಗರ ಪಾಲಿಕೆ",
        "operator:en": "Bruhat Bengaluru Mahanagara Palike",
        "operator:ka": "ಬೃಹತ್ ಬೆಂಗಳೂರು ಮಹಾನಗರ ಪಾಲಿಕೆ",
        "operator:short": "BBMP",
        "operator:type": "government",
        "operator:wikidata": "Q4978693"
      }
    },
    {
      "type": "way",
      "id": 464283854,
      "center": {
        "lat": 12.9704892,
        "lon": 77.6994861
      },
      "tags": {
        "leisure": "park",
        "name": "Children's play park"
      }
    },
    {
      "type": "way",
      "id": 632111019,
      "center": {
        "lat": 12.9753078,
        "lon": 77.697834
      },
      "tags": {
        "amenity": "hospital",
        "check_date": "2025-08-16",
        "emergency": "yes",
        "healthcare": "hospital",
        "name": "Rainbow Children's Hospital",
        "operator:type": "private",
        "payment:mastercard": "yes",
        "payment:visa": "yes",
        "wheelchair": "yes"
      }
    },
    {
      "type": "way",
      "id": 765250686,
      "center": {
        "lat": 12.9744782,
        "lon": 77.6922675
      },
      "tags": {
        "leisure": "sports_centre",
        "name": "Lake View Sports Arena"
      }
    },
    {
      "type": "way",
      "id": 765250687,
      "center": {
        "lat": 12.9747285,
        "lon": 77.6924446
      },
      "tags": {
        "leisure": "pitch",
        "lit": "yes",
        "name": "Lake View Sports Arena Soccer Field",
        "sport": "soccer",
        "surface": "artificial_turf"
      }
    },
    {
      "type": "way",
      "id": 765250688,
      "center": {
        "lat": 12.9741963,
        "lon": 77.6922527
      },
      "tags": {
        "leisure": "pitch",
        "lit": "yes",
        "name": "Lake View Sports Arena Tennis Court",
        "sport": "tennis",
        "surface": "ground"
      }
    },
    {
      "type": "way",
      "id": 765250689,
      "center": {
        "lat": 12.9744741,
        "lon": 77.6923104
      },
      "tags": {
        "leisure": "pitch",
        "lit": "yes",
        "name": "Lake View Sports Arena Badminton Court",
        "sport": "badminton"
      }
    },
    {
      "type": "way",
      "id": 765250690,
      "center": {
        "lat": 12.9747242,
        "lon": 77.6919844
      },
      "tags": {
        "amenity": "toilets",
        "building": "commercial"
      }
    },
    {
      "type": "way",
      "id": 765250691,
      "center": {
        "lat": 12.9743576,
        "lon": 77.6919269
      },
      "tags": {
        "access": "customers",
        "amenity": "parking",
        "capacity:disabled": "0",
        "fee": "no",
        "operator": "Lake View Sports Arena",
        "operator:type": "business",
        "parking": "surface",
        "surface": "unpaved"
      }
    },
    {
      "type": "way",
      "id": 810223895,
      "center": {
        "lat": 12.9717218,
        "lon": 77.6965573
      },
      "tags": {
        "branch": "Service Center",
        "brand": "KTM",
        "brand:wikidata": "Q215657",
        "brand:wikipedia": "en:KTM",
        "building": "yes",
        "name": "KTM",
        "operator": "Khivraj Motors",
        "shop": "motorcycle_repair"
      }
    },
    {
      "type": "way",
      "id": 810223896,
      "center": {
        "lat": 12.9717235,
        "lon": 77.6966498
      },
      "tags": {
        "building": "yes",
        "name": "Bajaj Service Center",
        "operator": "Khivraj Motors",
        "shop": "motorcycle_repair",
        "wikidata": "Q10910065",
        "wikipedia": "en:Bajaj Auto"
      }
    },
    {
      "type": "way",
      "id": 1005123297,
      "center": {
        "lat": 12.9679005,
        "lon": 77.6943154
      },
      "tags": {
        "amenity": "post_office",
        "building": "yes",
        "check_date": "2024-07-28",
        "internet_access": "no",
        "name": "Doddanekkundi Post Office",
        "name:kn": "ಅಂಚೆ ಕಛೇರಿ ದೊಡ್ದನೆಕ್ಕುಂದಿ",
        "opening_hours": "Mo-Fr 09:00-15:00; Sa 09:00-14:00; Su,PH off",
        "operator": "India Post",
        "operator:wikidata": "Q3519720",
        "operator:wikipedia": "en:India Post",
        "payment:cards": "no",
        "payment:cash": "yes",
        "payment:credit_cards": "no",
        "payment:debit_cards": "no",
        "source": "survey",
        "wheelchair": "yes"
      }
    },
    {
      "type": "way",
      "id": 1007105414,
      "center": {
        "lat": 12.971842,
        "lon": 77.6967963
      },
      "tags": {
        "building": "yes",
        "clothes": "wedding;women",
        "name": "House of Shylee",
        "shop": "clothes"
      }
    },
    {
      "type": "way",
      "id": 1070002219,
      "center": {
        "lat": 12.9752275,
        "lon": 77.6969472
      },
      "tags": {
        "amenity": "fuel",
        "brand": "Hindustan Petroleum",
        "brand:wikidata": "Q1619375",
        "compressed_air": "yes",
        "fuel:diesel": "yes",
        "name": "HP",
        "name:kn": "ಹಿಂದುಸ್ತಾನ್ ಪೆಟ್ರೋಲಿಯಂ",
        "official_name": "Hindustan Petroleum",
        "operator": "Hindustan Petroleum"
      }
    },
    {
      "type": "way",
      "id": 1094660578,
      "center": {
        "lat": 12.9776308,
        "lon": 77.6973131
      },
      "tags": {
        "access": "private",
        "leisure": "swimming_pool"
      }
    },
    {
      "type": "way",
      "id": 1193332365,
      "center": {
        "lat": 12.9784974,
        "lon": 77.6957085
      },
      "tags": {
        "amenity": "place_of_worship",
        "check_date": "2024-09-29",
        "name": "Shri Maramma Devi Temple",
        "name:kn": "ಮಾರಮ್ಮ ದೇವಿ",
        "religion": "hindu",
        "wheelchair": "yes"
      }
    },
    {
      "type": "way",
      "id": 1193332408,
      "center": {
        "lat": 12.9717286,
        "lon": 77.6890328
      },
      "tags": {
        "leisure": "swimming_pool"
      }
    },
    {
      "type": "way",
      "id": 1193332434,
      "center": {
        "lat": 12.9773237,
        "lon": 77.6967541
      },
      "tags": {
        "amenity": "restaurant",
        "indoor_seating": "yes",
        "name": "Le Jardin",
        "outdoor_seating": "yes"
      }
    },
    {
      "type": "way",
      "id": 1225130420,
      "center": {
        "lat": 12.9736427,
        "lon": 77.6859585
      },
      "tags": {
        "access": "private",
        "leisure": "swimming_pool"
      }
    },
    {
      "type": "way",
      "id": 1234104569,
      "center": {
        "lat": 12.9647805,
        "lon": 77.6948815
      },
      "tags": {
        "leisure": "garden"
      }
    },
    {
      "type": "way",
      "id": 1234104570,
      "center": {
        "lat": 12.9657818,
        "lon": 77.6964364
      },
      "tags": {
        "leisure": "park"
      }
    },
    {
      "type": "way",
      "id": 1234104602,
      "center": {
        "lat": 12.9656827,
        "lon": 77.7001006
      },
      "tags": {
        "leisure": "garden"
      }
    },
    {
      "type": "way",
      "id": 1234104603,
      "center": {
        "lat": 12.9663762,
        "lon": 77.6990618
      },
      "tags": {
        "access": "permissive",
        "amenity": "parking",
        "parking": "surface"
      }
    },
    {
      "type": "way",
      "id": 1238901223,
      "center": {
        "lat": 12.9764179,
        "lon": 77.6989005
      },
      "tags": {
        "access": "private",
        "leisure": "pitch",
        "sport": "tennis"
      }
    },
    {
      "type": "way",
      "id": 1238901224,
      "center": {
        "lat": 12.9765106,
        "lon": 77.698815
      },
      "tags": {
        "access": "private",
        "amenity": "parking",
        "parking": "street_side"
      }
    },
    {
      "type": "way",
      "id": 1238901225,
      "center": {
        "lat": 12.9773128,
        "lon": 77.6979211
      },
      "tags": {
        "access": "private",
        "leisure": "pitch",
        "sport": "tennis"
      }
    },
    {
      "type": "way",
      "id": 1238901232,
      "center": {
        "lat": 12.9755181,
        "lon": 77.6987846
      },
      "tags": {
        "access": "private",
        "amenity": "parking",
        "parking": "street_side"
      }
    },
    {
      "type": "way",
      "id": 1238901236,
      "center": {
        "lat": 12.9742403,
        "lon": 77.6976295
      },
      "tags": {
        "amenity": "parking",
        "parking": "surface"
      }
    },
    {
      "type": "way",
      "id": 1299038400,
      "center": {
        "lat": 12.9760856,
        "lon": 77.6948479
      },
      "tags": {
        "check_date": "2023-08-15",
        "fee": "yes",
        "leisure": "sports_centre",
        "name": "DJ Sports Arena",
        "operator:type": "private",
        "source": "survey"
      }
    },
    {
      "type": "way",
      "id": 1305864569,
      "center": {
        "lat": 12.9706921,
        "lon": 77.6927459
      },
      "tags": {
        "leisure": "pitch",
        "sport": "volleyball"
      }
    },
    {
      "type": "way",
      "id": 1309999990,
      "center": {
        "lat": 12.9794466,
        "lon": 77.69214
      },
      "tags": {
        "leisure": "park"
      }
    },
    {
      "type": "way",
      "id": 1309999992,
      "center": {
        "lat": 12.9793042,
        "lon": 77.6924561
      },
      "tags": {
        "access": "private",
        "amenity": "parking",
        "parking": "street_side"
      }
    },
    {
      "type": "way",
      "id": 1319021305,
      "center": {
        "lat": 12.9728853,
        "lon": 77.7008927
      },
      "tags": {
        "access": "private",
        "amenity": "parking",
        "parking": "surface"
      }
    },
    {
      "type": "way",
      "id": 1319021306,
      "center": {
        "lat": 12.9728498,
        "lon": 77.7006759
      },
      "tags": {
        "amenity": "place_of_worship",
        "building": "temple",
        "check_date": "2024-07-10",
        "religion": "hindu"
      }
    },
    {
      "type": "way",
      "id": 1319021307,
      "center": {
        "lat": 12.9742118,
        "lon": 77.7010601
      },
      "tags": {
        "access": "private",
        "leisure": "pitch",
        "sport": "tennis"
      }
    },
    {
      "type": "way",
      "id": 1319021308,
      "center": {
        "lat": 12.9742212,
        "lon": 77.7009191
      },
      "tags": {
        "access": "private",
        "leisure": "pitch",
        "sport": "basketball"
      }
    },
    {
      "type": "way",
      "id": 1319284272,
      "center": {
        "lat": 12.9747306,
        "lon": 77.7009633
      },
      "tags": {
        "garden:type": "landscaping",
        "leisure": "garden"
      }
    },
    {
      "type": "way",
      "id": 1337428758,
      "center": {
        "lat": 12.9702991,
        "lon": 77.6966992
      },
      "tags": {
        "access": "private",
        "leisure": "swimming_pool"
      }
    },
    {
      "type": "way",
      "id": 1337428759,
      "center": {
        "lat": 12.9663329,
        "lon": 77.6938482
      },
      "tags": {
        "access": "private",
        "leisure": "swimming_pool"
      }
    },
    {
      "type": "way",
      "id": 1337428760,
      "center": {
        "lat": 12.9648854,
        "lon": 77.6932959
      },
      "tags": {
        "leisure": "park"
      }
    },
    {
      "type": "way",
      "id": 1337428794,
      "center": {
        "lat": 12.9679993,
        "lon": 77.6847255
      },
      "tags": {
        "access": "private",
        "leisure": "swimming_pool"
      }
    },
    {
      "type": "way",
      "id": 1433298935,
      "center": {
        "lat": 12.9778875,
        "lon": 77.6913969
      },
      "tags": {
        "access": "private",
        "leisure": "swimming_pool"
      }
    },
    {
      "type": "way",
      "id": 1433298943,
      "center": {
        "lat": 12.9779931,
        "lon": 77.6920184
      },
      "tags": {
        "access": "private",
        "leisure": "pitch",
        "sport": "basketball"
      }
    },
    {
      "type": "way",
      "id": 1433298944,
      "center": {
        "lat": 12.9783689,
        "lon": 77.6920382
      },
      "tags": {
        "access": "private",
        "leisure": "pitch",
        "sport": "cricket_nets"
      }
    },
    {
      "type": "way",
      "id": 1433298945,
      "center": {
        "lat": 12.9780527,
        "lon": 77.691957
      },
      "tags": {
        "amenity": "school",
        "check_date": "2025-03-08",
        "email": "support.vi15134@vgos.org",
        "landuse": "education",
        "name": "VIBGYOR Roots and Rise School",
        "phone": "+91 80 4934 2000; +91 96866 91166",
        "source": "survey",
        "website": "https://www.vibgyorrise.com/school/doddanekkundi-cbse"
      }
    },
    {
      "type": "way",
      "id": 1433298946,
      "center": {
        "lat": 12.9781975,
        "lon": 77.6933733
      },
      "tags": {
        "access": "private",
        "leisure": "swimming_pool"
      }
    },
    {
      "type": "way",
      "id": 1433298947,
      "center": {
        "lat": 12.9791476,
        "lon": 77.6930148
      },
      "tags": {
        "access": "private",
        "leisure": "pitch",
        "sport": "basketball"
      }
    },
    {
      "type": "way",
      "id": 1433298958,
      "center": {
        "lat": 12.9793824,
        "lon": 77.6930191
      },
      "tags": {
        "access": "private",
        "amenity": "parking"
      }
    },
    {
      "type": "way",
      "id": 1443878742,
      "center": {
        "lat": 12.9738858,
        "lon": 77.6855381
      },
      "tags": {
        "access": "private",
        "leisure": "pitch",
        "sport": "basketball"
      }
    },
    {
      "type": "way",
      "id": 1443878743,
      "center": {
        "lat": 12.97347,
        "lon": 77.6861977
      },
      "tags": {
        "leisure": "playground"
      }
    },
    {
      "type": "way",
      "id": 1443878744,
      "center": {
        "lat": 12.9734058,
        "lon": 77.6863724
      },
      "tags": {
        "access": "private",
        "leisure": "pitch",
        "sport": "basketball"
      }
    },
    {
      "type": "way",
      "id": 1444469684,
      "center": {
        "lat": 12.9787378,
        "lon": 77.6895431
      },
      "tags": {
        "leisure": "pitch",
        "sport": "tennis"
      }
    }
  ]
}