{
  "area_name": "Yelachenahalli",
  "osm_id": 4908513642,
  "osm_type": "node",
  "place_type": "neighbourhood",
  "amenity_count": 102,
  "amenities": [
    {
      "type": "node",
      "id": 1318917183,
      "lat": 12.9040043,
      "lon": 77.5734008,
      "tags": {
        "amenity": "restaurant",
        "brand": "Pizza Hut",
        "brand:wikidata": "Q191615",
        "cuisine": "pizza",
        "name": "Pizza Hut",
        "name:kn": "ಪಿಟ್ಸ ಹಟ್"
      }
    },
    {
      "type": "node",
      "id": 1318917185,
      "lat": 12.8940827,
      "lon": 77.5679951,
      "tags": {
        "amenity": "fast_food",
        "brand": "Domino's",
        "brand:ks": "ڈومینوز",
        "brand:pa": "ਡੋਮੀਨੋਜ਼",
        "brand:ur": "ڈومینوز",
        "brand:wikidata": "Q839466",
        "brand:wikipedia": "en:Domino's Pizza",
        "cuisine": "pizza",
        "name": "Domino's",
        "name:kn": "ಡಾಮಿನೋಸ್",
        "name:ks": "ڈومینوز",
        "name:pa": "ਡੋਮੀਨੋਜ਼",
        "name:ur": "ڈومینوز",
        "takeaway": "yes"
      }
    },
    {
      "type": "node",
      "id": 1318917186,
      "lat": 12.8941977,
      "lon": 77.5680809,
      "tags": {
        "amenity": "atm",
        "brand": "ICICI Bank",
        "brand:wikidata": "Q1653258",
        "name": "ICICI Bank",
        "name:kn": "ಐಸಿಐಸಿಐ ಬ್ಯಾಂಕು",
        "operator": "ICICI Bank",
        "operator:wikidata": "Q1653258",
        "short_name": "ICICI"
      }
    },
    {
      "type": "node",
      "id": 1318917194,
      "lat": 12.894203,
      "lon": 77.5681238,
      "tags": {
        "amenity": "fast_food",
        "cuisine": "indian",
        "name": "Sri Krishna Upahar",
        "name:kn": "ಶ್ರೀ ಕೃಷ್ಣ ಉಪಹಾರ"
      }
    },
    {
      "type": "node",
      "id": 1318917197,
      "lat": 12.894433,
      "lon": 77.5683437,
      "tags": {
        "amenity": "bank",
        "atm": "yes",
        "brand": "HDFC Bank",
        "brand:wikidata": "Q631047",
        "name": "HDFC Bank",
        "short_name": "HDFC"
      }
    },
    {
      "type": "node",
      "id": 1318987639,
      "lat": 12.8910036,
      "lon": 77.5646686,
      "tags": {
        "amenity": "fuel",
        "brand": "Indane Oil",
        "name": "Mobil Petrol / Gas Station",
        "name:en": "Indian Oil Corporation"
      }
    },
    {
      "type": "node",
      "id": 2177250483,
      "lat": 12.8921409,
      "lon": 77.5721791,
      "tags": {
        "amenity": "atm",
        "brand": "HDFC Bank",
        "brand:wikidata": "Q631047",
        "name": "HDFC Bank",
        "operator": "HDFC Bank",
        "operator:wikidata": "Q631047",
        "short_name": "HDFC"
      }
    },
    {
      "type": "node",
      "id": 2986480247,
      "lat": 12.9051908,
      "lon": 77.5647732,
      "tags": {
        "amenity": "place_of_worship",
        "name": "Shri Shri Shri Gangaparameshwari Temple",
        "name:kn": "ಗಂಗಾ ಪರಮೇಶ್ವರಿ ದೇವಸ್ಥಾನ",
        "religion": "hindu"
      }
    },
    {
      "type": "node",
      "id": 2986480248,
      "lat": 12.904979,
      "lon": 77.5646338,
      "tags": {
        "amenity": "place_of_worship",
        "name": "Shri Shri Chamundeshwari Temple",
        "name:kn": "ಚಾಮುಂಡೇಶ್ವರಿ ದೇವಸ್ಥಾನ",
        "religion": "hindu"
      }
    },
    {
      "type": "node",
      "id": 2986480255,
      "lat": 12.9046865,
      "lon": 77.565528,
      "tags": {
        "amenity": "atm",
        "brand": "Axis Bank",
        "brand:wikidata": "Q2003549",
        "name": "Axis Bank",
        "name:kn": "ಆಕ್ಸಿಸ್ ಬ್ಯಾಂಕ್",
        "operator": "Axis Bank",
        "operator:wikidata": "Q2003549"
      }
    },
    {
      "type": "node",
      "id": 2986480256,
      "lat": 12.9048653,
      "lon": 77.5657348,
      "tags": {
        "amenity": "restaurant",
        "cuisine": "regional",
        "name": "Shri Banashankari Darshini"
      }
    },
    {
      "type": "node",
      "id": 2986480267,
      "lat": 12.9049515,
      "lon": 77.5676264,
      "tags": {
        "amenity": "pharmacy",
        "name": "Karnataka Medicals and general stores"
      }
    },
    {
      "type": "node",
      "id": 4444314218,
      "lat": 12.8920481,
      "lon": 77.5719005,
      "tags": {
        "addr:city": "bengaluru",
        "addr:postcode": "571438",
        "addr:street": "Jakkana Kuppe Village",
        "amenity": "school",
        "name": "Greenvalley high school"
      }
    },
    {
      "type": "node",
      "id": 4445183051,
      "lat": 12.8963221,
      "lon": 77.5784799,
      "tags": {
        "addr:city": "BANGALORE",
        "addr:housenumber": "8 & 9",
        "addr:postcode": "560068",
        "addr:street": "Near R N S Motors, GB Palya, Hosur Road, Near Bommanahalli Signal, Bommasandra Industrial Area",
        "amenity": "school",
        "name": "Narayana e-Techno School",
        "phone": "+9170222 93935",
        "website": "narayanaetechnoschools.com"
      }
    },
    {
      "type": "node",
      "id": 4456280292,
      "lat": 12.8922387,
      "lon": 77.5655484,
      "tags": {
        "amenity": "school",
        "name": "RMS International School",
        "name:en": "RMS International School"
      }
    },
    {
      "type": "node",
      "id": 4456280393,
      "lat": 12.8947916,
      "lon": 77.5687362,
      "tags": {
        "addr:street": "Kanakapura Road",
        "amenity": "bank",
        "brand": "Indian Overseas Bank",
        "brand:wikidata": "Q2003611",
        "brand:wikipedia": "en:Indian Overseas Bank",
        "name": "Indian Overseas Bank",
        "name:en": "Indian Overseas Bank",
        "name:kn": "ಐ ಓ ಬಿ",
        "short_name": "IOB",
        "website": "https://www.iob.in"
      }
    },
    {
      "type": "node",
      "id": 4456338990,
      "lat": 12.8915698,
      "lon": 77.5652629,
      "tags": {
        "addr:street": "Kanakapura Road",
        "amenity": "school",
        "name": "NIIT",
        "name:en": "NIIT"
      }
    },
    {
      "type": "node",
      "id": 4456339090,
      "lat": 12.8943049,
      "lon": 77.5682821,
      "tags": {
        "addr:district": "Bengaluru Urban",
        "addr:full": "No.6 J.C.Industrial Area, Yelechenahalli",
        "addr:postcode": "560062",
        "addr:state": "Karnataka",
        "addr:street": "Kanakapura Road",
        "addr:subdistrict": "Kanakpura",
        "amenity": "hospital",
        "name": "Sri Sai Ram Hospital",
        "name:en": "Sri Sai Ram Hospital",
        "name:kn": "ಶ್ರೀ ಸಾಯಿ ರಾಮ ಆಸ್ಪತ್ರೆ",
        "operator:type": "private",
        "source": "OpenGovernmentData",
        "website": "http://www.srisairamhospital.com/"
      }
    },
    {
      "type": "node",
      "id": 4456339091,
      "lat": 12.8912738,
      "lon": 77.5649779,
      "tags": {
        "addr:street": "Kanakapura Road",
        "amenity": "restaurant",
        "cuisine": "indian",
        "name": "Athithi Grand",
        "name:en": "Athithi Grand"
      }
    },
    {
      "type": "node",
      "id": 4456342889,
      "lat": 12.894686,
      "lon": 77.5685594,
      "tags": {
        "addr:street": "Kanakapura Road",
        "amenity": "clinic",
        "name": "Diabetacare",
        "name:en": "Diabetacare"
      }
    },
    {
      "type": "node",
      "id": 6438101117,
      "lat": 12.8898311,
      "lon": 77.5728954,
      "tags": {
        "addr:place": "Chunchanagatta",
        "amenity": "school",
        "isced:level": "3",
        "name": "Carmel Jyothi LPS, Chunchanagatta",
        "name:kn": "ಕಾರ್ಮೆಲ್ ಜ್ಯೋತಿ ಕಿರಿಯ ಪ್ರಾಥಮಿಕ ಶಾಲೆ , ಚುಂಚನಗಟ್ಟಾ",
        "operator": "Private Un-Aided",
        "school": "Higher Secondary"
      }
    },
    {
      "type": "node",
      "id": 6531919903,
      "lat": 12.8951036,
      "lon": 77.5703915,
      "tags": {
        "addr:place": "Jaraganahalli",
        "amenity": "school",
        "isced:level": "3",
        "name": "Jyothi Kendriya Vidyalaya HPS, Jaragana Halli 1",
        "name:kn": "ಜ್ಯೋತಿ ಕೇಂದ್ರೀಯ ವಿದ್ಯಾಲಯ ಹಿರಿಯ ಪ್ರಾಥಮಿಕ ಶಾಲೆ,ಜರಗನ ಹಳ್ಳಿ",
        "operator": "Private Un-Aided",
        "school": "Higher Secondary"
      }
    },
    {
      "type": "node",
      "id": 6531943351,
      "lat": 12.9020965,
      "lon": 77.57588,
      "tags": {
        "addr:place": "Jaraganahalli",
        "amenity": "school",
        "isced:level": "2",
        "name": "Sri Vidyanikethan HPS Jaragana, Jaragana Halli 1",
        "name:kn": "ಶ್ರೀ ವಿದ್ಯಾನಿಕೆಥನ್ ಹಿರಿಯ ಪ್ರಾಥಮಿಕ ಶಾಲೆ ಜರಗನ ಹಳ್ಳಿ",
        "operator": "Private Un-Aided",
        "school": "Higher Primary"
      }
    },
    {
      "type": "node",
      "id": 6531954352,
      "lat": 12.8991056,
      "lon": 77.5763195,
      "tags": {
        "addr:place": "Jaraganahalli",
        "amenity": "school",
        "isced:level": "2",
        "name": "Vivekananda HPS, Jaragana Halli 1",
        "name:kn": "ವಿವೇಕಾನಂದ ಹಿರಿಯ ಪ್ರಾಥಮಿಕ ಶಾಲೆ,ಜರಗನ ಹಳ್ಳಿ",
        "operator": "Private Un-Aided",
        "school": "Higher Primary"
      }
    },
    {
      "type": "node",
      "id": 6531963628,
      "lat": 12.9040441,
      "lon": 77.574382,
      "tags": {
        "addr:place": "Jaraganahalli",
        "amenity": "school",
        "isced:level": "3",
        "name": "Shreyas School Jaraganahalli, Jaragana Halli 1",
        "name:kn": "ಶ್ರೇಯಸ್ ಶಾಲೆ ಜರಗನ ಹಳ್ಳಿ",
        "operator": "Private Un-Aided",
        "school": "Higher Secondary"
      }
    },
    {
      "type": "node",
      "id": 6536295717,
      "lat": 12.8996164,
      "lon": 77.5756288,
      "tags": {
        "addr:place": "Jaraganahalli",
        "amenity": "school",
        "isced:level": "2",
        "name": "Sincere Vidyalaya Jaraganahalli 1",
        "name:kn": "ಸಿನ್ಸೆರೆ  ವಿದ್ಯಾಲಯ ಜರಗನ ಹಳ್ಳಿ",
        "operator": "Private Un-Aided",
        "school": "Higher Primary"
      }
    },
    {
      "type": "node",
      "id": 8999979617,
      "lat": 12.8967362,
      "lon": 77.5633917,
      "tags": {
        "email": "hello@themilletstore.in",
        "name": "The Millet Store",
        "opening_hours": "Mo-Su 09:00-19:00",
        "phone": "+916362033034",
        "shop": "convenience",
        "website": "https://themilletstore.in"
      }
    },
    {
      "type": "node",
      "id": 10647620828,
      "lat": 12.9059616,
      "lon": 77.5734858,
      "tags": {
        "amenity": "atm",
        "check_date": "2023-02-11",
        "operator": "RBL"
      }
    },
    {
      "type": "node",
      "id": 11762795434,
      "lat": 12.9041368,
      "lon": 77.568103,
      "tags": {
        "addr:city": "Bengaluru",
        "addr:district": "Bengaluru",
        "addr:full": "Fayazabad, Kanka Nagar,Kumaraswamy layou, Bengaluru-560078",
        "addr:postcode": "560078",
        "name": "AS Sign Shop",
        "opening_hours": "Mo-Sa 11:00-20:00",
        "payment:cards": "yes",
        "payment:cash": "yes",
        "phone": "9900699969",
        "shop": "3d_printing",
        "website": "https://assignshop.com/"
      }
    },
    {
      "type": "node",
      "id": 11789326460,
      "lat": 12.898871,
      "lon": 77.566199,
      "tags": {
        "amenity": "shelter",
        "shelter_type": "gazebo"
      }
    },
    {
      "type": "node",
      "id": 11799150110,
      "lat": 12.9032287,
      "lon": 77.5628972,
      "tags": {
        "amenity": "shelter",
        "shelter_type": "gazebo"
      }
    },
    {
      "type": "node",
      "id": 11813198347,
      "lat": 12.9024293,
      "lon": 77.5688598,
      "tags": {
        "amenity": "place_of_worship",
        "name": "Masjid e Faiz",
        "religion": "muslim"
      }
    },
    {
      "type": "node",
      "id": 11813198348,
      "lat": 12.903466,
      "lon": 77.567628,
      "tags": {
        "amenity": "place_of_worship",
        "name": "Masjid e Abu Bakr",
        "religion": "muslim"
      }
    },
    {
      "type": "node",
      "id": 11813198349,
      "lat": 12.9036202,
      "lon": 77.5684011,
      "tags": {
        "name": "Iyengar's Amma's Pastries",
        "shop": "bakery"
      }
    },
    {
      "type": "node",
      "id": 11813225339,
      "lat": 12.9030947,
      "lon": 77.5703658,
      "tags": {
        "name": "Bismillah Provision Store",
        "shop": "convenience"
      }
    },
    {
      "type": "node",
      "id": 11813225340,
      "lat": 12.9043117,
      "lon": 77.568727,
      "tags": {
        "amenity": "school",
        "name": "New Era Primary & High School"
      }
    },
    {
      "type": "node",
      "id": 11813225341,
      "lat": 12.9045614,
      "lon": 77.5694311,
      "tags": {
        "amenity": "place_of_worship",
        "name": "Masjid e Umar",
        "religion": "muslim"
      }
    },
    {
      "type": "node",
      "id": 11813225392,
      "lat": 12.9032032,
      "lon": 77.5697228,
      "tags": {
        "amenity": "place_of_worship",
        "name": "Masjid e Usman",
        "religion": "muslim"
      }
    },
    {
      "type": "node",
      "id": 11813225397,
      "lat": 12.9048902,
      "lon": 77.5683146,
      "tags": {
        "name": "Yaseen Store",
        "shop": "convenience"
      }
    },
    {
      "type": "node",
      "id": 11813225398,
      "lat": 12.9047967,
      "lon": 77.568269,
      "tags": {
        "name": "Hello Provision Store",
        "shop": "convenience"
      }
    },
    {
      "type": "node",
      "id": 11813225524,
      "lat": 12.9036411,
      "lon": 77.5680175,
      "tags": {
        "amenity": "school",
        "name": "St. Thomas International School"
      }
    },
    {
      "type": "node",
      "id": 11813225529,
      "lat": 12.9034673,
      "lon": 77.5687028,
      "tags": {
        "amenity": "kindergarten",
        "name": "Aswad Day Care"
      }
    },
    {
      "type": "node",
      "id": 11813225530,
      "lat": 12.9034568,
      "lon": 77.56879,
      "tags": {
        "amenity": "pharmacy",
        "name": "Aswad Medical Store"
      }
    },
    {
      "type": "node",
      "id": 11813227436,
      "lat": 12.9045719,
      "lon": 77.5682455,
      "tags": {
        "name": "Mutton Stall",
        "shop": "butcher"
      }
    },
    {
      "type": "node",
      "id": 11813266184,
      "lat": 12.9056987,
      "lon": 77.5693486,
      "tags": {
        "shop": "butcher"
      }
    },
    {
      "type": "node",
      "id": 11813266185,
      "lat": 12.9057262,
      "lon": 77.5693989,
      "tags": {
        "shop": "hairdresser"
      }
    },
    {
      "type": "node",
      "id": 11869398538,
      "lat": 12.8939593,
      "lon": 77.567857,
      "tags": {
        "addr:street": "Kanakapura Road",
        "description": "Men & Women Fashion clothing store",
        "name": "Zudio",
        "shop": "clothes",
        "website": "https://www.zudio.com/"
      }
    },
    {
      "type": "node",
      "id": 12171236647,
      "lat": 12.9032735,
      "lon": 77.5737196,
      "tags": {
        "description": "Water filter and other consumables",
        "name": "Aqua World",
        "shop": "appliance"
      }
    },
    {
      "type": "node",
      "id": 12206369021,
      "lat": 12.8962804,
      "lon": 77.571013,
      "tags": {
        "name": "Zudio",
        "shop": "clothes"
      }
    },
    {
      "type": "node",
      "id": 12508642648,
      "lat": 12.898493,
      "lon": 77.5620708,
      "tags": {
        "addr:city": "Bengaluru",
        "addr:housenumber": "153",
        "addr:postcode": "560078",
        "addr:street": "40 Fort Rd, Vikram Nagar, Yalachenahalli",
        "name": "JBR",
        "shop": "yes"
      }
    },
    {
      "type": "node",
      "id": 12869993437,
      "lat": 12.8959767,
      "lon": 77.5702304,
      "tags": {
        "access": "permissive",
        "addr:floor": "1",
        "amenity": "toilets",
        "fee": "yes",
        "female": "yes",
        "fixme": "Accurate location within station",
        "level": "1",
        "male": "yes",
        "operator": "BMRCL",
        "toilets:handwashing": "yes",
        "toilets:position": "urinal"
      }
    },
    {
      "type": "node",
      "id": 12966565785,
      "lat": 12.891725,
      "lon": 77.5655194,
      "tags": {
        "addr:door": "Ground Floor, Century Central, Konankunte, Kanakapura Main Road,",
        "addr:floor": "G",
        "addr:housename": "Century Central",
        "addr:postcode": "560062",
        "addr:street": "Kanakapura Road",
        "addr:unit": "Ground floor",
        "amenity": "bank",
        "atm": "yes",
        "branch": "Konankunte",
        "brand": "Axis Bank",
        "check_date": "2025-07-01",
        "currency:INR": "yes",
        "drive_through": "no",
        "internet_access": "no",
        "level": "0",
        "name": "Axis Bank",
        "name:hi": "एक्सिस बैंक",
        "opening_hours": "Mo-Sa 09:30-15:30; Su,Sa[2,4] off",
        "operator": "Axis Babk",
        "payment:cash": "yes",
        "payment:credit_cards": "yes",
        "payment:debit_cards": "yes",
        "wheelchair": "limited"
      }
    },
    {
      "type": "node",
      "id": 12966565786,
      "lat": 12.891725,
      "lon": 77.5655194,
      "tags": {
        "addr:floor": "G",
        "addr:housename": "Century Central",
        "addr:postcode": "560062",
        "addr:street": "Kanakapura Road",
        "addr:unit": "Ground Floor",
        "amenity": "bank",
        "atm": "yes",
        "branch": "Konankunte",
        "brand": "IndusInd Bank",
        "check_date": "2025-07-01",
        "currency:INR": "yes",
        "drive_through": "no",
        "internet_access": "no",
        "level": "0",
        "name": "IndusInd Bank",
        "name:hi": "इंडसइंड बैंक",
        "opening_hours": "Mo-Sa 09:30-17:00; Su,Sa[2,4] off",
        "operator": "IndusInd Bank",
        "payment:cash": "yes",
        "payment:credit_cards": "yes",
        "payment:debit_cards": "yes",
        "wheelchair": "limited"
      }
    },
    {
      "type": "node",
      "id": 12966568206,
      "lat": 12.8917665,
      "lon": 77.565456,
      "tags": {
        "addr:city": "Bangalore",
        "addr:country": "IN",
        "addr:postcode": "560062",
        "addr:street": "Kanakapura Road",
        "amenity": "bank",
        "atm": "yes",
        "branch": "Konankunte",
        "opening_hours": "Mo-Sa 09:30-15:30, Sa[2,4] off",
        "operator": "Axis Bank",
        "wheelchair": "limited"
      }
    },
    {
      "type": "node",
      "id": 13130809622,
      "lat": 12.9007691,
      "lon": 77.5737005,
      "tags": {
        "addr:city": "Bengaluru",
        "addr:district": "Bengaluru Urban",
        "addr:housenumber": "146",
        "addr:postcode": "560078",
        "addr:street": "Kanakapura Road",
        "name": "Sri Lakshmi Auto Electrical and Battery Works",
        "shop": "car_repair"
      }
    },
    {
      "type": "node",
      "id": 13180138045,
      "lat": 12.8962447,
      "lon": 77.5709505,
      "tags": {
        "name": "Star Bazar",
        "shop": "department_store"
      }
    },
    {
      "type": "way",
      "id": 37351657,
      "center": {
        "lat": 12.8933364,
        "lon": 77.5637095
      },
      "tags": {
        "amenity": "school",
        "name": "Delhi Public School",
        "name:kn": "ದೆಹಲಿ ಸಾರ್ವಜನಿಕ ಶಾಲೆ"
      }
    },
    {
      "type": "way",
      "id": 37351658,
      "center": {
        "lat": 12.8938182,
        "lon": 77.5627707
      },
      "tags": {
        "amenity": "school",
        "name": "Alpine Public School"
      }
    },
    {
      "type": "way",
      "id": 239449581,
      "center": {
        "lat": 12.8982316,
        "lon": 77.5605454
      },
      "tags": {
        "leisure": "park",
        "name": "Rastrakavi Kuvempu Playground",
        "name:etymology:wikidata": "Q3351108",
        "operator": "ಬೃಹತ್ ಬೆಂಗಳೂರು ಮಹಾನಗರ ಪಾಲಿಕೆ",
        "operator:en": "Bruhat Bengaluru Mahanagara Palike",
        "operator:ka": "ಬೃಹತ್ ಬೆಂಗಳೂರು ಮಹಾನಗರ ಪಾಲಿಕೆ",
        "operator:short": "BBMP",
        "operator:type": "government",
        "operator:wikidata": "Q4978693"
      }
    },
    {
      "type": "way",
      "id": 294999800,
      "center": {
        "lat": 12.9052391,
        "lon": 77.5651936
      },
      "tags": {
        "leisure": "playground"
      }
    },
    {
      "type": "way",
      "id": 334647969,
      "center": {
        "lat": 12.900453,
        "lon": 77.5725322
      },
      "tags": {
        "landuse": "recreation_ground",
        "leisure": "pitch"
      }
    },
    {
      "type": "way",
      "id": 347231662,
      "center": {
        "lat": 12.896796,
        "lon": 77.5703127
      },
      "tags": {
        "addr:city": "Bengaluru",
        "addr:housenumber": "Ground Floor, 67",
        "addr:postcode": "560078",
        "addr:street": "Kanakapura Rd, next to Vaishnavi Residency, Yelachenahalli, Naidu Layout",
        "amenity": "restaurant",
        "building": "restaurant",
        "name": "Paakashala",
        "name:kn": "ಪಾಕಶಾಲೆ",
        "website": "https://paakashala.com/"
      }
    },
    {
      "type": "way",
      "id": 347591637,
      "center": {
        "lat": 12.9055094,
        "lon": 77.5651399
      },
      "tags": {
        "amenity": "place_of_worship",
        "building": "yes"
      }
    },
    {
      "type": "way",
      "id": 362891218,
      "center": {
        "lat": 12.9002135,
        "lon": 77.5621488
      },
      "tags": {
        "leisure": "park",
        "name": "BBMP",
        "name:kn": "ಬೃ. ಬೆಂ. ಮ. ಪಾ.",
        "operator": "ಬೃಹತ್ ಬೆಂಗಳೂರು ಮಹಾನಗರ ಪಾಲಿಕೆ",
        "operator:en": "Bruhat Bengaluru Mahanagara Palike",
        "operator:ka": "ಬೃಹತ್ ಬೆಂಗಳೂರು ಮಹಾನಗರ ಪಾಲಿಕೆ",
        "operator:short": "BBMP",
        "operator:type": "government",
        "operator:wikidata": "Q4978693"
      }
    },
    {
      "type": "way",
      "id": 442048027,
      "center": {
        "lat": 12.9077922,
        "lon": 77.5667401
      },
      "tags": {
        "amenity": "college",
        "name": "Dayanand Sagar Institutions",
        "name:kn": "ದಯಾನಂದ ಸಾಗರ್ ಕಾಲೇಜು"
      }
    },
    {
      "type": "way",
      "id": 466642967,
      "center": {
        "lat": 12.9028846,
        "lon": 77.5755502
      },
      "tags": {
        "barrier": "fence",
        "leisure": "park",
        "name": "Jaraganahalli Park",
        "name:kn": "ಜರಗನಹಳ್ಳಿ ಉದ್ಯಾನವನ",
        "name:ta": "ஜரகனஹல்லி பூங்கா"
      }
    },
    {
      "type": "way",
      "id": 700738307,
      "center": {
        "lat": 12.8944202,
        "lon": 77.5771955
      },
      "tags": {
        "access": "residents",
        "leisure": "pitch",
        "name": "BPhase Basketball Court",
        "sport": "basketball",
        "surface": "concrete"
      }
    },
    {
      "type": "way",
      "id": 705294039,
      "center": {
        "lat": 12.8950396,
        "lon": 77.5767864
      },
      "tags": {
        "access": "private",
        "leisure": "swimming_pool",
        "lit": "yes",
        "location": "outdoor",
        "name": "Elita Wading Pool",
        "salt": "no"
      }
    },
    {
      "type": "way",
      "id": 705294093,
      "center": {
        "lat": 12.8947814,
        "lon": 77.577033
      },
      "tags": {
        "addr:city": "BANGALORE",
        "addr:postcode": "560068",
        "leisure": "park",
        "name": "B Phase Park 1",
        "opening_hours": "sunrise-sunset",
        "operator": "Elita Promenade"
      }
    },
    {
      "type": "way",
      "id": 705294094,
      "center": {
        "lat": 12.8947967,
        "lon": 77.5762675
      },
      "tags": {
        "addr:city": "BANGALORE",
        "addr:postcode": "560068",
        "leisure": "park",
        "name": "B Phase Park 2",
        "opening_hours": "sunrise-sunset",
        "operator": "Elita Promenade"
      }
    },
    {
      "type": "way",
      "id": 1137982234,
      "center": {
        "lat": 12.900122,
        "lon": 77.5733646
      },
      "tags": {
        "addr:place": "Jaraganahalli",
        "amenity": "school",
        "isced:level": "2",
        "name": "GMPS Jaraganahalli",
        "name:kn": "ಸರ್ಕಾರಿ ಮರಾಠ ಹಿರಿಯ ಪ್ರಾಥಮಿಕ ಶಾಲೆ ಜರಗನಹಳ್ಳಿ",
        "operator": "Department of Education",
        "school": "primary"
      }
    },
    {
      "type": "way",
      "id": 1176579534,
      "center": {
        "lat": 12.8934488,
        "lon": 77.5669559
      },
      "tags": {
        "access": "customers",
        "amenity": "parking",
        "parking": "surface"
      }
    },
    {
      "type": "way",
      "id": 1176579538,
      "center": {
        "lat": 12.8964747,
        "lon": 77.5698873
      },
      "tags": {
        "access": "customers",
        "amenity": "parking",
        "parking": "surface"
      }
    },
    {
      "type": "way",
      "id": 1208265152,
      "center": {
        "lat": 12.9032862,
        "lon": 77.5655639
      },
      "tags": {
        "leisure": "park"
      }
    },
    {
      "type": "way",
      "id": 1208265155,
      "center": {
        "lat": 12.9057145,
        "lon": 77.566493
      },
      "tags": {
        "leisure": "park"
      }
    },
    {
      "type": "way",
      "id": 1208265156,
      "center": {
        "lat": 12.9032764,
        "lon": 77.5628899
      },
      "tags": {
        "leisure": "park"
      }
    },
    {
      "type": "way",
      "id": 1208265157,
      "center": {
        "lat": 12.9037019,
        "lon": 77.5641337
      },
      "tags": {
        "leisure": "park"
      }
    },
    {
      "type": "way",
      "id": 1208265158,
      "center": {
        "lat": 12.9026489,
        "lon": 77.5628262
      },
      "tags": {
        "leisure": "park"
      }
    },
    {
      "type": "way",
      "id": 1208265159,
      "center": {
        "lat": 12.9011571,
        "lon": 77.5617683
      },
      "tags": {
        "leisure": "park"
      }
    },
    {
      "type": "way",
      "id": 1263805868,
      "center": {
        "lat": 12.9062937,
        "lon": 77.5727718
      },
      "tags": {
        "amenity": "grave_yard",
        "landuse": "cemetery"
      }
    },
    {
      "type": "way",
      "id": 1269267287,
      "center": {
        "lat": 12.8996612,
        "lon": 77.5656458
      },
      "tags": {
        "leisure": "park"
      }
    },
    {
      "type": "way",
      "id": 1270568400,
      "center": {
        "lat": 12.9027309,
        "lon": 77.5645404
      },
      "tags": {
        "amenity": "place_of_worship",
        "landuse": "religious",
        "name": "108 Ganesha Temple",
        "name:kn": "೧೦೮ ಗಣೇಶ",
        "religion": "hindu"
      }
    },
    {
      "type": "way",
      "id": 1270568405,
      "center": {
        "lat": 12.901644,
        "lon": 77.5616377
      },
      "tags": {
        "leisure": "park"
      }
    },
    {
      "type": "way",
      "id": 1270568416,
      "center": {
        "lat": 12.9034088,
        "lon": 77.5629804
      },
      "tags": {
        "leisure": "playground"
      }
    },
    {
      "type": "way",
      "id": 1270568418,
      "center": {
        "lat": 12.9058582,
        "lon": 77.5696094
      },
      "tags": {
        "amenity": "place_of_worship",
        "landuse": "religious",
        "name": "Noorani Masjid",
        "name:kn": "ನೂರಾನಿ ಮಸೀದಿ",
        "religion": "muslim"
      }
    },
    {
      "type": "way",
      "id": 1270568419,
      "center": {
        "lat": 12.9050042,
        "lon": 77.5721612
      },
      "tags": {
        "leisure": "playground"
      }
    },
    {
      "type": "way",
      "id": 1270568420,
      "center": {
        "lat": 12.9052301,
        "lon": 77.5718879
      },
      "tags": {
        "access": "private",
        "leisure": "swimming_pool"
      }
    },
    {
      "type": "way",
      "id": 1270568427,
      "center": {
        "lat": 12.90408,
        "lon": 77.5665779
      },
      "tags": {
        "amenity": "school",
        "landuse": "education",
        "name": "Government Urdu Higher Primary School"
      }
    },
    {
      "type": "way",
      "id": 1270788423,
      "center": {
        "lat": 12.8983062,
        "lon": 77.5778787
      },
      "tags": {
        "leisure": "park"
      }
    },
    {
      "type": "way",
      "id": 1270788435,
      "center": {
        "lat": 12.9002593,
        "lon": 77.5717324
      },
      "tags": {
        "amenity": "school",
        "name": "Narayana e-Techno School"
      }
    },
    {
      "type": "way",
      "id": 1271076950,
      "center": {
        "lat": 12.9040332,
        "lon": 77.5712282
      },
      "tags": {
        "access": "private",
        "leisure": "swimming_pool"
      }
    },
    {
      "type": "way",
      "id": 1271081094,
      "center": {
        "lat": 12.9006894,
        "lon": 77.5650342
      },
      "tags": {
        "amenity": "place_of_worship",
        "landuse": "religious",
        "religion": "hindu"
      }
    },
    {
      "type": "way",
      "id": 1272152590,
      "center": {
        "lat": 12.9068134,
        "lon": 77.5715681
      },
      "tags": {
        "amenity": "fuel",
        "wheelchair": "limited"
      }
    },
    {
      "type": "way",
      "id": 1272154848,
      "center": {
        "lat": 12.9029904,
        "lon": 77.5671103
      },
      "tags": {
        "amenity": "school"
      }
    },
    {
      "type": "way",
      "id": 1337309972,
      "center": {
        "lat": 12.8954466,
        "lon": 77.5783762
      },
      "tags": {
        "landuse": "commercial",
        "leisure": "sports_centre"
      }
    },
    {
      "type": "way",
      "id": 1352350871,
      "center": {
        "lat": 12.8971346,
        "lon": 77.5705733
      },
      "tags": {
        "amenity": "fuel"
      }
    },
    {
      "type": "way",
      "id": 1384382921,
      "center": {
        "lat": 12.889663,
        "lon": 77.5683005
      },
      "tags": {
        "amenity": "school"
      }
    },
    {
      "type": "way",
      "id": 1424148415,
      "center": {
        "lat": 12.8957295,
        "lon": 77.5774266
      },
      "tags": {
        "access": "private",
        "amenity": "parking",
        "parking": "street_side"
      }
    },
    {
      "type": "way",
      "id": 1424148417,
      "center": {
        "lat": 12.8943168,
        "lon": 77.5762315
      },
      "tags": {
        "leisure": "pitch",
        "sport": "soccer"
      }
    },
    {
      "type": "way",
      "id": 1428268204,
      "center": {
        "lat": 12.9013783,
        "lon": 77.5741397
      },
      "tags": {
        "leisure": "garden"
      }
    },
    {
      "type": "way",
      "id": 1428268205,
      "center": {
        "lat": 12.9013756,
        "lon": 77.5740871
      },
      "tags": {
        "access": "private",
        "leisure": "swimming_pool"
      }
    },
    {
      "type": "way",
      "id": 1434002507,
      "center": {
        "lat": 12.8965526,
        "lon": 77.5710357
      },
      "tags": {
        "amenity": "fuel",
        "brand": "Indian Oil",
        "brand:wikidata": "Q1289348",
        "name": "Indian Oil"
      }
    }
  ]
}